[
  {
    "city": "Fargo",
    "state": "ND",
    "zip": "58102",
    "lat": 46.8651,
    "lon": -96.8292,
    "kma": "Fargo Market",
    "kma_name": "Fargo Market",
    "region": "ND",
    "freight_score": 100,
    "population": 225066,
    "zip_zone": "Z5"
  },
  {
    "city": "Bismarck",
    "state": "ND",
    "zip": "58505",
    "lat": 46.8143,
    "lon": -100.7694,
    "kma": "Fargo Market",
    "kma_name": "Fargo Market",
    "region": "ND",
    "freight_score": 100,
    "population": 99060,
    "zip_zone": "Z5"
  },
  {
    "city": "Grand Forks",
    "state": "ND",
    "zip": "58202",
    "lat": 47.9214,
    "lon": -97.0884,
    "kma": "Fargo Market",
    "kma_name": "Fargo Market",
    "region": "ND",
    "freight_score": 92,
    "population": 68853,
    "zip_zone": "Z5"
  },
  {
    "city": "Minot",
    "state": "ND",
    "zip": "58707",
    "lat": 48.2375,
    "lon": -101.278,
    "kma": "Regina Market",
    "kma_name": "Regina Market",
    "region": "ND",
    "freight_score": 87,
    "population": 47922,
    "zip_zone": "Z5"
  },
  {
    "city": "West Fargo",
    "state": "ND",
    "zip": "58078",
    "lat": 46.8573,
    "lon": -96.9057,
    "kma": "Fargo Market",
    "kma_name": "Fargo Market",
    "region": "ND",
    "freight_score": 85,
    "population": 39325,
    "zip_zone": "Z5"
  },
  {
    "city": "Williston",
    "state": "ND",
    "zip": "58801",
    "lat": 48.1814,
    "lon": -103.6364,
    "kma": "Regina Market",
    "kma_name": "Regina Market",
    "region": "ND",
    "freight_score": 82,
    "population": 27964,
    "zip_zone": "Z5"
  },
  {
    "city": "Dickinson",
    "state": "ND",
    "zip": "58601",
    "lat": 46.8918,
    "lon": -102.7925,
    "kma": "Rapid City Market",
    "kma_name": "Rapid City Market",
    "region": "ND",
    "freight_score": 81,
    "population": 25216,
    "zip_zone": "Z5"
  },
  {
    "city": "Mandan",
    "state": "ND",
    "zip": "58554",
    "lat": 46.829,
    "lon": -100.887,
    "kma": "Fargo Market",
    "kma_name": "Fargo Market",
    "region": "ND",
    "freight_score": 81,
    "population": 24293,
    "zip_zone": "Z5"
  },
  {
    "city": "Jamestown",
    "state": "ND",
    "zip": "58401",
    "lat": 46.9063,
    "lon": -98.6937,
    "kma": "Fargo Market",
    "kma_name": "Fargo Market",
    "region": "ND",
    "freight_score": 79,
    "population": 15774,
    "zip_zone": "Z5"
  },
  {
    "city": "Wahpeton",
    "state": "ND",
    "zip": "58075",
    "lat": 46.2722,
    "lon": -96.6118,
    "kma": "Fargo Market",
    "kma_name": "Fargo Market",
    "region": "ND",
    "freight_score": 77,
    "population": 7996,
    "zip_zone": "Z5"
  },
  {
    "city": "Valley City",
    "state": "ND",
    "zip": "58072",
    "lat": 46.9222,
    "lon": -98.0055,
    "kma": "Fargo Market",
    "kma_name": "Fargo Market",
    "region": "ND",
    "freight_score": 77,
    "population": 6554,
    "zip_zone": "Z5"
  },
  {
    "city": "Watford City",
    "state": "ND",
    "zip": "58854",
    "lat": 47.8027,
    "lon": -103.2678,
    "kma": "Regina Market",
    "kma_name": "Regina Market",
    "region": "ND",
    "freight_score": 77,
    "population": 6016,
    "zip_zone": "Z5"
  },
  {
    "city": "Minot AFB",
    "state": "ND",
    "zip": "58705",
    "lat": 48.4209,
    "lon": -101.3381,
    "kma": "Regina Market",
    "kma_name": "Regina Market",
    "region": "ND",
    "freight_score": 76,
    "population": 4904,
    "zip_zone": "Z5"
  },
  {
    "city": "Lincoln",
    "state": "ND",
    "zip": "58504",
    "lat": 46.7688,
    "lon": -100.6978,
    "kma": "Fargo Market",
    "kma_name": "Fargo Market",
    "region": "ND",
    "freight_score": 76,
    "population": 4309,
    "zip_zone": "Z5"
  },
  {
    "city": "Grafton",
    "state": "ND",
    "zip": "58237",
    "lat": 48.4142,
    "lon": -97.4056,
    "kma": "Winnipeg Market",
    "kma_name": "Winnipeg Market",
    "region": "ND",
    "freight_score": 76,
    "population": 4128,
    "zip_zone": "Z5"
  },
  {
    "city": "Horace",
    "state": "ND",
    "zip": "58047",
    "lat": 46.7558,
    "lon": -96.9078,
    "kma": "Fargo Market",
    "kma_name": "Fargo Market",
    "region": "ND",
    "freight_score": 76,
    "population": 3964,
    "zip_zone": "Z5"
  },
  {
    "city": "Beulah",
    "state": "ND",
    "zip": "58523",
    "lat": 47.2665,
    "lon": -101.7734,
    "kma": "Rapid City Market",
    "kma_name": "Rapid City Market",
    "region": "ND",
    "freight_score": 76,
    "population": 3058,
    "zip_zone": "Z5"
  },
  {
    "city": "New Town",
    "state": "ND",
    "zip": "58763",
    "lat": 47.989,
    "lon": -102.4882,
    "kma": "Regina Market",
    "kma_name": "Regina Market",
    "region": "ND",
    "freight_score": 76,
    "population": 2725,
    "zip_zone": "Z5"
  },
  {
    "city": "Casselton",
    "state": "ND",
    "zip": "58012",
    "lat": 46.8973,
    "lon": -97.2128,
    "kma": "Fargo Market",
    "kma_name": "Fargo Market",
    "region": "ND",
    "freight_score": 76,
    "population": 2640,
    "zip_zone": "Z5"
  },
  {
    "city": "Rugby",
    "state": "ND",
    "zip": "58368",
    "lat": 48.3654,
    "lon": -99.9903,
    "kma": "Winnipeg Market",
    "kma_name": "Winnipeg Market",
    "region": "ND",
    "freight_score": 76,
    "population": 2555,
    "zip_zone": "Z5"
  },
  {
    "city": "Hazen",
    "state": "ND",
    "zip": "58545",
    "lat": 47.299,
    "lon": -101.6259,
    "kma": "Fargo Market",
    "kma_name": "Fargo Market",
    "region": "ND",
    "freight_score": 76,
    "population": 2509,
    "zip_zone": "Z5"
  },
  {
    "city": "Lisbon",
    "state": "ND",
    "zip": "58054",
    "lat": 46.4385,
    "lon": -97.6841,
    "kma": "Fargo Market",
    "kma_name": "Fargo Market",
    "region": "ND",
    "freight_score": 76,
    "population": 2262,
    "zip_zone": "Z5"
  },
  {
    "city": "Carrington",
    "state": "ND",
    "zip": "58421",
    "lat": 47.452,
    "lon": -99.1307,
    "kma": "Fargo Market",
    "kma_name": "Fargo Market",
    "region": "ND",
    "freight_score": 76,
    "population": 2171,
    "zip_zone": "Z5"
  },
  {
    "city": "Stanley",
    "state": "ND",
    "zip": "58784",
    "lat": 48.3137,
    "lon": -102.3974,
    "kma": "Regina Market",
    "kma_name": "Regina Market",
    "region": "ND",
    "freight_score": 76,
    "population": 2089,
    "zip_zone": "Z5"
  },
  {
    "city": "Grand Forks AFB",
    "state": "ND",
    "zip": "58205",
    "lat": 47.9557,
    "lon": -97.3913,
    "kma": "Fargo Market",
    "kma_name": "Fargo Market",
    "region": "ND",
    "freight_score": 76,
    "population": 2072,
    "zip_zone": "Z5"
  },
  {
    "city": "Bottineau",
    "state": "ND",
    "zip": "58318",
    "lat": 48.8248,
    "lon": -100.4426,
    "kma": "Winnipeg Market",
    "kma_name": "Winnipeg Market",
    "region": "ND",
    "freight_score": 76,
    "population": 2063,
    "zip_zone": "Z5"
  },
  {
    "city": "Mayville",
    "state": "ND",
    "zip": "58257",
    "lat": 47.4982,
    "lon": -97.3264,
    "kma": "Fargo Market",
    "kma_name": "Fargo Market",
    "region": "ND",
    "freight_score": 76,
    "population": 2050,
    "zip_zone": "Z5"
  },
  {
    "city": "Oakes",
    "state": "ND",
    "zip": "58474",
    "lat": 46.1397,
    "lon": -98.0871,
    "kma": "Fargo Market",
    "kma_name": "Fargo Market",
    "region": "ND",
    "freight_score": 76,
    "population": 2046,
    "zip_zone": "Z5"
  },
  {
    "city": "Langdon",
    "state": "ND",
    "zip": "58249",
    "lat": 48.7624,
    "lon": -98.3747,
    "kma": "Winnipeg Market",
    "kma_name": "Winnipeg Market",
    "region": "ND",
    "freight_score": 75,
    "population": 1835,
    "zip_zone": "Z5"
  },
  {
    "city": "Belcourt",
    "state": "ND",
    "zip": "58316",
    "lat": 48.8417,
    "lon": -99.7447,
    "kma": "Winnipeg Market",
    "kma_name": "Winnipeg Market",
    "region": "ND",
    "freight_score": 75,
    "population": 1739,
    "zip_zone": "Z5"
  },
  {
    "city": "Harvey",
    "state": "ND",
    "zip": "58341",
    "lat": 47.7766,
    "lon": -99.9301,
    "kma": "Fargo Market",
    "kma_name": "Fargo Market",
    "region": "ND",
    "freight_score": 75,
    "population": 1720,
    "zip_zone": "Z5"
  },
  {
    "city": "Surrey",
    "state": "ND",
    "zip": "58785",
    "lat": 48.2433,
    "lon": -101.1333,
    "kma": "Winnipeg Market",
    "kma_name": "Winnipeg Market",
    "region": "ND",
    "freight_score": 75,
    "population": 1672,
    "zip_zone": "Z5"
  },
  {
    "city": "Hillsboro",
    "state": "ND",
    "zip": "58045",
    "lat": 47.403,
    "lon": -97.0635,
    "kma": "Fargo Market",
    "kma_name": "Fargo Market",
    "region": "ND",
    "freight_score": 75,
    "population": 1643,
    "zip_zone": "Z5"
  },
  {
    "city": "Tioga",
    "state": "ND",
    "zip": "58852",
    "lat": 48.3947,
    "lon": -102.9431,
    "kma": "Regina Market",
    "kma_name": "Regina Market",
    "region": "ND",
    "freight_score": 75,
    "population": 1525,
    "zip_zone": "Z5"
  },
  {
    "city": "Bowman",
    "state": "ND",
    "zip": "58623",
    "lat": 46.1843,
    "lon": -103.4029,
    "kma": "Rapid City Market",
    "kma_name": "Rapid City Market",
    "region": "ND",
    "freight_score": 75,
    "population": 1523,
    "zip_zone": "Z5"
  },
  {
    "city": "Park River",
    "state": "ND",
    "zip": "58270",
    "lat": 48.391,
    "lon": -97.7425,
    "kma": "Winnipeg Market",
    "kma_name": "Winnipeg Market",
    "region": "ND",
    "freight_score": 75,
    "population": 1483,
    "zip_zone": "Z5"
  },
  {
    "city": "Garrison",
    "state": "ND",
    "zip": "58540",
    "lat": 47.6532,
    "lon": -101.4219,
    "kma": "Fargo Market",
    "kma_name": "Fargo Market",
    "region": "ND",
    "freight_score": 75,
    "population": 1456,
    "zip_zone": "Z5"
  },
  {
    "city": "Washburn",
    "state": "ND",
    "zip": "58577",
    "lat": 47.292,
    "lon": -101.0278,
    "kma": "Fargo Market",
    "kma_name": "Fargo Market",
    "region": "ND",
    "freight_score": 75,
    "population": 1434,
    "zip_zone": "Z5"
  },
  {
    "city": "New Rockford",
    "state": "ND",
    "zip": "58356",
    "lat": 47.6798,
    "lon": -99.1377,
    "kma": "Fargo Market",
    "kma_name": "Fargo Market",
    "region": "ND",
    "freight_score": 75,
    "population": 1325,
    "zip_zone": "Z5"
  },
  {
    "city": "Cavalier",
    "state": "ND",
    "zip": "58220",
    "lat": 48.7939,
    "lon": -97.6226,
    "kma": "Winnipeg Market",
    "kma_name": "Winnipeg Market",
    "region": "ND",
    "freight_score": 75,
    "population": 1304,
    "zip_zone": "Z5"
  },
  {
    "city": "Larimore",
    "state": "ND",
    "zip": "58251",
    "lat": 47.9091,
    "lon": -97.6269,
    "kma": "Fargo Market",
    "kma_name": "Fargo Market",
    "region": "ND",
    "freight_score": 75,
    "population": 1262,
    "zip_zone": "Z5"
  },
  {
    "city": "Mapleton",
    "state": "ND",
    "zip": "58059",
    "lat": 46.8915,
    "lon": -97.0533,
    "kma": "Fargo Market",
    "kma_name": "Fargo Market",
    "region": "ND",
    "freight_score": 75,
    "population": 1243,
    "zip_zone": "Z5"
  },
  {
    "city": "Cando",
    "state": "ND",
    "zip": "58324",
    "lat": 48.4872,
    "lon": -99.2026,
    "kma": "Winnipeg Market",
    "kma_name": "Winnipeg Market",
    "region": "ND",
    "freight_score": 75,
    "population": 1199,
    "zip_zone": "Z5"
  },
  {
    "city": "Burlington",
    "state": "ND",
    "zip": "58722",
    "lat": 48.2572,
    "lon": -101.4146,
    "kma": "Regina Market",
    "kma_name": "Regina Market",
    "region": "ND",
    "freight_score": 75,
    "population": 1169,
    "zip_zone": "Z5"
  },
  {
    "city": "Rolla",
    "state": "ND",
    "zip": "58367",
    "lat": 48.8532,
    "lon": -99.6143,
    "kma": "Winnipeg Market",
    "kma_name": "Winnipeg Market",
    "region": "ND",
    "freight_score": 75,
    "population": 1164,
    "zip_zone": "Z5"
  },
  {
    "city": "Hettinger",
    "state": "ND",
    "zip": "58639",
    "lat": 46.0034,
    "lon": -102.635,
    "kma": "Rapid City Market",
    "kma_name": "Rapid City Market",
    "region": "ND",
    "freight_score": 75,
    "population": 1141,
    "zip_zone": "Z5"
  },
  {
    "city": "Crosby",
    "state": "ND",
    "zip": "58730",
    "lat": 48.9162,
    "lon": -103.2966,
    "kma": "Regina Market",
    "kma_name": "Regina Market",
    "region": "ND",
    "freight_score": 75,
    "population": 1116,
    "zip_zone": "Z5"
  },
  {
    "city": "Shell Valley",
    "state": "ND",
    "zip": "58316",
    "lat": 48.8108,
    "lon": -99.8273,
    "kma": "Winnipeg Market",
    "kma_name": "Winnipeg Market",
    "region": "ND",
    "freight_score": 75,
    "population": 1112,
    "zip_zone": "Z5"
  },
  {
    "city": "Thompson",
    "state": "ND",
    "zip": "58278",
    "lat": 47.7752,
    "lon": -97.1054,
    "kma": "Fargo Market",
    "kma_name": "Fargo Market",
    "region": "ND",
    "freight_score": 75,
    "population": 1092,
    "zip_zone": "Z5"
  },
  {
    "city": "Kenmare",
    "state": "ND",
    "zip": "58746",
    "lat": 48.6729,
    "lon": -102.0721,
    "kma": "Regina Market",
    "kma_name": "Regina Market",
    "region": "ND",
    "freight_score": 75,
    "population": 1027,
    "zip_zone": "Z5"
  },
  {
    "city": "Velva",
    "state": "ND",
    "zip": "58790",
    "lat": 48.0582,
    "lon": -100.9329,
    "kma": "Fargo Market",
    "kma_name": "Fargo Market",
    "region": "ND",
    "freight_score": 75,
    "population": 997,
    "zip_zone": "Z5"
  },
  {
    "city": "Enderlin",
    "state": "ND",
    "zip": "58027",
    "lat": 46.6215,
    "lon": -97.5956,
    "kma": "Fargo Market",
    "kma_name": "Fargo Market",
    "region": "ND",
    "freight_score": 75,
    "population": 987,
    "zip_zone": "Z5"
  },
  {
    "city": "Parshall",
    "state": "ND",
    "zip": "58770",
    "lat": 47.9595,
    "lon": -102.1338,
    "kma": "Regina Market",
    "kma_name": "Regina Market",
    "region": "ND",
    "freight_score": 75,
    "population": 957,
    "zip_zone": "Z5"
  },
  {
    "city": "Ellendale",
    "state": "ND",
    "zip": "58436",
    "lat": 46.0043,
    "lon": -98.5254,
    "kma": "Fargo Market",
    "kma_name": "Fargo Market",
    "region": "ND",
    "freight_score": 75,
    "population": 946,
    "zip_zone": "Z5"
  },
  {
    "city": "Northwood",
    "state": "ND",
    "zip": "58267",
    "lat": 47.7384,
    "lon": -97.5707,
    "kma": "Fargo Market",
    "kma_name": "Fargo Market",
    "region": "ND",
    "freight_score": 75,
    "population": 941,
    "zip_zone": "Z5"
  },
  {
    "city": "Beach",
    "state": "ND",
    "zip": "58621",
    "lat": 46.9189,
    "lon": -104.0055,
    "kma": "Rapid City Market",
    "kma_name": "Rapid City Market",
    "region": "ND",
    "freight_score": 75,
    "population": 933,
    "zip_zone": "Z5"
  },
  {
    "city": "Fort Totten",
    "state": "ND",
    "zip": "58335",
    "lat": 47.9716,
    "lon": -98.9971,
    "kma": "Fargo Market",
    "kma_name": "Fargo Market",
    "region": "ND",
    "freight_score": 75,
    "population": 930,
    "zip_zone": "Z5"
  },
  {
    "city": "Walhalla",
    "state": "ND",
    "zip": "58282",
    "lat": 48.9211,
    "lon": -97.9176,
    "kma": "Winnipeg Market",
    "kma_name": "Winnipeg Market",
    "region": "ND",
    "freight_score": 75,
    "population": 927,
    "zip_zone": "Z5"
  },
  {
    "city": "Kindred",
    "state": "ND",
    "zip": "58051",
    "lat": 46.6494,
    "lon": -97.0169,
    "kma": "Fargo Market",
    "kma_name": "Fargo Market",
    "region": "ND",
    "freight_score": 75,
    "population": 927,
    "zip_zone": "Z5"
  },
  {
    "city": "Wishek",
    "state": "ND",
    "zip": "58495",
    "lat": 46.2554,
    "lon": -99.5546,
    "kma": "Fargo Market",
    "kma_name": "Fargo Market",
    "region": "ND",
    "freight_score": 75,
    "population": 922,
    "zip_zone": "Z5"
  },
  {
    "city": "Green Acres",
    "state": "ND",
    "zip": "58316",
    "lat": 48.8381,
    "lon": -99.6901,
    "kma": "Winnipeg Market",
    "kma_name": "Winnipeg Market",
    "region": "ND",
    "freight_score": 75,
    "population": 914,
    "zip_zone": "Z5"
  },
  {
    "city": "Cooperstown",
    "state": "ND",
    "zip": "58425",
    "lat": 47.4451,
    "lon": -98.1259,
    "kma": "Fargo Market",
    "kma_name": "Fargo Market",
    "region": "ND",
    "freight_score": 75,
    "population": 910,
    "zip_zone": "Z5"
  },
  {
    "city": "New Salem",
    "state": "ND",
    "zip": "58563",
    "lat": 46.8431,
    "lon": -101.4178,
    "kma": "Rapid City Market",
    "kma_name": "Rapid City Market",
    "region": "ND",
    "freight_score": 75,
    "population": 904,
    "zip_zone": "Z5"
  },
  {
    "city": "Killdeer",
    "state": "ND",
    "zip": "58640",
    "lat": 47.3689,
    "lon": -102.7472,
    "kma": "Rapid City Market",
    "kma_name": "Rapid City Market",
    "region": "ND",
    "freight_score": 75,
    "population": 879,
    "zip_zone": "Z5"
  },
  {
    "city": "Gwinner",
    "state": "ND",
    "zip": "58040",
    "lat": 46.2358,
    "lon": -97.6696,
    "kma": "Fargo Market",
    "kma_name": "Fargo Market",
    "region": "ND",
    "freight_score": 75,
    "population": 877,
    "zip_zone": "Z5"
  },
  {
    "city": "Linton",
    "state": "ND",
    "zip": "58552",
    "lat": 46.2685,
    "lon": -100.2337,
    "kma": "Fargo Market",
    "kma_name": "Fargo Market",
    "region": "ND",
    "freight_score": 75,
    "population": 871,
    "zip_zone": "Z5"
  },
  {
    "city": "Cannon Ball",
    "state": "ND",
    "zip": "58528",
    "lat": 46.3173,
    "lon": -100.6357,
    "kma": "Fargo Market",
    "kma_name": "Fargo Market",
    "region": "ND",
    "freight_score": 75,
    "population": 859,
    "zip_zone": "Z5"
  },
  {
    "city": "Dunseith",
    "state": "ND",
    "zip": "58329",
    "lat": 48.813,
    "lon": -100.0622,
    "kma": "Winnipeg Market",
    "kma_name": "Winnipeg Market",
    "region": "ND",
    "freight_score": 75,
    "population": 853,
    "zip_zone": "Z5"
  },
  {
    "city": "Drayton",
    "state": "ND",
    "zip": "58225",
    "lat": 48.562,
    "lon": -97.1794,
    "kma": "Winnipeg Market",
    "kma_name": "Winnipeg Market",
    "region": "ND",
    "freight_score": 75,
    "population": 818,
    "zip_zone": "Z5"
  },
  {
    "city": "Harwood",
    "state": "ND",
    "zip": "58042",
    "lat": 46.9762,
    "lon": -96.8802,
    "kma": "Fargo Market",
    "kma_name": "Fargo Market",
    "region": "ND",
    "freight_score": 75,
    "population": 775,
    "zip_zone": "Z5"
  },
  {
    "city": "Napoleon",
    "state": "ND",
    "zip": "58561",
    "lat": 46.5039,
    "lon": -99.7683,
    "kma": "Fargo Market",
    "kma_name": "Fargo Market",
    "region": "ND",
    "freight_score": 75,
    "population": 768,
    "zip_zone": "Z5"
  },
  {
    "city": "Hankinson",
    "state": "ND",
    "zip": "58041",
    "lat": 46.0734,
    "lon": -96.8918,
    "kma": "Fargo Market",
    "kma_name": "Fargo Market",
    "region": "ND",
    "freight_score": 75,
    "population": 768,
    "zip_zone": "Z5"
  },
  {
    "city": "Ray",
    "state": "ND",
    "zip": "58849",
    "lat": 48.3416,
    "lon": -103.1636,
    "kma": "Regina Market",
    "kma_name": "Regina Market",
    "region": "ND",
    "freight_score": 75,
    "population": 762,
    "zip_zone": "Z5"
  },
  {
    "city": "Richardton",
    "state": "ND",
    "zip": "58652",
    "lat": 46.8841,
    "lon": -102.3332,
    "kma": "Rapid City Market",
    "kma_name": "Rapid City Market",
    "region": "ND",
    "freight_score": 75,
    "population": 761,
    "zip_zone": "Z5"
  },
  {
    "city": "Steele",
    "state": "ND",
    "zip": "58482",
    "lat": 46.8568,
    "lon": -99.9181,
    "kma": "Fargo Market",
    "kma_name": "Fargo Market",
    "region": "ND",
    "freight_score": 75,
    "population": 742,
    "zip_zone": "Z5"
  },
  {
    "city": "Hebron",
    "state": "ND",
    "zip": "58638",
    "lat": 46.9023,
    "lon": -102.0444,
    "kma": "Rapid City Market",
    "kma_name": "Rapid City Market",
    "region": "ND",
    "freight_score": 75,
    "population": 739,
    "zip_zone": "Z5"
  },
  {
    "city": "Mott",
    "state": "ND",
    "zip": "58646",
    "lat": 46.3744,
    "lon": -102.3189,
    "kma": "Rapid City Market",
    "kma_name": "Rapid City Market",
    "region": "ND",
    "freight_score": 75,
    "population": 738,
    "zip_zone": "Z5"
  },
  {
    "city": "LaMoure",
    "state": "ND",
    "zip": "58458",
    "lat": 46.3574,
    "lon": -98.2966,
    "kma": "Fargo Market",
    "kma_name": "Fargo Market",
    "region": "ND",
    "freight_score": 75,
    "population": 703,
    "zip_zone": "Z5"
  },
  {
    "city": "Underwood",
    "state": "ND",
    "zip": "58576",
    "lat": 47.455,
    "lon": -101.1417,
    "kma": "Fargo Market",
    "kma_name": "Fargo Market",
    "region": "ND",
    "freight_score": 75,
    "population": 701,
    "zip_zone": "Z5"
  },
  {
    "city": "Lidgerwood",
    "state": "ND",
    "zip": "58053",
    "lat": 46.0738,
    "lon": -97.1451,
    "kma": "Fargo Market",
    "kma_name": "Fargo Market",
    "region": "ND",
    "freight_score": 75,
    "population": 673,
    "zip_zone": "Z5"
  },
  {
    "city": "Edgeley",
    "state": "ND",
    "zip": "58433",
    "lat": 46.3625,
    "lon": -98.7126,
    "kma": "Fargo Market",
    "kma_name": "Fargo Market",
    "region": "ND",
    "freight_score": 75,
    "population": 672,
    "zip_zone": "Z5"
  },
  {
    "city": "Glen Ullin",
    "state": "ND",
    "zip": "58631",
    "lat": 46.812,
    "lon": -101.8333,
    "kma": "Rapid City Market",
    "kma_name": "Rapid City Market",
    "region": "ND",
    "freight_score": 75,
    "population": 662,
    "zip_zone": "Z5"
  },
  {
    "city": "New England",
    "state": "ND",
    "zip": "58647",
    "lat": 46.5408,
    "lon": -102.8669,
    "kma": "Rapid City Market",
    "kma_name": "Rapid City Market",
    "region": "ND",
    "freight_score": 75,
    "population": 658,
    "zip_zone": "Z5"
  },
  {
    "city": "Elgin",
    "state": "ND",
    "zip": "58533",
    "lat": 46.4014,
    "lon": -101.8474,
    "kma": "Rapid City Market",
    "kma_name": "Rapid City Market",
    "region": "ND",
    "freight_score": 75,
    "population": 654,
    "zip_zone": "Z5"
  },
  {
    "city": "Hatton",
    "state": "ND",
    "zip": "58240",
    "lat": 47.6369,
    "lon": -97.4584,
    "kma": "Fargo Market",
    "kma_name": "Fargo Market",
    "region": "ND",
    "freight_score": 75,
    "population": 639,
    "zip_zone": "Z5"
  },
  {
    "city": "Milnor",
    "state": "ND",
    "zip": "58060",
    "lat": 46.2604,
    "lon": -97.4575,
    "kma": "Fargo Market",
    "kma_name": "Fargo Market",
    "region": "ND",
    "freight_score": 75,
    "population": 638,
    "zip_zone": "Z5"
  },
  {
    "city": "Ashley",
    "state": "ND",
    "zip": "58413",
    "lat": 46.0347,
    "lon": -99.3736,
    "kma": "Fargo Market",
    "kma_name": "Fargo Market",
    "region": "ND",
    "freight_score": 75,
    "population": 636,
    "zip_zone": "Z5"
  },
  {
    "city": "Lakota",
    "state": "ND",
    "zip": "58344",
    "lat": 48.0429,
    "lon": -98.3468,
    "kma": "Fargo Market",
    "kma_name": "Fargo Market",
    "region": "ND",
    "freight_score": 75,
    "population": 629,
    "zip_zone": "Z5"
  },
  {
    "city": "Forman",
    "state": "ND",
    "zip": "58032",
    "lat": 46.104,
    "lon": -97.6369,
    "kma": "Fargo Market",
    "kma_name": "Fargo Market",
    "region": "ND",
    "freight_score": 75,
    "population": 622,
    "zip_zone": "Z5"
  },
  {
    "city": "Belfield",
    "state": "ND",
    "zip": "58622",
    "lat": 46.886,
    "lon": -103.1952,
    "kma": "Rapid City Market",
    "kma_name": "Rapid City Market",
    "region": "ND",
    "freight_score": 75,
    "population": 618,
    "zip_zone": "Z5"
  },
  {
    "city": "Minto",
    "state": "ND",
    "zip": "58261",
    "lat": 48.2924,
    "lon": -97.373,
    "kma": "Fargo Market",
    "kma_name": "Fargo Market",
    "region": "ND",
    "freight_score": 75,
    "population": 616,
    "zip_zone": "Z5"
  },
  {
    "city": "Mohall",
    "state": "ND",
    "zip": "58761",
    "lat": 48.7661,
    "lon": -101.5169,
    "kma": "Regina Market",
    "kma_name": "Regina Market",
    "region": "ND",
    "freight_score": 75,
    "population": 614,
    "zip_zone": "Z5"
  },
  {
    "city": "Mandaree",
    "state": "ND",
    "zip": "58757",
    "lat": 47.7358,
    "lon": -102.6756,
    "kma": "Regina Market",
    "kma_name": "Regina Market",
    "region": "ND",
    "freight_score": 75,
    "population": 604,
    "zip_zone": "Z5"
  },
  {
    "city": "Pembina",
    "state": "ND",
    "zip": "58271",
    "lat": 48.9669,
    "lon": -97.2475,
    "kma": "Winnipeg Market",
    "kma_name": "Winnipeg Market",
    "region": "ND",
    "freight_score": 75,
    "population": 583,
    "zip_zone": "Z5"
  },
  {
    "city": "Wilton",
    "state": "ND",
    "zip": "58579",
    "lat": 47.1581,
    "lon": -100.7842,
    "kma": "Fargo Market",
    "kma_name": "Fargo Market",
    "region": "ND",
    "freight_score": 75,
    "population": 582,
    "zip_zone": "Z5"
  },
  {
    "city": "Argusville",
    "state": "ND",
    "zip": "58005",
    "lat": 47.0501,
    "lon": -96.9431,
    "kma": "Fargo Market",
    "kma_name": "Fargo Market",
    "region": "ND",
    "freight_score": 75,
    "population": 568,
    "zip_zone": "Z5"
  },
  {
    "city": "Stanton",
    "state": "ND",
    "zip": "58571",
    "lat": 47.3187,
    "lon": -101.3822,
    "kma": "Fargo Market",
    "kma_name": "Fargo Market",
    "region": "ND",
    "freight_score": 75,
    "population": 560,
    "zip_zone": "Z5"
  },
  {
    "city": "South Heart",
    "state": "ND",
    "zip": "58655",
    "lat": 46.8691,
    "lon": -102.9927,
    "kma": "Rapid City Market",
    "kma_name": "Rapid City Market",
    "region": "ND",
    "freight_score": 75,
    "population": 556,
    "zip_zone": "Z5"
  },
  {
    "city": "Wyndmere",
    "state": "ND",
    "zip": "58081",
    "lat": 46.2641,
    "lon": -97.1312,
    "kma": "Fargo Market",
    "kma_name": "Fargo Market",
    "region": "ND",
    "freight_score": 75,
    "population": 553,
    "zip_zone": "Z5"
  },
  {
    "city": "Portland",
    "state": "ND",
    "zip": "58274",
    "lat": 47.4995,
    "lon": -97.3693,
    "kma": "Fargo Market",
    "kma_name": "Fargo Market",
    "region": "ND",
    "freight_score": 75,
    "population": 548,
    "zip_zone": "Z5"
  },
  {
    "city": "Strasburg",
    "state": "ND",
    "zip": "58573",
    "lat": 46.1337,
    "lon": -100.1613,
    "kma": "Fargo Market",
    "kma_name": "Fargo Market",
    "region": "ND",
    "freight_score": 75,
    "population": 523,
    "zip_zone": "Z5"
  },
  {
    "city": "Center",
    "state": "ND",
    "zip": "58530",
    "lat": 47.1149,
    "lon": -101.2977,
    "kma": "Fargo Market",
    "kma_name": "Fargo Market",
    "region": "ND",
    "freight_score": 75,
    "population": 510,
    "zip_zone": "Z5"
  },
  {
    "city": "Turtle Lake",
    "state": "ND",
    "zip": "58575",
    "lat": 47.5216,
    "lon": -100.8908,
    "kma": "Fargo Market",
    "kma_name": "Fargo Market",
    "region": "ND",
    "freight_score": 75,
    "population": 502,
    "zip_zone": "Z5"
  },
  {
    "city": "Leeds",
    "state": "ND",
    "zip": "58346",
    "lat": 48.2878,
    "lon": -99.4346,
    "kma": "Winnipeg Market",
    "kma_name": "Winnipeg Market",
    "region": "ND",
    "freight_score": 75,
    "population": 487,
    "zip_zone": "Z5"
  },
  {
    "city": "Fessenden",
    "state": "ND",
    "zip": "58438",
    "lat": 47.6494,
    "lon": -99.6267,
    "kma": "Fargo Market",
    "kma_name": "Fargo Market",
    "region": "ND",
    "freight_score": 75,
    "population": 477,
    "zip_zone": "Z5"
  },
  {
    "city": "Kulm",
    "state": "ND",
    "zip": "58456",
    "lat": 46.3019,
    "lon": -98.9468,
    "kma": "Fargo Market",
    "kma_name": "Fargo Market",
    "region": "ND",
    "freight_score": 75,
    "population": 476,
    "zip_zone": "Z5"
  },
  {
    "city": "Towner",
    "state": "ND",
    "zip": "58788",
    "lat": 48.3471,
    "lon": -100.407,
    "kma": "Winnipeg Market",
    "kma_name": "Winnipeg Market",
    "region": "ND",
    "freight_score": 75,
    "population": 466,
    "zip_zone": "Z5"
  },
  {
    "city": "Glenburn",
    "state": "ND",
    "zip": "58740",
    "lat": 48.5136,
    "lon": -101.2211,
    "kma": "Regina Market",
    "kma_name": "Regina Market",
    "region": "ND",
    "freight_score": 75,
    "population": 466,
    "zip_zone": "Z5"
  },
  {
    "city": "Trenton",
    "state": "ND",
    "zip": "58801",
    "lat": 48.07,
    "lon": -103.8429,
    "kma": "Regina Market",
    "kma_name": "Regina Market",
    "region": "ND",
    "freight_score": 75,
    "population": 464,
    "zip_zone": "Z5"
  },
  {
    "city": "Berthold",
    "state": "ND",
    "zip": "58718",
    "lat": 48.317,
    "lon": -101.7478,
    "kma": "Regina Market",
    "kma_name": "Regina Market",
    "region": "ND",
    "freight_score": 75,
    "population": 444,
    "zip_zone": "Z5"
  },
  {
    "city": "Maddock",
    "state": "ND",
    "zip": "58348",
    "lat": 47.9624,
    "lon": -99.5293,
    "kma": "Fargo Market",
    "kma_name": "Fargo Market",
    "region": "ND",
    "freight_score": 75,
    "population": 425,
    "zip_zone": "Z5"
  },
  {
    "city": "Manvel",
    "state": "ND",
    "zip": "58256",
    "lat": 48.0727,
    "lon": -97.1779,
    "kma": "Fargo Market",
    "kma_name": "Fargo Market",
    "region": "ND",
    "freight_score": 75,
    "population": 413,
    "zip_zone": "Z5"
  },
  {
    "city": "Scranton",
    "state": "ND",
    "zip": "58653",
    "lat": 46.1498,
    "lon": -103.1429,
    "kma": "Rapid City Market",
    "kma_name": "Rapid City Market",
    "region": "ND",
    "freight_score": 75,
    "population": 408,
    "zip_zone": "Z5"
  },
  {
    "city": "Gilby",
    "state": "ND",
    "zip": "58235",
    "lat": 48.0835,
    "lon": -97.4679,
    "kma": "Fargo Market",
    "kma_name": "Fargo Market",
    "region": "ND",
    "freight_score": 75,
    "population": 401,
    "zip_zone": "Z5"
  },
  {
    "city": "Halliday",
    "state": "ND",
    "zip": "58636",
    "lat": 47.3521,
    "lon": -102.3387,
    "kma": "Rapid City Market",
    "kma_name": "Rapid City Market",
    "region": "ND",
    "freight_score": 75,
    "population": 396,
    "zip_zone": "Z5"
  },
  {
    "city": "Emerado",
    "state": "ND",
    "zip": "58228",
    "lat": 47.9245,
    "lon": -97.3653,
    "kma": "Fargo Market",
    "kma_name": "Fargo Market",
    "region": "ND",
    "freight_score": 75,
    "population": 391,
    "zip_zone": "Z5"
  },
  {
    "city": "Reynolds",
    "state": "ND",
    "zip": "58275",
    "lat": 47.6685,
    "lon": -97.106,
    "kma": "Fargo Market",
    "kma_name": "Fargo Market",
    "region": "ND",
    "freight_score": 75,
    "population": 367,
    "zip_zone": "Z5"
  },
  {
    "city": "East Dunseith",
    "state": "ND",
    "zip": "58329",
    "lat": 48.8547,
    "lon": -100.0285,
    "kma": "Winnipeg Market",
    "kma_name": "Winnipeg Market",
    "region": "ND",
    "freight_score": 75,
    "population": 367,
    "zip_zone": "Z5"
  },
  {
    "city": "Dunn Center",
    "state": "ND",
    "zip": "58626",
    "lat": 47.3527,
    "lon": -102.6233,
    "kma": "Rapid City Market",
    "kma_name": "Rapid City Market",
    "region": "ND",
    "freight_score": 75,
    "population": 366,
    "zip_zone": "Z5"
  },
  {
    "city": "Oxbow",
    "state": "ND",
    "zip": "58047",
    "lat": 46.6687,
    "lon": -96.8101,
    "kma": "Fargo Market",
    "kma_name": "Fargo Market",
    "region": "ND",
    "freight_score": 75,
    "population": 361,
    "zip_zone": "Z5"
  },
  {
    "city": "Arthur",
    "state": "ND",
    "zip": "58006",
    "lat": 47.1043,
    "lon": -97.2184,
    "kma": "Fargo Market",
    "kma_name": "Fargo Market",
    "region": "ND",
    "freight_score": 75,
    "population": 357,
    "zip_zone": "Z5"
  },
  {
    "city": "Buxton",
    "state": "ND",
    "zip": "58218",
    "lat": 47.6021,
    "lon": -97.0976,
    "kma": "Fargo Market",
    "kma_name": "Fargo Market",
    "region": "ND",
    "freight_score": 75,
    "population": 356,
    "zip_zone": "Z5"
  },
  {
    "city": "Neche",
    "state": "ND",
    "zip": "58265",
    "lat": 48.983,
    "lon": -97.5517,
    "kma": "Winnipeg Market",
    "kma_name": "Winnipeg Market",
    "region": "ND",
    "freight_score": 75,
    "population": 355,
    "zip_zone": "Z5"
  },
  {
    "city": "Rolette",
    "state": "ND",
    "zip": "58366",
    "lat": 48.6609,
    "lon": -99.8417,
    "kma": "Winnipeg Market",
    "kma_name": "Winnipeg Market",
    "region": "ND",
    "freight_score": 75,
    "population": 347,
    "zip_zone": "Z5"
  },
  {
    "city": "Tower City",
    "state": "ND",
    "zip": "58071",
    "lat": 46.9263,
    "lon": -97.676,
    "kma": "Fargo Market",
    "kma_name": "Fargo Market",
    "region": "ND",
    "freight_score": 75,
    "population": 345,
    "zip_zone": "Z5"
  },
  {
    "city": "McVille",
    "state": "ND",
    "zip": "58254",
    "lat": 47.7653,
    "lon": -98.1755,
    "kma": "Fargo Market",
    "kma_name": "Fargo Market",
    "region": "ND",
    "freight_score": 75,
    "population": 338,
    "zip_zone": "Z5"
  },
  {
    "city": "Westhope",
    "state": "ND",
    "zip": "58793",
    "lat": 48.9112,
    "lon": -101.0176,
    "kma": "Winnipeg Market",
    "kma_name": "Winnipeg Market",
    "region": "ND",
    "freight_score": 75,
    "population": 330,
    "zip_zone": "Z5"
  },
  {
    "city": "McClusky",
    "state": "ND",
    "zip": "58463",
    "lat": 47.484,
    "lon": -100.4426,
    "kma": "Fargo Market",
    "kma_name": "Fargo Market",
    "region": "ND",
    "freight_score": 75,
    "population": 325,
    "zip_zone": "Z5"
  },
  {
    "city": "Grenora",
    "state": "ND",
    "zip": "58845",
    "lat": 48.6199,
    "lon": -103.9367,
    "kma": "Regina Market",
    "kma_name": "Regina Market",
    "region": "ND",
    "freight_score": 75,
    "population": 323,
    "zip_zone": "Z5"
  },
  {
    "city": "Finley",
    "state": "ND",
    "zip": "58230",
    "lat": 47.5125,
    "lon": -97.8373,
    "kma": "Fargo Market",
    "kma_name": "Fargo Market",
    "region": "ND",
    "freight_score": 75,
    "population": 322,
    "zip_zone": "Z5"
  },
  {
    "city": "Hope",
    "state": "ND",
    "zip": "58046",
    "lat": 47.3244,
    "lon": -97.7191,
    "kma": "Fargo Market",
    "kma_name": "Fargo Market",
    "region": "ND",
    "freight_score": 75,
    "population": 321,
    "zip_zone": "Z5"
  },
  {
    "city": "Fairmount",
    "state": "ND",
    "zip": "58030",
    "lat": 46.0547,
    "lon": -96.6029,
    "kma": "Fargo Market",
    "kma_name": "Fargo Market",
    "region": "ND",
    "freight_score": 75,
    "population": 316,
    "zip_zone": "Z5"
  },
  {
    "city": "Plaza",
    "state": "ND",
    "zip": "58771",
    "lat": 48.026,
    "lon": -101.9594,
    "kma": "Regina Market",
    "kma_name": "Regina Market",
    "region": "ND",
    "freight_score": 75,
    "population": 314,
    "zip_zone": "Z5"
  },
  {
    "city": "St. Thomas",
    "state": "ND",
    "zip": "58276",
    "lat": 48.6192,
    "lon": -97.4471,
    "kma": "Winnipeg Market",
    "kma_name": "Winnipeg Market",
    "region": "ND",
    "freight_score": 75,
    "population": 306,
    "zip_zone": "Z5"
  },
  {
    "city": "Sawyer",
    "state": "ND",
    "zip": "58781",
    "lat": 48.0894,
    "lon": -101.0533,
    "kma": "Fargo Market",
    "kma_name": "Fargo Market",
    "region": "ND",
    "freight_score": 75,
    "population": 305,
    "zip_zone": "Z5"
  },
  {
    "city": "Walcott",
    "state": "ND",
    "zip": "58077",
    "lat": 46.5505,
    "lon": -96.9375,
    "kma": "Fargo Market",
    "kma_name": "Fargo Market",
    "region": "ND",
    "freight_score": 75,
    "population": 302,
    "zip_zone": "Z5"
  },
  {
    "city": "Powers Lake",
    "state": "ND",
    "zip": "58773",
    "lat": 48.564,
    "lon": -102.6457,
    "kma": "Regina Market",
    "kma_name": "Regina Market",
    "region": "ND",
    "freight_score": 75,
    "population": 292,
    "zip_zone": "Z5"
  },
  {
    "city": "Anamoose",
    "state": "ND",
    "zip": "58710",
    "lat": 47.8828,
    "lon": -100.242,
    "kma": "Fargo Market",
    "kma_name": "Fargo Market",
    "region": "ND",
    "freight_score": 75,
    "population": 292,
    "zip_zone": "Z5"
  },
  {
    "city": "Gackle",
    "state": "ND",
    "zip": "58442",
    "lat": 46.6264,
    "lon": -99.1412,
    "kma": "Fargo Market",
    "kma_name": "Fargo Market",
    "region": "ND",
    "freight_score": 75,
    "population": 287,
    "zip_zone": "Z5"
  },
  {
    "city": "Max",
    "state": "ND",
    "zip": "58759",
    "lat": 47.8204,
    "lon": -101.2911,
    "kma": "Fargo Market",
    "kma_name": "Fargo Market",
    "region": "ND",
    "freight_score": 75,
    "population": 284,
    "zip_zone": "Z5"
  },
  {
    "city": "Granville",
    "state": "ND",
    "zip": "58741",
    "lat": 48.2663,
    "lon": -100.8449,
    "kma": "Winnipeg Market",
    "kma_name": "Winnipeg Market",
    "region": "ND",
    "freight_score": 75,
    "population": 277,
    "zip_zone": "Z5"
  },
  {
    "city": "Hoople",
    "state": "ND",
    "zip": "58243",
    "lat": 48.5358,
    "lon": -97.6389,
    "kma": "Winnipeg Market",
    "kma_name": "Winnipeg Market",
    "region": "ND",
    "freight_score": 75,
    "population": 277,
    "zip_zone": "Z5"
  },
  {
    "city": "White Shield",
    "state": "ND",
    "zip": "58775",
    "lat": 47.6601,
    "lon": -101.8436,
    "kma": "Regina Market",
    "kma_name": "Regina Market",
    "region": "ND",
    "freight_score": 75,
    "population": 277,
    "zip_zone": "Z5"
  },
  {
    "city": "Edmore",
    "state": "ND",
    "zip": "58330",
    "lat": 48.4124,
    "lon": -98.4536,
    "kma": "Winnipeg Market",
    "kma_name": "Winnipeg Market",
    "region": "ND",
    "freight_score": 75,
    "population": 274,
    "zip_zone": "Z5"
  },
  {
    "city": "Hunter",
    "state": "ND",
    "zip": "58048",
    "lat": 47.1904,
    "lon": -97.2131,
    "kma": "Fargo Market",
    "kma_name": "Fargo Market",
    "region": "ND",
    "freight_score": 75,
    "population": 271,
    "zip_zone": "Z5"
  },
  {
    "city": "Alexander",
    "state": "ND",
    "zip": "58831",
    "lat": 47.8393,
    "lon": -103.6426,
    "kma": "Regina Market",
    "kma_name": "Regina Market",
    "region": "ND",
    "freight_score": 75,
    "population": 268,
    "zip_zone": "Z5"
  },
  {
    "city": "Bowbells",
    "state": "ND",
    "zip": "58721",
    "lat": 48.8027,
    "lon": -102.2457,
    "kma": "Regina Market",
    "kma_name": "Regina Market",
    "region": "ND",
    "freight_score": 75,
    "population": 267,
    "zip_zone": "Z5"
  },
  {
    "city": "Colfax",
    "state": "ND",
    "zip": "58018",
    "lat": 46.471,
    "lon": -96.8725,
    "kma": "Fargo Market",
    "kma_name": "Fargo Market",
    "region": "ND",
    "freight_score": 75,
    "population": 265,
    "zip_zone": "Z5"
  },
  {
    "city": "Tappen",
    "state": "ND",
    "zip": "58487",
    "lat": 46.8716,
    "lon": -99.6269,
    "kma": "Fargo Market",
    "kma_name": "Fargo Market",
    "region": "ND",
    "freight_score": 75,
    "population": 264,
    "zip_zone": "Z5"
  },
  {
    "city": "Carson",
    "state": "ND",
    "zip": "58529",
    "lat": 46.4223,
    "lon": -101.5706,
    "kma": "Rapid City Market",
    "kma_name": "Rapid City Market",
    "region": "ND",
    "freight_score": 75,
    "population": 260,
    "zip_zone": "Z5"
  },
  {
    "city": "Munich",
    "state": "ND",
    "zip": "58352",
    "lat": 48.6729,
    "lon": -98.8385,
    "kma": "Winnipeg Market",
    "kma_name": "Winnipeg Market",
    "region": "ND",
    "freight_score": 75,
    "population": 258,
    "zip_zone": "Z5"
  },
  {
    "city": "St. John",
    "state": "ND",
    "zip": "58369",
    "lat": 48.9437,
    "lon": -99.7132,
    "kma": "Winnipeg Market",
    "kma_name": "Winnipeg Market",
    "region": "ND",
    "freight_score": 75,
    "population": 248,
    "zip_zone": "Z5"
  },
  {
    "city": "Drake",
    "state": "ND",
    "zip": "58736",
    "lat": 47.9226,
    "lon": -100.3745,
    "kma": "Fargo Market",
    "kma_name": "Fargo Market",
    "region": "ND",
    "freight_score": 75,
    "population": 245,
    "zip_zone": "Z5"
  },
  {
    "city": "Leonard",
    "state": "ND",
    "zip": "58052",
    "lat": 46.6523,
    "lon": -97.2499,
    "kma": "Fargo Market",
    "kma_name": "Fargo Market",
    "region": "ND",
    "freight_score": 75,
    "population": 244,
    "zip_zone": "Z5"
  },
  {
    "city": "Medina",
    "state": "ND",
    "zip": "58467",
    "lat": 46.8938,
    "lon": -99.2999,
    "kma": "Fargo Market",
    "kma_name": "Fargo Market",
    "region": "ND",
    "freight_score": 75,
    "population": 242,
    "zip_zone": "Z5"
  },
  {
    "city": "Golden Valley",
    "state": "ND",
    "zip": "58541",
    "lat": 47.2901,
    "lon": -102.0652,
    "kma": "Rapid City Market",
    "kma_name": "Rapid City Market",
    "region": "ND",
    "freight_score": 75,
    "population": 241,
    "zip_zone": "Z5"
  },
  {
    "city": "Gladstone",
    "state": "ND",
    "zip": "58630",
    "lat": 46.8595,
    "lon": -102.5701,
    "kma": "Rapid City Market",
    "kma_name": "Rapid City Market",
    "region": "ND",
    "freight_score": 75,
    "population": 240,
    "zip_zone": "Z5"
  },
  {
    "city": "Oriska",
    "state": "ND",
    "zip": "58063",
    "lat": 46.9313,
    "lon": -97.7908,
    "kma": "Fargo Market",
    "kma_name": "Fargo Market",
    "region": "ND",
    "freight_score": 75,
    "population": 234,
    "zip_zone": "Z5"
  },
  {
    "city": "Lansford",
    "state": "ND",
    "zip": "58750",
    "lat": 48.627,
    "lon": -101.376,
    "kma": "Regina Market",
    "kma_name": "Regina Market",
    "region": "ND",
    "freight_score": 75,
    "population": 234,
    "zip_zone": "Z5"
  },
  {
    "city": "Abercrombie",
    "state": "ND",
    "zip": "58001",
    "lat": 46.4469,
    "lon": -96.7294,
    "kma": "Fargo Market",
    "kma_name": "Fargo Market",
    "region": "ND",
    "freight_score": 75,
    "population": 231,
    "zip_zone": "Z5"
  },
  {
    "city": "Kensal",
    "state": "ND",
    "zip": "58455",
    "lat": 47.3,
    "lon": -98.7321,
    "kma": "Fargo Market",
    "kma_name": "Fargo Market",
    "region": "ND",
    "freight_score": 75,
    "population": 229,
    "zip_zone": "Z5"
  },
  {
    "city": "Benedict",
    "state": "ND",
    "zip": "58716",
    "lat": 47.8301,
    "lon": -101.0843,
    "kma": "Fargo Market",
    "kma_name": "Fargo Market",
    "region": "ND",
    "freight_score": 75,
    "population": 227,
    "zip_zone": "Z5"
  },
  {
    "city": "Christine",
    "state": "ND",
    "zip": "58015",
    "lat": 46.5752,
    "lon": -96.8066,
    "kma": "Fargo Market",
    "kma_name": "Fargo Market",
    "region": "ND",
    "freight_score": 75,
    "population": 221,
    "zip_zone": "Z5"
  },
  {
    "city": "Sheyenne",
    "state": "ND",
    "zip": "58374",
    "lat": 47.8272,
    "lon": -99.1168,
    "kma": "Fargo Market",
    "kma_name": "Fargo Market",
    "region": "ND",
    "freight_score": 75,
    "population": 217,
    "zip_zone": "Z5"
  },
  {
    "city": "Fordville",
    "state": "ND",
    "zip": "58231",
    "lat": 48.2166,
    "lon": -97.7954,
    "kma": "Fargo Market",
    "kma_name": "Fargo Market",
    "region": "ND",
    "freight_score": 75,
    "population": 216,
    "zip_zone": "Z5"
  },
  {
    "city": "Davenport",
    "state": "ND",
    "zip": "58021",
    "lat": 46.7148,
    "lon": -97.0657,
    "kma": "Fargo Market",
    "kma_name": "Fargo Market",
    "region": "ND",
    "freight_score": 75,
    "population": 215,
    "zip_zone": "Z5"
  },
  {
    "city": "New Leipzig",
    "state": "ND",
    "zip": "58562",
    "lat": 46.3758,
    "lon": -101.9517,
    "kma": "Rapid City Market",
    "kma_name": "Rapid City Market",
    "region": "ND",
    "freight_score": 75,
    "population": 215,
    "zip_zone": "Z5"
  },
  {
    "city": "Edinburg",
    "state": "ND",
    "zip": "58227",
    "lat": 48.4955,
    "lon": -97.8629,
    "kma": "Winnipeg Market",
    "kma_name": "Winnipeg Market",
    "region": "ND",
    "freight_score": 75,
    "population": 215,
    "zip_zone": "Z5"
  },
  {
    "city": "Buffalo",
    "state": "ND",
    "zip": "58011",
    "lat": 46.9193,
    "lon": -97.5507,
    "kma": "Fargo Market",
    "kma_name": "Fargo Market",
    "region": "ND",
    "freight_score": 75,
    "population": 213,
    "zip_zone": "Z5"
  },
  {
    "city": "Sherwood",
    "state": "ND",
    "zip": "58782",
    "lat": 48.9619,
    "lon": -101.6328,
    "kma": "Regina Market",
    "kma_name": "Regina Market",
    "region": "ND",
    "freight_score": 75,
    "population": 213,
    "zip_zone": "Z5"
  },
  {
    "city": "Rhame",
    "state": "ND",
    "zip": "58651",
    "lat": 46.2347,
    "lon": -103.655,
    "kma": "Rapid City Market",
    "kma_name": "Rapid City Market",
    "region": "ND",
    "freight_score": 75,
    "population": 213,
    "zip_zone": "Z5"
  },
  {
    "city": "Flasher",
    "state": "ND",
    "zip": "58535",
    "lat": 46.4521,
    "lon": -101.2324,
    "kma": "Rapid City Market",
    "kma_name": "Rapid City Market",
    "region": "ND",
    "freight_score": 75,
    "population": 207,
    "zip_zone": "Z5"
  },
  {
    "city": "Wing",
    "state": "ND",
    "zip": "58494",
    "lat": 47.1423,
    "lon": -100.2823,
    "kma": "Fargo Market",
    "kma_name": "Fargo Market",
    "region": "ND",
    "freight_score": 75,
    "population": 202,
    "zip_zone": "Z5"
  },
  {
    "city": "Four Bears Village",
    "state": "ND",
    "zip": "58763",
    "lat": 47.9871,
    "lon": -102.5939,
    "kma": "Regina Market",
    "kma_name": "Regina Market",
    "region": "ND",
    "freight_score": 75,
    "population": 200,
    "zip_zone": "Z5"
  },
  {
    "city": "Taylor",
    "state": "ND",
    "zip": "58656",
    "lat": 46.9018,
    "lon": -102.4222,
    "kma": "Rapid City Market",
    "kma_name": "Rapid City Market",
    "region": "ND",
    "freight_score": 75,
    "population": 193,
    "zip_zone": "Z5"
  },
  {
    "city": "Harmon",
    "state": "ND",
    "zip": "58554",
    "lat": 46.9443,
    "lon": -100.9526,
    "kma": "Fargo Market",
    "kma_name": "Fargo Market",
    "region": "ND",
    "freight_score": 75,
    "population": 192,
    "zip_zone": "Z5"
  },
  {
    "city": "Apple Valley",
    "state": "ND",
    "zip": "58558",
    "lat": 46.8209,
    "lon": -100.5993,
    "kma": "Fargo Market",
    "kma_name": "Fargo Market",
    "region": "ND",
    "freight_score": 75,
    "population": 191,
    "zip_zone": "Z5"
  },
  {
    "city": "Hazelton",
    "state": "ND",
    "zip": "58544",
    "lat": 46.4858,
    "lon": -100.2811,
    "kma": "Fargo Market",
    "kma_name": "Fargo Market",
    "region": "ND",
    "freight_score": 75,
    "population": 191,
    "zip_zone": "Z5"
  },
  {
    "city": "Selfridge",
    "state": "ND",
    "zip": "58568",
    "lat": 46.0417,
    "lon": -100.9244,
    "kma": "Rapid City Market",
    "kma_name": "Rapid City Market",
    "region": "ND",
    "freight_score": 75,
    "population": 190,
    "zip_zone": "Z5"
  },
  {
    "city": "Riverdale",
    "state": "ND",
    "zip": "58531",
    "lat": 47.4975,
    "lon": -101.3661,
    "kma": "Fargo Market",
    "kma_name": "Fargo Market",
    "region": "ND",
    "freight_score": 75,
    "population": 187,
    "zip_zone": "Z5"
  },
  {
    "city": "Minnewaukan",
    "state": "ND",
    "zip": "58351",
    "lat": 48.0762,
    "lon": -99.2607,
    "kma": "Fargo Market",
    "kma_name": "Fargo Market",
    "region": "ND",
    "freight_score": 75,
    "population": 186,
    "zip_zone": "Z5"
  },
  {
    "city": "Litchville",
    "state": "ND",
    "zip": "58461",
    "lat": 46.6566,
    "lon": -98.1917,
    "kma": "Fargo Market",
    "kma_name": "Fargo Market",
    "region": "ND",
    "freight_score": 75,
    "population": 183,
    "zip_zone": "Z5"
  },
  {
    "city": "Mooreton",
    "state": "ND",
    "zip": "58061",
    "lat": 46.269,
    "lon": -96.8758,
    "kma": "Fargo Market",
    "kma_name": "Fargo Market",
    "region": "ND",
    "freight_score": 75,
    "population": 180,
    "zip_zone": "Z5"
  },
  {
    "city": "Almont",
    "state": "ND",
    "zip": "58520",
    "lat": 46.7283,
    "lon": -101.5026,
    "kma": "Rapid City Market",
    "kma_name": "Rapid City Market",
    "region": "ND",
    "freight_score": 75,
    "population": 180,
    "zip_zone": "Z5"
  },
  {
    "city": "Fingal",
    "state": "ND",
    "zip": "58031",
    "lat": 46.7625,
    "lon": -97.7932,
    "kma": "Fargo Market",
    "kma_name": "Fargo Market",
    "region": "ND",
    "freight_score": 75,
    "population": 179,
    "zip_zone": "Z5"
  },
  {
    "city": "Regent",
    "state": "ND",
    "zip": "58650",
    "lat": 46.4222,
    "lon": -102.5581,
    "kma": "Rapid City Market",
    "kma_name": "Rapid City Market",
    "region": "ND",
    "freight_score": 75,
    "population": 176,
    "zip_zone": "Z5"
  },
  {
    "city": "Page",
    "state": "ND",
    "zip": "58064",
    "lat": 47.1592,
    "lon": -97.5681,
    "kma": "Fargo Market",
    "kma_name": "Fargo Market",
    "region": "ND",
    "freight_score": 75,
    "population": 176,
    "zip_zone": "Z5"
  },
  {
    "city": "Carpio",
    "state": "ND",
    "zip": "58725",
    "lat": 48.4434,
    "lon": -101.7163,
    "kma": "Regina Market",
    "kma_name": "Regina Market",
    "region": "ND",
    "freight_score": 75,
    "population": 169,
    "zip_zone": "Z5"
  },
  {
    "city": "Bowdon",
    "state": "ND",
    "zip": "58418",
    "lat": 47.4685,
    "lon": -99.7089,
    "kma": "Fargo Market",
    "kma_name": "Fargo Market",
    "region": "ND",
    "freight_score": 75,
    "population": 167,
    "zip_zone": "Z5"
  },
  {
    "city": "Arnegard",
    "state": "ND",
    "zip": "58835",
    "lat": 47.8084,
    "lon": -103.4388,
    "kma": "Regina Market",
    "kma_name": "Regina Market",
    "region": "ND",
    "freight_score": 75,
    "population": 167,
    "zip_zone": "Z5"
  },
  {
    "city": "Lignite",
    "state": "ND",
    "zip": "58752",
    "lat": 48.8771,
    "lon": -102.5645,
    "kma": "Regina Market",
    "kma_name": "Regina Market",
    "region": "ND",
    "freight_score": 75,
    "population": 166,
    "zip_zone": "Z5"
  },
  {
    "city": "Spiritwood Lake",
    "state": "ND",
    "zip": "58401",
    "lat": 47.0743,
    "lon": -98.5866,
    "kma": "Fargo Market",
    "kma_name": "Fargo Market",
    "region": "ND",
    "freight_score": 75,
    "population": 166,
    "zip_zone": "Z5"
  },
  {
    "city": "Upham",
    "state": "ND",
    "zip": "58789",
    "lat": 48.5815,
    "lon": -100.7284,
    "kma": "Winnipeg Market",
    "kma_name": "Winnipeg Market",
    "region": "ND",
    "freight_score": 75,
    "population": 165,
    "zip_zone": "Z5"
  },
  {
    "city": "Logan",
    "state": "ND",
    "zip": "58701",
    "lat": 48.1557,
    "lon": -101.1664,
    "kma": "Winnipeg Market",
    "kma_name": "Winnipeg Market",
    "region": "ND",
    "freight_score": 75,
    "population": 164,
    "zip_zone": "Z5"
  },
  {
    "city": "Ross",
    "state": "ND",
    "zip": "58776",
    "lat": 48.3128,
    "lon": -102.5435,
    "kma": "Regina Market",
    "kma_name": "Regina Market",
    "region": "ND",
    "freight_score": 75,
    "population": 161,
    "zip_zone": "Z5"
  },
  {
    "city": "Des Lacs",
    "state": "ND",
    "zip": "58733",
    "lat": 48.2564,
    "lon": -101.5636,
    "kma": "Regina Market",
    "kma_name": "Regina Market",
    "region": "ND",
    "freight_score": 75,
    "population": 161,
    "zip_zone": "Z5"
  },
  {
    "city": "Frontier",
    "state": "ND",
    "zip": "58104",
    "lat": 46.8002,
    "lon": -96.8331,
    "kma": "Fargo Market",
    "kma_name": "Fargo Market",
    "region": "ND",
    "freight_score": 75,
    "population": 160,
    "zip_zone": "Z5"
  },
  {
    "city": "Marion",
    "state": "ND",
    "zip": "58466",
    "lat": 46.6091,
    "lon": -98.3375,
    "kma": "Fargo Market",
    "kma_name": "Fargo Market",
    "region": "ND",
    "freight_score": 75,
    "population": 152,
    "zip_zone": "Z5"
  },
  {
    "city": "Zap",
    "state": "ND",
    "zip": "58580",
    "lat": 47.2847,
    "lon": -101.9233,
    "kma": "Rapid City Market",
    "kma_name": "Rapid City Market",
    "region": "ND",
    "freight_score": 75,
    "population": 151,
    "zip_zone": "Z5"
  },
  {
    "city": "Medora",
    "state": "ND",
    "zip": "58645",
    "lat": 46.9124,
    "lon": -103.5251,
    "kma": "Rapid City Market",
    "kma_name": "Rapid City Market",
    "region": "ND",
    "freight_score": 75,
    "population": 150,
    "zip_zone": "Z5"
  },
  {
    "city": "Adams",
    "state": "ND",
    "zip": "58210",
    "lat": 48.4202,
    "lon": -98.0737,
    "kma": "Winnipeg Market",
    "kma_name": "Winnipeg Market",
    "region": "ND",
    "freight_score": 75,
    "population": 150,
    "zip_zone": "Z5"
  },
  {
    "city": "Binford",
    "state": "ND",
    "zip": "58416",
    "lat": 47.5604,
    "lon": -98.3456,
    "kma": "Fargo Market",
    "kma_name": "Fargo Market",
    "region": "ND",
    "freight_score": 75,
    "population": 148,
    "zip_zone": "Z5"
  },
  {
    "city": "Wildrose",
    "state": "ND",
    "zip": "58795",
    "lat": 48.6299,
    "lon": -103.1837,
    "kma": "Regina Market",
    "kma_name": "Regina Market",
    "region": "ND",
    "freight_score": 75,
    "population": 147,
    "zip_zone": "Z5"
  },
  {
    "city": "Fort Yates",
    "state": "ND",
    "zip": "58538",
    "lat": 46.0865,
    "lon": -100.6301,
    "kma": "Rapid City Market",
    "kma_name": "Rapid City Market",
    "region": "ND",
    "freight_score": 75,
    "population": 142,
    "zip_zone": "Z5"
  },
  {
    "city": "Forest River",
    "state": "ND",
    "zip": "58233",
    "lat": 48.2166,
    "lon": -97.4703,
    "kma": "Fargo Market",
    "kma_name": "Fargo Market",
    "region": "ND",
    "freight_score": 75,
    "population": 139,
    "zip_zone": "Z5"
  },
  {
    "city": "Tolna",
    "state": "ND",
    "zip": "58380",
    "lat": 47.8257,
    "lon": -98.4382,
    "kma": "Fargo Market",
    "kma_name": "Fargo Market",
    "region": "ND",
    "freight_score": 75,
    "population": 139,
    "zip_zone": "Z5"
  },
  {
    "city": "Noonan",
    "state": "ND",
    "zip": "58765",
    "lat": 48.8899,
    "lon": -103.0101,
    "kma": "Regina Market",
    "kma_name": "Regina Market",
    "region": "ND",
    "freight_score": 75,
    "population": 139,
    "zip_zone": "Z5"
  },
  {
    "city": "Aneta",
    "state": "ND",
    "zip": "58212",
    "lat": 47.6795,
    "lon": -97.9897,
    "kma": "Fargo Market",
    "kma_name": "Fargo Market",
    "region": "ND",
    "freight_score": 75,
    "population": 137,
    "zip_zone": "Z5"
  },
  {
    "city": "Grandin",
    "state": "ND",
    "zip": "58038",
    "lat": 47.2367,
    "lon": -97.0032,
    "kma": "Fargo Market",
    "kma_name": "Fargo Market",
    "region": "ND",
    "freight_score": 75,
    "population": 137,
    "zip_zone": "Z5"
  },
  {
    "city": "Reeder",
    "state": "ND",
    "zip": "58649",
    "lat": 46.1059,
    "lon": -102.9422,
    "kma": "Rapid City Market",
    "kma_name": "Rapid City Market",
    "region": "ND",
    "freight_score": 75,
    "population": 137,
    "zip_zone": "Z5"
  },
  {
    "city": "Portal",
    "state": "ND",
    "zip": "58772",
    "lat": 48.9947,
    "lon": -102.5479,
    "kma": "Regina Market",
    "kma_name": "Regina Market",
    "region": "ND",
    "freight_score": 75,
    "population": 136,
    "zip_zone": "Z5"
  },
  {
    "city": "Epping",
    "state": "ND",
    "zip": "58843",
    "lat": 48.2817,
    "lon": -103.3579,
    "kma": "Regina Market",
    "kma_name": "Regina Market",
    "region": "ND",
    "freight_score": 75,
    "population": 136,
    "zip_zone": "Z5"
  },
  {
    "city": "Porcupine",
    "state": "ND",
    "zip": "58568",
    "lat": 46.2218,
    "lon": -101.0999,
    "kma": "Rapid City Market",
    "kma_name": "Rapid City Market",
    "region": "ND",
    "freight_score": 75,
    "population": 136,
    "zip_zone": "Z5"
  },
  {
    "city": "Ryder",
    "state": "ND",
    "zip": "58779",
    "lat": 47.9211,
    "lon": -101.6694,
    "kma": "Regina Market",
    "kma_name": "Regina Market",
    "region": "ND",
    "freight_score": 75,
    "population": 135,
    "zip_zone": "Z5"
  },
  {
    "city": "East Fairview",
    "state": "ND",
    "zip": "59221",
    "lat": 47.8554,
    "lon": -104.0375,
    "kma": "Regina Market",
    "kma_name": "Regina Market",
    "region": "ND",
    "freight_score": 75,
    "population": 134,
    "zip_zone": "Z5"
  },
  {
    "city": "Crary",
    "state": "ND",
    "zip": "58327",
    "lat": 48.0716,
    "lon": -98.6385,
    "kma": "Fargo Market",
    "kma_name": "Fargo Market",
    "region": "ND",
    "freight_score": 75,
    "population": 131,
    "zip_zone": "Z5"
  },
  {
    "city": "Amenia",
    "state": "ND",
    "zip": "58004",
    "lat": 47.0065,
    "lon": -97.2241,
    "kma": "Fargo Market",
    "kma_name": "Fargo Market",
    "region": "ND",
    "freight_score": 75,
    "population": 130,
    "zip_zone": "Z5"
  },
  {
    "city": "Petersburg",
    "state": "ND",
    "zip": "58272",
    "lat": 48.0132,
    "lon": -98.0004,
    "kma": "Fargo Market",
    "kma_name": "Fargo Market",
    "region": "ND",
    "freight_score": 75,
    "population": 129,
    "zip_zone": "Z5"
  },
  {
    "city": "Wimbledon",
    "state": "ND",
    "zip": "58492",
    "lat": 47.1691,
    "lon": -98.4587,
    "kma": "Fargo Market",
    "kma_name": "Fargo Market",
    "region": "ND",
    "freight_score": 75,
    "population": 127,
    "zip_zone": "Z5"
  },
  {
    "city": "Willow City",
    "state": "ND",
    "zip": "58384",
    "lat": 48.6047,
    "lon": -100.2933,
    "kma": "Winnipeg Market",
    "kma_name": "Winnipeg Market",
    "region": "ND",
    "freight_score": 75,
    "population": 126,
    "zip_zone": "Z5"
  },
  {
    "city": "Osnabrock",
    "state": "ND",
    "zip": "58269",
    "lat": 48.67,
    "lon": -98.1488,
    "kma": "Winnipeg Market",
    "kma_name": "Winnipeg Market",
    "region": "ND",
    "freight_score": 75,
    "population": 124,
    "zip_zone": "Z5"
  },
  {
    "city": "Deering",
    "state": "ND",
    "zip": "58731",
    "lat": 48.3959,
    "lon": -101.0499,
    "kma": "Winnipeg Market",
    "kma_name": "Winnipeg Market",
    "region": "ND",
    "freight_score": 75,
    "population": 123,
    "zip_zone": "Z5"
  },
  {
    "city": "McLeod",
    "state": "ND",
    "zip": "58057",
    "lat": 46.3887,
    "lon": -97.2987,
    "kma": "Fargo Market",
    "kma_name": "Fargo Market",
    "region": "ND",
    "freight_score": 75,
    "population": 121,
    "zip_zone": "Z5"
  },
  {
    "city": "McGregor",
    "state": "ND",
    "zip": "58755",
    "lat": 48.5957,
    "lon": -102.9281,
    "kma": "Regina Market",
    "kma_name": "Regina Market",
    "region": "ND",
    "freight_score": 75,
    "population": 121,
    "zip_zone": "Z5"
  },
  {
    "city": "Sanborn",
    "state": "ND",
    "zip": "58480",
    "lat": 46.9428,
    "lon": -98.2238,
    "kma": "Fargo Market",
    "kma_name": "Fargo Market",
    "region": "ND",
    "freight_score": 75,
    "population": 119,
    "zip_zone": "Z5"
  },
  {
    "city": "Brooktree Park",
    "state": "ND",
    "zip": "58042",
    "lat": 47.0039,
    "lon": -96.8958,
    "kma": "Fargo Market",
    "kma_name": "Fargo Market",
    "region": "ND",
    "freight_score": 75,
    "population": 119,
    "zip_zone": "Z5"
  },
  {
    "city": "Sheldon",
    "state": "ND",
    "zip": "58068",
    "lat": 46.5886,
    "lon": -97.4944,
    "kma": "Fargo Market",
    "kma_name": "Fargo Market",
    "region": "ND",
    "freight_score": 75,
    "population": 118,
    "zip_zone": "Z5"
  },
  {
    "city": "Cogswell",
    "state": "ND",
    "zip": "58017",
    "lat": 46.107,
    "lon": -97.7842,
    "kma": "Fargo Market",
    "kma_name": "Fargo Market",
    "region": "ND",
    "freight_score": 75,
    "population": 114,
    "zip_zone": "Z5"
  },
  {
    "city": "Verona",
    "state": "ND",
    "zip": "58490",
    "lat": 46.3626,
    "lon": -98.0771,
    "kma": "Fargo Market",
    "kma_name": "Fargo Market",
    "region": "ND",
    "freight_score": 75,
    "population": 114,
    "zip_zone": "Z5"
  },
  {
    "city": "Lankin",
    "state": "ND",
    "zip": "58250",
    "lat": 48.3147,
    "lon": -97.9203,
    "kma": "Fargo Market",
    "kma_name": "Fargo Market",
    "region": "ND",
    "freight_score": 75,
    "population": 113,
    "zip_zone": "Z5"
  },
  {
    "city": "Pick City",
    "state": "ND",
    "zip": "58545",
    "lat": 47.511,
    "lon": -101.4574,
    "kma": "Fargo Market",
    "kma_name": "Fargo Market",
    "region": "ND",
    "freight_score": 75,
    "population": 113,
    "zip_zone": "Z5"
  },
  {
    "city": "Fort Ransom",
    "state": "ND",
    "zip": "58033",
    "lat": 46.5244,
    "lon": -97.931,
    "kma": "Fargo Market",
    "kma_name": "Fargo Market",
    "region": "ND",
    "freight_score": 75,
    "population": 112,
    "zip_zone": "Z5"
  },
  {
    "city": "Esmond",
    "state": "ND",
    "zip": "58332",
    "lat": 48.033,
    "lon": -99.7647,
    "kma": "Fargo Market",
    "kma_name": "Fargo Market",
    "region": "ND",
    "freight_score": 75,
    "population": 110,
    "zip_zone": "Z5"
  },
  {
    "city": "Pisek",
    "state": "ND",
    "zip": "58273",
    "lat": 48.3107,
    "lon": -97.7104,
    "kma": "Fargo Market",
    "kma_name": "Fargo Market",
    "region": "ND",
    "freight_score": 75,
    "population": 108,
    "zip_zone": "Z5"
  },
  {
    "city": "Dodge",
    "state": "ND",
    "zip": "58625",
    "lat": 47.3057,
    "lon": -102.2029,
    "kma": "Rapid City Market",
    "kma_name": "Rapid City Market",
    "region": "ND",
    "freight_score": 75,
    "population": 108,
    "zip_zone": "Z5"
  },
  {
    "city": "Palermo",
    "state": "ND",
    "zip": "58769",
    "lat": 48.338,
    "lon": -102.2297,
    "kma": "Regina Market",
    "kma_name": "Regina Market",
    "region": "ND",
    "freight_score": 75,
    "population": 107,
    "zip_zone": "Z5"
  },
  {
    "city": "Blacktail",
    "state": "ND",
    "zip": "58801",
    "lat": 48.4327,
    "lon": -103.74,
    "kma": "Regina Market",
    "kma_name": "Regina Market",
    "region": "ND",
    "freight_score": 75,
    "population": 107,
    "zip_zone": "Z5"
  },
  {
    "city": "Ruthville",
    "state": "ND",
    "zip": "58703",
    "lat": 48.3708,
    "lon": -101.3003,
    "kma": "Regina Market",
    "kma_name": "Regina Market",
    "region": "ND",
    "freight_score": 75,
    "population": 103,
    "zip_zone": "Z5"
  },
  {
    "city": "Mountain",
    "state": "ND",
    "zip": "58262",
    "lat": 48.6843,
    "lon": -97.8648,
    "kma": "Winnipeg Market",
    "kma_name": "Winnipeg Market",
    "region": "ND",
    "freight_score": 75,
    "population": 101,
    "zip_zone": "Z5"
  },
  {
    "city": "Crystal",
    "state": "ND",
    "zip": "58222",
    "lat": 48.5981,
    "lon": -97.6685,
    "kma": "Winnipeg Market",
    "kma_name": "Winnipeg Market",
    "region": "ND",
    "freight_score": 75,
    "population": 101,
    "zip_zone": "Z5"
  },
  {
    "city": "Montpelier",
    "state": "ND",
    "zip": "58472",
    "lat": 46.6987,
    "lon": -98.5884,
    "kma": "Fargo Market",
    "kma_name": "Fargo Market",
    "region": "ND",
    "freight_score": 75,
    "population": 101,
    "zip_zone": "Z5"
  },
  {
    "city": "Hague",
    "state": "ND",
    "zip": "58542",
    "lat": 46.0289,
    "lon": -99.9991,
    "kma": "Fargo Market",
    "kma_name": "Fargo Market",
    "region": "ND",
    "freight_score": 75,
    "population": 100,
    "zip_zone": "Z5"
  },
  {
    "city": "Golva",
    "state": "ND",
    "zip": "58632",
    "lat": 46.7347,
    "lon": -103.9829,
    "kma": "Rapid City Market",
    "kma_name": "Rapid City Market",
    "region": "ND",
    "freight_score": 75,
    "population": 98,
    "zip_zone": "Z5"
  },
  {
    "city": "Goodrich",
    "state": "ND",
    "zip": "58444",
    "lat": 47.4759,
    "lon": -100.1247,
    "kma": "Fargo Market",
    "kma_name": "Fargo Market",
    "region": "ND",
    "freight_score": 75,
    "population": 97,
    "zip_zone": "Z5"
  },
  {
    "city": "Mercer",
    "state": "ND",
    "zip": "58559",
    "lat": 47.4905,
    "lon": -100.7104,
    "kma": "Fargo Market",
    "kma_name": "Fargo Market",
    "region": "ND",
    "freight_score": 75,
    "population": 97,
    "zip_zone": "Z5"
  },
  {
    "city": "Egeland",
    "state": "ND",
    "zip": "58331",
    "lat": 48.6281,
    "lon": -99.098,
    "kma": "Winnipeg Market",
    "kma_name": "Winnipeg Market",
    "region": "ND",
    "freight_score": 75,
    "population": 97,
    "zip_zone": "Z5"
  },
  {
    "city": "Streeter",
    "state": "ND",
    "zip": "58483",
    "lat": 46.6576,
    "lon": -99.3568,
    "kma": "Fargo Market",
    "kma_name": "Fargo Market",
    "region": "ND",
    "freight_score": 75,
    "population": 96,
    "zip_zone": "Z5"
  },
  {
    "city": "Sykeston",
    "state": "ND",
    "zip": "58486",
    "lat": 47.466,
    "lon": -99.3993,
    "kma": "Fargo Market",
    "kma_name": "Fargo Market",
    "region": "ND",
    "freight_score": 75,
    "population": 96,
    "zip_zone": "Z5"
  },
  {
    "city": "Menoken",
    "state": "ND",
    "zip": "58558",
    "lat": 46.8148,
    "lon": -100.5341,
    "kma": "Fargo Market",
    "kma_name": "Fargo Market",
    "region": "ND",
    "freight_score": 75,
    "population": 95,
    "zip_zone": "Z5"
  },
  {
    "city": "Rutland",
    "state": "ND",
    "zip": "58067",
    "lat": 46.0543,
    "lon": -97.5068,
    "kma": "Fargo Market",
    "kma_name": "Fargo Market",
    "region": "ND",
    "freight_score": 75,
    "population": 92,
    "zip_zone": "Z5"
  },
  {
    "city": "Buchanan",
    "state": "ND",
    "zip": "58420",
    "lat": 47.0626,
    "lon": -98.829,
    "kma": "Fargo Market",
    "kma_name": "Fargo Market",
    "region": "ND",
    "freight_score": 75,
    "population": 92,
    "zip_zone": "Z5"
  },
  {
    "city": "Maxbass",
    "state": "ND",
    "zip": "58760",
    "lat": 48.7225,
    "lon": -101.1426,
    "kma": "Regina Market",
    "kma_name": "Regina Market",
    "region": "ND",
    "freight_score": 75,
    "population": 92,
    "zip_zone": "Z5"
  },
  {
    "city": "Hannaford",
    "state": "ND",
    "zip": "58448",
    "lat": 47.3141,
    "lon": -98.1889,
    "kma": "Fargo Market",
    "kma_name": "Fargo Market",
    "region": "ND",
    "freight_score": 75,
    "population": 90,
    "zip_zone": "Z5"
  },
  {
    "city": "Sharon",
    "state": "ND",
    "zip": "58277",
    "lat": 47.5974,
    "lon": -97.8994,
    "kma": "Fargo Market",
    "kma_name": "Fargo Market",
    "region": "ND",
    "freight_score": 75,
    "population": 90,
    "zip_zone": "Z5"
  },
  {
    "city": "Marmarth",
    "state": "ND",
    "zip": "58643",
    "lat": 46.296,
    "lon": -103.9331,
    "kma": "Rapid City Market",
    "kma_name": "Rapid City Market",
    "region": "ND",
    "freight_score": 75,
    "population": 88,
    "zip_zone": "Z5"
  },
  {
    "city": "Bisbee",
    "state": "ND",
    "zip": "58317",
    "lat": 48.6272,
    "lon": -99.3788,
    "kma": "Winnipeg Market",
    "kma_name": "Winnipeg Market",
    "region": "ND",
    "freight_score": 75,
    "population": 87,
    "zip_zone": "Z5"
  },
  {
    "city": "Solen",
    "state": "ND",
    "zip": "58570",
    "lat": 46.3873,
    "lon": -100.7958,
    "kma": "Fargo Market",
    "kma_name": "Fargo Market",
    "region": "ND",
    "freight_score": 75,
    "population": 85,
    "zip_zone": "Z5"
  },
  {
    "city": "White Earth",
    "state": "ND",
    "zip": "58794",
    "lat": 48.3799,
    "lon": -102.7718,
    "kma": "Regina Market",
    "kma_name": "Regina Market",
    "region": "ND",
    "freight_score": 75,
    "population": 85,
    "zip_zone": "Z5"
  },
  {
    "city": "Douglas",
    "state": "ND",
    "zip": "58735",
    "lat": 47.8579,
    "lon": -101.5018,
    "kma": "Regina Market",
    "kma_name": "Regina Market",
    "region": "ND",
    "freight_score": 75,
    "population": 84,
    "zip_zone": "Z5"
  },
  {
    "city": "Regan",
    "state": "ND",
    "zip": "58477",
    "lat": 47.1568,
    "lon": -100.5273,
    "kma": "Fargo Market",
    "kma_name": "Fargo Market",
    "region": "ND",
    "freight_score": 75,
    "population": 83,
    "zip_zone": "Z5"
  },
  {
    "city": "Newburg",
    "state": "ND",
    "zip": "58762",
    "lat": 48.7139,
    "lon": -100.9127,
    "kma": "Winnipeg Market",
    "kma_name": "Winnipeg Market",
    "region": "ND",
    "freight_score": 75,
    "population": 83,
    "zip_zone": "Z5"
  },
  {
    "city": "Warwick",
    "state": "ND",
    "zip": "58381",
    "lat": 47.8547,
    "lon": -98.7056,
    "kma": "Fargo Market",
    "kma_name": "Fargo Market",
    "region": "ND",
    "freight_score": 75,
    "population": 82,
    "zip_zone": "Z5"
  },
  {
    "city": "Cleveland",
    "state": "ND",
    "zip": "58424",
    "lat": 46.891,
    "lon": -99.1195,
    "kma": "Fargo Market",
    "kma_name": "Fargo Market",
    "region": "ND",
    "freight_score": 75,
    "population": 81,
    "zip_zone": "Z5"
  },
  {
    "city": "Donnybrook",
    "state": "ND",
    "zip": "58734",
    "lat": 48.5077,
    "lon": -101.8868,
    "kma": "Regina Market",
    "kma_name": "Regina Market",
    "region": "ND",
    "freight_score": 75,
    "population": 79,
    "zip_zone": "Z5"
  },
  {
    "city": "Manning",
    "state": "ND",
    "zip": "58642",
    "lat": 47.231,
    "lon": -102.7702,
    "kma": "Rapid City Market",
    "kma_name": "Rapid City Market",
    "region": "ND",
    "freight_score": 75,
    "population": 79,
    "zip_zone": "Z5"
  },
  {
    "city": "Kathryn",
    "state": "ND",
    "zip": "58049",
    "lat": 46.6812,
    "lon": -97.9704,
    "kma": "Fargo Market",
    "kma_name": "Fargo Market",
    "region": "ND",
    "freight_score": 75,
    "population": 78,
    "zip_zone": "Z5"
  },
  {
    "city": "Pingree",
    "state": "ND",
    "zip": "58476",
    "lat": 47.1638,
    "lon": -98.9086,
    "kma": "Fargo Market",
    "kma_name": "Fargo Market",
    "region": "ND",
    "freight_score": 75,
    "population": 77,
    "zip_zone": "Z5"
  },
  {
    "city": "Dawson",
    "state": "ND",
    "zip": "58428",
    "lat": 46.8679,
    "lon": -99.7536,
    "kma": "Fargo Market",
    "kma_name": "Fargo Market",
    "region": "ND",
    "freight_score": 75,
    "population": 77,
    "zip_zone": "Z5"
  },
  {
    "city": "Coleharbor",
    "state": "ND",
    "zip": "58531",
    "lat": 47.5425,
    "lon": -101.2214,
    "kma": "Fargo Market",
    "kma_name": "Fargo Market",
    "region": "ND",
    "freight_score": 75,
    "population": 76,
    "zip_zone": "Z5"
  },
  {
    "city": "Gardner",
    "state": "ND",
    "zip": "58036",
    "lat": 47.1445,
    "lon": -96.9686,
    "kma": "Fargo Market",
    "kma_name": "Fargo Market",
    "region": "ND",
    "freight_score": 75,
    "population": 76,
    "zip_zone": "Z5"
  },
  {
    "city": "Zeeland",
    "state": "ND",
    "zip": "58581",
    "lat": 45.9731,
    "lon": -99.8325,
    "kma": "Fargo Market",
    "kma_name": "Fargo Market",
    "region": "ND",
    "freight_score": 75,
    "population": 76,
    "zip_zone": "Z5"
  },
  {
    "city": "Makoti",
    "state": "ND",
    "zip": "58756",
    "lat": 47.9633,
    "lon": -101.8029,
    "kma": "Regina Market",
    "kma_name": "Regina Market",
    "region": "ND",
    "freight_score": 75,
    "population": 75,
    "zip_zone": "Z5"
  },
  {
    "city": "Havana",
    "state": "ND",
    "zip": "58043",
    "lat": 45.9517,
    "lon": -97.6185,
    "kma": "Fargo Market",
    "kma_name": "Fargo Market",
    "region": "ND",
    "freight_score": 75,
    "population": 74,
    "zip_zone": "Z5"
  },
  {
    "city": "Fortuna",
    "state": "ND",
    "zip": "58844",
    "lat": 48.9099,
    "lon": -103.7783,
    "kma": "Regina Market",
    "kma_name": "Regina Market",
    "region": "ND",
    "freight_score": 75,
    "population": 74,
    "zip_zone": "Z5"
  },
  {
    "city": "Venturia",
    "state": "ND",
    "zip": "58413",
    "lat": 45.9971,
    "lon": -99.5479,
    "kma": "Fargo Market",
    "kma_name": "Fargo Market",
    "region": "ND",
    "freight_score": 75,
    "population": 72,
    "zip_zone": "Z5"
  },
  {
    "city": "Selz",
    "state": "ND",
    "zip": "58341",
    "lat": 47.8594,
    "lon": -99.8934,
    "kma": "Fargo Market",
    "kma_name": "Fargo Market",
    "region": "ND",
    "freight_score": 75,
    "population": 71,
    "zip_zone": "Z5"
  },
  {
    "city": "Dazey",
    "state": "ND",
    "zip": "58429",
    "lat": 47.1883,
    "lon": -98.2007,
    "kma": "Fargo Market",
    "kma_name": "Fargo Market",
    "region": "ND",
    "freight_score": 75,
    "population": 70,
    "zip_zone": "Z5"
  },
  {
    "city": "Caledonia",
    "state": "ND",
    "zip": "58219",
    "lat": 47.4577,
    "lon": -96.8892,
    "kma": "Fargo Market",
    "kma_name": "Fargo Market",
    "region": "ND",
    "freight_score": 75,
    "population": 68,
    "zip_zone": "Z5"
  },
  {
    "city": "North River",
    "state": "ND",
    "zip": "58102",
    "lat": 46.9503,
    "lon": -96.8019,
    "kma": "Fargo Market",
    "kma_name": "Fargo Market",
    "region": "ND",
    "freight_score": 75,
    "population": 67,
    "zip_zone": "Z5"
  },
  {
    "city": "Martin",
    "state": "ND",
    "zip": "58758",
    "lat": 47.8268,
    "lon": -100.1154,
    "kma": "Fargo Market",
    "kma_name": "Fargo Market",
    "region": "ND",
    "freight_score": 75,
    "population": 66,
    "zip_zone": "Z5"
  },
  {
    "city": "Lehr",
    "state": "ND",
    "zip": "58460",
    "lat": 46.2826,
    "lon": -99.3528,
    "kma": "Fargo Market",
    "kma_name": "Fargo Market",
    "region": "ND",
    "freight_score": 75,
    "population": 66,
    "zip_zone": "Z5"
  },
  {
    "city": "Tuttle",
    "state": "ND",
    "zip": "58488",
    "lat": 47.1445,
    "lon": -99.9934,
    "kma": "Fargo Market",
    "kma_name": "Fargo Market",
    "region": "ND",
    "freight_score": 75,
    "population": 63,
    "zip_zone": "Z5"
  },
  {
    "city": "Butte",
    "state": "ND",
    "zip": "58723",
    "lat": 47.837,
    "lon": -100.6658,
    "kma": "Fargo Market",
    "kma_name": "Fargo Market",
    "region": "ND",
    "freight_score": 75,
    "population": 62,
    "zip_zone": "Z5"
  },
  {
    "city": "Sentinel Butte",
    "state": "ND",
    "zip": "58654",
    "lat": 46.9195,
    "lon": -103.84,
    "kma": "Rapid City Market",
    "kma_name": "Rapid City Market",
    "region": "ND",
    "freight_score": 75,
    "population": 61,
    "zip_zone": "Z5"
  },
  {
    "city": "Pekin",
    "state": "ND",
    "zip": "58361",
    "lat": 47.7919,
    "lon": -98.3278,
    "kma": "Fargo Market",
    "kma_name": "Fargo Market",
    "region": "ND",
    "freight_score": 75,
    "population": 61,
    "zip_zone": "Z5"
  },
  {
    "city": "Fullerton",
    "state": "ND",
    "zip": "58441",
    "lat": 46.1632,
    "lon": -98.4272,
    "kma": "Fargo Market",
    "kma_name": "Fargo Market",
    "region": "ND",
    "freight_score": 75,
    "population": 60,
    "zip_zone": "Z5"
  },
  {
    "city": "Landa",
    "state": "ND",
    "zip": "58783",
    "lat": 48.8958,
    "lon": -100.912,
    "kma": "Winnipeg Market",
    "kma_name": "Winnipeg Market",
    "region": "ND",
    "freight_score": 75,
    "population": 60,
    "zip_zone": "Z5"
  },
  {
    "city": "Luverne",
    "state": "ND",
    "zip": "58056",
    "lat": 47.2514,
    "lon": -97.9348,
    "kma": "Fargo Market",
    "kma_name": "Fargo Market",
    "region": "ND",
    "freight_score": 75,
    "population": 59,
    "zip_zone": "Z5"
  },
  {
    "city": "McHenry",
    "state": "ND",
    "zip": "58464",
    "lat": 47.5764,
    "lon": -98.591,
    "kma": "Fargo Market",
    "kma_name": "Fargo Market",
    "region": "ND",
    "freight_score": 75,
    "population": 58,
    "zip_zone": "Z5"
  },
  {
    "city": "Galesburg",
    "state": "ND",
    "zip": "58035",
    "lat": 47.2701,
    "lon": -97.4087,
    "kma": "Fargo Market",
    "kma_name": "Fargo Market",
    "region": "ND",
    "freight_score": 75,
    "population": 57,
    "zip_zone": "Z5"
  },
  {
    "city": "Clifford",
    "state": "ND",
    "zip": "58016",
    "lat": 47.3483,
    "lon": -97.4102,
    "kma": "Fargo Market",
    "kma_name": "Fargo Market",
    "region": "ND",
    "freight_score": 75,
    "population": 56,
    "zip_zone": "Z5"
  },
  {
    "city": "Balta",
    "state": "ND",
    "zip": "58313",
    "lat": 48.1666,
    "lon": -100.0369,
    "kma": "Fargo Market",
    "kma_name": "Fargo Market",
    "region": "ND",
    "freight_score": 75,
    "population": 56,
    "zip_zone": "Z5"
  },
  {
    "city": "Bathgate",
    "state": "ND",
    "zip": "58216",
    "lat": 48.8803,
    "lon": -97.4741,
    "kma": "Winnipeg Market",
    "kma_name": "Winnipeg Market",
    "region": "ND",
    "freight_score": 75,
    "population": 56,
    "zip_zone": "Z5"
  },
  {
    "city": "Karlsruhe",
    "state": "ND",
    "zip": "58744",
    "lat": 48.0911,
    "lon": -100.6162,
    "kma": "Fargo Market",
    "kma_name": "Fargo Market",
    "region": "ND",
    "freight_score": 75,
    "population": 56,
    "zip_zone": "Z5"
  },
  {
    "city": "Bucyrus",
    "state": "ND",
    "zip": "58639",
    "lat": 46.0648,
    "lon": -102.7885,
    "kma": "Rapid City Market",
    "kma_name": "Rapid City Market",
    "region": "ND",
    "freight_score": 75,
    "population": 55,
    "zip_zone": "Z5"
  },
  {
    "city": "Grace City",
    "state": "ND",
    "zip": "58445",
    "lat": 47.5513,
    "lon": -98.8039,
    "kma": "Fargo Market",
    "kma_name": "Fargo Market",
    "region": "ND",
    "freight_score": 75,
    "population": 53,
    "zip_zone": "Z5"
  },
  {
    "city": "Robinson",
    "state": "ND",
    "zip": "58478",
    "lat": 47.1421,
    "lon": -99.7817,
    "kma": "Fargo Market",
    "kma_name": "Fargo Market",
    "region": "ND",
    "freight_score": 75,
    "population": 53,
    "zip_zone": "Z5"
  },
  {
    "city": "Driscoll",
    "state": "ND",
    "zip": "58532",
    "lat": 46.8427,
    "lon": -100.1439,
    "kma": "Fargo Market",
    "kma_name": "Fargo Market",
    "region": "ND",
    "freight_score": 75,
    "population": 52,
    "zip_zone": "Z5"
  },
  {
    "city": "Gardena",
    "state": "ND",
    "zip": "58318",
    "lat": 48.7012,
    "lon": -100.4981,
    "kma": "Winnipeg Market",
    "kma_name": "Winnipeg Market",
    "region": "ND",
    "freight_score": 75,
    "population": 51,
    "zip_zone": "Z5"
  },
  {
    "city": "Prairie Rose",
    "state": "ND",
    "zip": "58104",
    "lat": 46.8171,
    "lon": -96.8353,
    "kma": "Fargo Market",
    "kma_name": "Fargo Market",
    "region": "ND",
    "freight_score": 75,
    "population": 50,
    "zip_zone": "Z5"
  },
  {
    "city": "Alamo",
    "state": "ND",
    "zip": "58830",
    "lat": 48.5824,
    "lon": -103.4676,
    "kma": "Regina Market",
    "kma_name": "Regina Market",
    "region": "ND",
    "freight_score": 75,
    "population": 50,
    "zip_zone": "Z5"
  },
  {
    "city": "Voltaire",
    "state": "ND",
    "zip": "58792",
    "lat": 48.0187,
    "lon": -100.844,
    "kma": "Fargo Market",
    "kma_name": "Fargo Market",
    "region": "ND",
    "freight_score": 75,
    "population": 49,
    "zip_zone": "Z5"
  },
  {
    "city": "Briarwood",
    "state": "ND",
    "zip": "58104",
    "lat": 46.787,
    "lon": -96.7949,
    "kma": "Fargo Market",
    "kma_name": "Fargo Market",
    "region": "ND",
    "freight_score": 75,
    "population": 49,
    "zip_zone": "Z5"
  },
  {
    "city": "Mantador",
    "state": "ND",
    "zip": "58058",
    "lat": 46.1654,
    "lon": -96.9779,
    "kma": "Fargo Market",
    "kma_name": "Fargo Market",
    "region": "ND",
    "freight_score": 75,
    "population": 49,
    "zip_zone": "Z5"
  },
  {
    "city": "Glenfield",
    "state": "ND",
    "zip": "58443",
    "lat": 47.4551,
    "lon": -98.5664,
    "kma": "Fargo Market",
    "kma_name": "Fargo Market",
    "region": "ND",
    "freight_score": 75,
    "population": 48,
    "zip_zone": "Z5"
  },
  {
    "city": "Foxholm",
    "state": "ND",
    "zip": "58718",
    "lat": 48.3654,
    "lon": -101.5721,
    "kma": "Regina Market",
    "kma_name": "Regina Market",
    "region": "ND",
    "freight_score": 75,
    "population": 48,
    "zip_zone": "Z5"
  },
  {
    "city": "Barney",
    "state": "ND",
    "zip": "58008",
    "lat": 46.2658,
    "lon": -96.9988,
    "kma": "Fargo Market",
    "kma_name": "Fargo Market",
    "region": "ND",
    "freight_score": 75,
    "population": 48,
    "zip_zone": "Z5"
  },
  {
    "city": "Columbus",
    "state": "ND",
    "zip": "58727",
    "lat": 48.905,
    "lon": -102.7812,
    "kma": "Regina Market",
    "kma_name": "Regina Market",
    "region": "ND",
    "freight_score": 75,
    "population": 47,
    "zip_zone": "Z5"
  },
  {
    "city": "Starkweather",
    "state": "ND",
    "zip": "58377",
    "lat": 48.4521,
    "lon": -98.8784,
    "kma": "Winnipeg Market",
    "kma_name": "Winnipeg Market",
    "region": "ND",
    "freight_score": 75,
    "population": 47,
    "zip_zone": "Z5"
  },
  {
    "city": "Nome",
    "state": "ND",
    "zip": "58062",
    "lat": 46.6758,
    "lon": -97.8162,
    "kma": "Fargo Market",
    "kma_name": "Fargo Market",
    "region": "ND",
    "freight_score": 75,
    "population": 47,
    "zip_zone": "Z5"
  },
  {
    "city": "Berlin",
    "state": "ND",
    "zip": "58415",
    "lat": 46.3784,
    "lon": -98.4885,
    "kma": "Fargo Market",
    "kma_name": "Fargo Market",
    "region": "ND",
    "freight_score": 75,
    "population": 45,
    "zip_zone": "Z5"
  },
  {
    "city": "Erie",
    "state": "ND",
    "zip": "58029",
    "lat": 47.1154,
    "lon": -97.3879,
    "kma": "Fargo Market",
    "kma_name": "Fargo Market",
    "region": "ND",
    "freight_score": 75,
    "population": 44,
    "zip_zone": "Z5"
  },
  {
    "city": "Souris",
    "state": "ND",
    "zip": "58783",
    "lat": 48.91,
    "lon": -100.6826,
    "kma": "Winnipeg Market",
    "kma_name": "Winnipeg Market",
    "region": "ND",
    "freight_score": 75,
    "population": 44,
    "zip_zone": "Z5"
  },
  {
    "city": "Dickey",
    "state": "ND",
    "zip": "58431",
    "lat": 46.5368,
    "lon": -98.4681,
    "kma": "Fargo Market",
    "kma_name": "Fargo Market",
    "region": "ND",
    "freight_score": 75,
    "population": 42,
    "zip_zone": "Z5"
  },
  {
    "city": "Woodworth",
    "state": "ND",
    "zip": "58496",
    "lat": 47.1421,
    "lon": -99.3045,
    "kma": "Fargo Market",
    "kma_name": "Fargo Market",
    "region": "ND",
    "freight_score": 75,
    "population": 42,
    "zip_zone": "Z5"
  },
  {
    "city": "Pettibone",
    "state": "ND",
    "zip": "58475",
    "lat": 47.117,
    "lon": -99.5208,
    "kma": "Fargo Market",
    "kma_name": "Fargo Market",
    "region": "ND",
    "freight_score": 75,
    "population": 42,
    "zip_zone": "Z5"
  },
  {
    "city": "Fredonia",
    "state": "ND",
    "zip": "58440",
    "lat": 46.3291,
    "lon": -99.0955,
    "kma": "Fargo Market",
    "kma_name": "Fargo Market",
    "region": "ND",
    "freight_score": 75,
    "population": 41,
    "zip_zone": "Z5"
  },
  {
    "city": "Brocket",
    "state": "ND",
    "zip": "58321",
    "lat": 48.2107,
    "lon": -98.3556,
    "kma": "Fargo Market",
    "kma_name": "Fargo Market",
    "region": "ND",
    "freight_score": 75,
    "population": 41,
    "zip_zone": "Z5"
  },
  {
    "city": "Heimdal",
    "state": "ND",
    "zip": "58341",
    "lat": 47.7926,
    "lon": -99.6528,
    "kma": "Fargo Market",
    "kma_name": "Fargo Market",
    "region": "ND",
    "freight_score": 75,
    "population": 41,
    "zip_zone": "Z5"
  },
  {
    "city": "Sutton",
    "state": "ND",
    "zip": "58484",
    "lat": 47.4038,
    "lon": -98.4412,
    "kma": "Fargo Market",
    "kma_name": "Fargo Market",
    "region": "ND",
    "freight_score": 75,
    "population": 40,
    "zip_zone": "Z5"
  },
  {
    "city": "Knox",
    "state": "ND",
    "zip": "58343",
    "lat": 48.3439,
    "lon": -99.6911,
    "kma": "Winnipeg Market",
    "kma_name": "Winnipeg Market",
    "region": "ND",
    "freight_score": 75,
    "population": 39,
    "zip_zone": "Z5"
  },
  {
    "city": "Dwight",
    "state": "ND",
    "zip": "58075",
    "lat": 46.3039,
    "lon": -96.7402,
    "kma": "Fargo Market",
    "kma_name": "Fargo Market",
    "region": "ND",
    "freight_score": 75,
    "population": 38,
    "zip_zone": "Z5"
  },
  {
    "city": "Milton",
    "state": "ND",
    "zip": "58260",
    "lat": 48.626,
    "lon": -98.0459,
    "kma": "Winnipeg Market",
    "kma_name": "Winnipeg Market",
    "region": "ND",
    "freight_score": 75,
    "population": 38,
    "zip_zone": "Z5"
  },
  {
    "city": "Wheatland",
    "state": "ND",
    "zip": "58079",
    "lat": 46.9049,
    "lon": -97.3455,
    "kma": "Fargo Market",
    "kma_name": "Fargo Market",
    "region": "ND",
    "freight_score": 75,
    "population": 38,
    "zip_zone": "Z5"
  },
  {
    "city": "Hamilton",
    "state": "ND",
    "zip": "58238",
    "lat": 48.808,
    "lon": -97.4518,
    "kma": "Winnipeg Market",
    "kma_name": "Winnipeg Market",
    "region": "ND",
    "freight_score": 75,
    "population": 37,
    "zip_zone": "Z5"
  },
  {
    "city": "Jud",
    "state": "ND",
    "zip": "58454",
    "lat": 46.5258,
    "lon": -98.8976,
    "kma": "Fargo Market",
    "kma_name": "Fargo Market",
    "region": "ND",
    "freight_score": 75,
    "population": 37,
    "zip_zone": "Z5"
  },
  {
    "city": "Rogers",
    "state": "ND",
    "zip": "58479",
    "lat": 47.074,
    "lon": -98.2031,
    "kma": "Fargo Market",
    "kma_name": "Fargo Market",
    "region": "ND",
    "freight_score": 75,
    "population": 35,
    "zip_zone": "Z5"
  },
  {
    "city": "Cayuga",
    "state": "ND",
    "zip": "58013",
    "lat": 46.0761,
    "lon": -97.3845,
    "kma": "Fargo Market",
    "kma_name": "Fargo Market",
    "region": "ND",
    "freight_score": 75,
    "population": 31,
    "zip_zone": "Z5"
  },
  {
    "city": "Springbrook",
    "state": "ND",
    "zip": "58843",
    "lat": 48.2521,
    "lon": -103.4618,
    "kma": "Regina Market",
    "kma_name": "Regina Market",
    "region": "ND",
    "freight_score": 75,
    "population": 30,
    "zip_zone": "Z5"
  },
  {
    "city": "Haynes",
    "state": "ND",
    "zip": "58639",
    "lat": 45.9739,
    "lon": -102.471,
    "kma": "Rapid City Market",
    "kma_name": "Rapid City Market",
    "region": "ND",
    "freight_score": 75,
    "population": 30,
    "zip_zone": "Z5"
  },
  {
    "city": "Elliott",
    "state": "ND",
    "zip": "58054",
    "lat": 46.4023,
    "lon": -97.8149,
    "kma": "Fargo Market",
    "kma_name": "Fargo Market",
    "region": "ND",
    "freight_score": 75,
    "population": 29,
    "zip_zone": "Z5"
  },
  {
    "city": "Inkster",
    "state": "ND",
    "zip": "58244",
    "lat": 48.1513,
    "lon": -97.6442,
    "kma": "Fargo Market",
    "kma_name": "Fargo Market",
    "region": "ND",
    "freight_score": 75,
    "population": 29,
    "zip_zone": "Z5"
  },
  {
    "city": "Great Bend",
    "state": "ND",
    "zip": "58075",
    "lat": 46.1546,
    "lon": -96.801,
    "kma": "Fargo Market",
    "kma_name": "Fargo Market",
    "region": "ND",
    "freight_score": 75,
    "population": 28,
    "zip_zone": "Z5"
  },
  {
    "city": "Hurdsfield",
    "state": "ND",
    "zip": "58451",
    "lat": 47.4468,
    "lon": -99.931,
    "kma": "Fargo Market",
    "kma_name": "Fargo Market",
    "region": "ND",
    "freight_score": 75,
    "population": 28,
    "zip_zone": "Z5"
  },
  {
    "city": "Brinsmade",
    "state": "ND",
    "zip": "58351",
    "lat": 48.184,
    "lon": -99.3236,
    "kma": "Fargo Market",
    "kma_name": "Fargo Market",
    "region": "ND",
    "freight_score": 75,
    "population": 28,
    "zip_zone": "Z5"
  },
  {
    "city": "Courtenay",
    "state": "ND",
    "zip": "58426",
    "lat": 47.2241,
    "lon": -98.5685,
    "kma": "Fargo Market",
    "kma_name": "Fargo Market",
    "region": "ND",
    "freight_score": 75,
    "population": 27,
    "zip_zone": "Z5"
  },
  {
    "city": "Oberon",
    "state": "ND",
    "zip": "58357",
    "lat": 47.9242,
    "lon": -99.2059,
    "kma": "Fargo Market",
    "kma_name": "Fargo Market",
    "region": "ND",
    "freight_score": 75,
    "population": 27,
    "zip_zone": "Z5"
  },
  {
    "city": "Alsen",
    "state": "ND",
    "zip": "58311",
    "lat": 48.6303,
    "lon": -98.7048,
    "kma": "Winnipeg Market",
    "kma_name": "Winnipeg Market",
    "region": "ND",
    "freight_score": 75,
    "population": 27,
    "zip_zone": "Z5"
  },
  {
    "city": "Tolley",
    "state": "ND",
    "zip": "58787",
    "lat": 48.7303,
    "lon": -101.8274,
    "kma": "Regina Market",
    "kma_name": "Regina Market",
    "region": "ND",
    "freight_score": 75,
    "population": 26,
    "zip_zone": "Z5"
  },
  {
    "city": "Ambrose",
    "state": "ND",
    "zip": "58833",
    "lat": 48.9559,
    "lon": -103.4813,
    "kma": "Regina Market",
    "kma_name": "Regina Market",
    "region": "ND",
    "freight_score": 75,
    "population": 26,
    "zip_zone": "Z5"
  },
  {
    "city": "Dahlen",
    "state": "ND",
    "zip": "58224",
    "lat": 48.1587,
    "lon": -97.9319,
    "kma": "Fargo Market",
    "kma_name": "Fargo Market",
    "region": "ND",
    "freight_score": 75,
    "population": 25,
    "zip_zone": "Z5"
  },
  {
    "city": "Hampden",
    "state": "ND",
    "zip": "58338",
    "lat": 48.5395,
    "lon": -98.6542,
    "kma": "Winnipeg Market",
    "kma_name": "Winnipeg Market",
    "region": "ND",
    "freight_score": 75,
    "population": 25,
    "zip_zone": "Z5"
  },
  {
    "city": "Flaxton",
    "state": "ND",
    "zip": "58737",
    "lat": 48.8974,
    "lon": -102.3933,
    "kma": "Regina Market",
    "kma_name": "Regina Market",
    "region": "ND",
    "freight_score": 75,
    "population": 24,
    "zip_zone": "Z5"
  },
  {
    "city": "Spiritwood",
    "state": "ND",
    "zip": "58481",
    "lat": 46.9343,
    "lon": -98.4933,
    "kma": "Fargo Market",
    "kma_name": "Fargo Market",
    "region": "ND",
    "freight_score": 75,
    "population": 24,
    "zip_zone": "Z5"
  },
  {
    "city": "Niagara",
    "state": "ND",
    "zip": "58266",
    "lat": 47.9983,
    "lon": -97.8717,
    "kma": "Fargo Market",
    "kma_name": "Fargo Market",
    "region": "ND",
    "freight_score": 75,
    "population": 24,
    "zip_zone": "Z5"
  },
  {
    "city": "Alice",
    "state": "ND",
    "zip": "58031",
    "lat": 46.76,
    "lon": -97.5562,
    "kma": "Fargo Market",
    "kma_name": "Fargo Market",
    "region": "ND",
    "freight_score": 75,
    "population": 23,
    "zip_zone": "Z5"
  },
  {
    "city": "Wolford",
    "state": "ND",
    "zip": "58385",
    "lat": 48.4975,
    "lon": -99.7038,
    "kma": "Winnipeg Market",
    "kma_name": "Winnipeg Market",
    "region": "ND",
    "freight_score": 75,
    "population": 23,
    "zip_zone": "Z5"
  },
  {
    "city": "Forbes",
    "state": "ND",
    "zip": "58439",
    "lat": 45.9425,
    "lon": -98.782,
    "kma": "Fargo Market",
    "kma_name": "Fargo Market",
    "region": "ND",
    "freight_score": 75,
    "population": 23,
    "zip_zone": "Z5"
  },
  {
    "city": "Fairdale",
    "state": "ND",
    "zip": "58229",
    "lat": 48.49,
    "lon": -98.2312,
    "kma": "Winnipeg Market",
    "kma_name": "Winnipeg Market",
    "region": "ND",
    "freight_score": 75,
    "population": 23,
    "zip_zone": "Z5"
  },
  {
    "city": "Long Creek",
    "state": "ND",
    "zip": "58843",
    "lat": 48.1009,
    "lon": -103.2548,
    "kma": "Regina Market",
    "kma_name": "Regina Market",
    "region": "ND",
    "freight_score": 75,
    "population": 23,
    "zip_zone": "Z5"
  },
  {
    "city": "Nekoma",
    "state": "ND",
    "zip": "58355",
    "lat": 48.5763,
    "lon": -98.3755,
    "kma": "Winnipeg Market",
    "kma_name": "Winnipeg Market",
    "region": "ND",
    "freight_score": 75,
    "population": 22,
    "zip_zone": "Z5"
  },
  {
    "city": "Cathay",
    "state": "ND",
    "zip": "58422",
    "lat": 47.5542,
    "lon": -99.4108,
    "kma": "Fargo Market",
    "kma_name": "Fargo Market",
    "region": "ND",
    "freight_score": 75,
    "population": 22,
    "zip_zone": "Z5"
  },
  {
    "city": "De Lamere",
    "state": "ND",
    "zip": "58060",
    "lat": 46.2668,
    "lon": -97.3332,
    "kma": "Fargo Market",
    "kma_name": "Fargo Market",
    "region": "ND",
    "freight_score": 75,
    "population": 21,
    "zip_zone": "Z5"
  },
  {
    "city": "Ardoch",
    "state": "ND",
    "zip": "58261",
    "lat": 48.2054,
    "lon": -97.338,
    "kma": "Fargo Market",
    "kma_name": "Fargo Market",
    "region": "ND",
    "freight_score": 75,
    "population": 21,
    "zip_zone": "Z5"
  },
  {
    "city": "Leal",
    "state": "ND",
    "zip": "58479",
    "lat": 47.1049,
    "lon": -98.3155,
    "kma": "Fargo Market",
    "kma_name": "Fargo Market",
    "region": "ND",
    "freight_score": 75,
    "population": 20,
    "zip_zone": "Z5"
  },
  {
    "city": "Lawton",
    "state": "ND",
    "zip": "58345",
    "lat": 48.3036,
    "lon": -98.3684,
    "kma": "Fargo Market",
    "kma_name": "Fargo Market",
    "region": "ND",
    "freight_score": 75,
    "population": 20,
    "zip_zone": "Z5"
  },
  {
    "city": "Sibley",
    "state": "ND",
    "zip": "58429",
    "lat": 47.2188,
    "lon": -97.9654,
    "kma": "Fargo Market",
    "kma_name": "Fargo Market",
    "region": "ND",
    "freight_score": 75,
    "population": 19,
    "zip_zone": "Z5"
  },
  {
    "city": "Ludden",
    "state": "ND",
    "zip": "58474",
    "lat": 46.0082,
    "lon": -98.1254,
    "kma": "Fargo Market",
    "kma_name": "Fargo Market",
    "region": "ND",
    "freight_score": 75,
    "population": 19,
    "zip_zone": "Z5"
  },
  {
    "city": "Sarles",
    "state": "ND",
    "zip": "58372",
    "lat": 48.945,
    "lon": -98.9969,
    "kma": "Winnipeg Market",
    "kma_name": "Winnipeg Market",
    "region": "ND",
    "freight_score": 75,
    "population": 18,
    "zip_zone": "Z5"
  },
  {
    "city": "Kramer",
    "state": "ND",
    "zip": "58748",
    "lat": 48.691,
    "lon": -100.7078,
    "kma": "Winnipeg Market",
    "kma_name": "Winnipeg Market",
    "region": "ND",
    "freight_score": 75,
    "population": 17,
    "zip_zone": "Z5"
  },
  {
    "city": "Antler",
    "state": "ND",
    "zip": "58711",
    "lat": 48.9713,
    "lon": -101.2832,
    "kma": "Regina Market",
    "kma_name": "Regina Market",
    "region": "ND",
    "freight_score": 75,
    "population": 17,
    "zip_zone": "Z5"
  },
  {
    "city": "Amidon",
    "state": "ND",
    "zip": "58620",
    "lat": 46.4822,
    "lon": -103.3196,
    "kma": "Rapid City Market",
    "kma_name": "Rapid City Market",
    "region": "ND",
    "freight_score": 75,
    "population": 17,
    "zip_zone": "Z5"
  },
  {
    "city": "Hansboro",
    "state": "ND",
    "zip": "58339",
    "lat": 48.9524,
    "lon": -99.3802,
    "kma": "Winnipeg Market",
    "kma_name": "Winnipeg Market",
    "region": "ND",
    "freight_score": 75,
    "population": 16,
    "zip_zone": "Z5"
  },
  {
    "city": "Leith",
    "state": "ND",
    "zip": "58529",
    "lat": 46.3626,
    "lon": -101.6385,
    "kma": "Rapid City Market",
    "kma_name": "Rapid City Market",
    "region": "ND",
    "freight_score": 75,
    "population": 15,
    "zip_zone": "Z5"
  },
  {
    "city": "Gascoyne",
    "state": "ND",
    "zip": "58653",
    "lat": 46.119,
    "lon": -103.0788,
    "kma": "Rapid City Market",
    "kma_name": "Rapid City Market",
    "region": "ND",
    "freight_score": 75,
    "population": 15,
    "zip_zone": "Z5"
  },
  {
    "city": "Calvin",
    "state": "ND",
    "zip": "58323",
    "lat": 48.8518,
    "lon": -98.938,
    "kma": "Winnipeg Market",
    "kma_name": "Winnipeg Market",
    "region": "ND",
    "freight_score": 75,
    "population": 15,
    "zip_zone": "Z5"
  },
  {
    "city": "Embden",
    "state": "ND",
    "zip": "58079",
    "lat": 46.805,
    "lon": -97.4395,
    "kma": "Fargo Market",
    "kma_name": "Fargo Market",
    "region": "ND",
    "freight_score": 75,
    "population": 15,
    "zip_zone": "Z5"
  },
  {
    "city": "Braddock",
    "state": "ND",
    "zip": "58524",
    "lat": 46.564,
    "lon": -100.0896,
    "kma": "Fargo Market",
    "kma_name": "Fargo Market",
    "region": "ND",
    "freight_score": 75,
    "population": 14,
    "zip_zone": "Z5"
  },
  {
    "city": "Monango",
    "state": "ND",
    "zip": "58436",
    "lat": 46.1734,
    "lon": -98.5952,
    "kma": "Fargo Market",
    "kma_name": "Fargo Market",
    "region": "ND",
    "freight_score": 75,
    "population": 14,
    "zip_zone": "Z5"
  },
  {
    "city": "Calio",
    "state": "ND",
    "zip": "58352",
    "lat": 48.6238,
    "lon": -98.938,
    "kma": "Winnipeg Market",
    "kma_name": "Winnipeg Market",
    "region": "ND",
    "freight_score": 75,
    "population": 13,
    "zip_zone": "Z5"
  },
  {
    "city": "Loma",
    "state": "ND",
    "zip": "58311",
    "lat": 48.6417,
    "lon": -98.5248,
    "kma": "Winnipeg Market",
    "kma_name": "Winnipeg Market",
    "region": "ND",
    "freight_score": 75,
    "population": 13,
    "zip_zone": "Z5"
  },
  {
    "city": "Auburn",
    "state": "ND",
    "zip": "58237",
    "lat": 48.5066,
    "lon": -97.4368,
    "kma": "Winnipeg Market",
    "kma_name": "Winnipeg Market",
    "region": "ND",
    "freight_score": 75,
    "population": 13,
    "zip_zone": "Z5"
  },
  {
    "city": "Denhoff",
    "state": "ND",
    "zip": "58430",
    "lat": 47.4786,
    "lon": -100.2592,
    "kma": "Fargo Market",
    "kma_name": "Fargo Market",
    "region": "ND",
    "freight_score": 75,
    "population": 13,
    "zip_zone": "Z5"
  },
  {
    "city": "Conway",
    "state": "ND",
    "zip": "58233",
    "lat": 48.2343,
    "lon": -97.6751,
    "kma": "Fargo Market",
    "kma_name": "Fargo Market",
    "region": "ND",
    "freight_score": 75,
    "population": 12,
    "zip_zone": "Z5"
  },
  {
    "city": "Hannah",
    "state": "ND",
    "zip": "58239",
    "lat": 48.9729,
    "lon": -98.6903,
    "kma": "Winnipeg Market",
    "kma_name": "Winnipeg Market",
    "region": "ND",
    "freight_score": 75,
    "population": 12,
    "zip_zone": "Z5"
  },
  {
    "city": "Englevale",
    "state": "ND",
    "zip": "58033",
    "lat": 46.3912,
    "lon": -97.9038,
    "kma": "Fargo Market",
    "kma_name": "Fargo Market",
    "region": "ND",
    "freight_score": 75,
    "population": 12,
    "zip_zone": "Z5"
  },
  {
    "city": "Ayr",
    "state": "ND",
    "zip": "58007",
    "lat": 47.0411,
    "lon": -97.4909,
    "kma": "Fargo Market",
    "kma_name": "Fargo Market",
    "region": "ND",
    "freight_score": 75,
    "population": 12,
    "zip_zone": "Z5"
  },
  {
    "city": "Ypsilanti",
    "state": "ND",
    "zip": "58497",
    "lat": 46.7834,
    "lon": -98.561,
    "kma": "Fargo Market",
    "kma_name": "Fargo Market",
    "region": "ND",
    "freight_score": 75,
    "population": 12,
    "zip_zone": "Z5"
  },
  {
    "city": "Pillsbury",
    "state": "ND",
    "zip": "58065",
    "lat": 47.2071,
    "lon": -97.7957,
    "kma": "Fargo Market",
    "kma_name": "Fargo Market",
    "region": "ND",
    "freight_score": 75,
    "population": 11,
    "zip_zone": "Z5"
  },
  {
    "city": "Overly",
    "state": "ND",
    "zip": "58384",
    "lat": 48.6811,
    "lon": -100.151,
    "kma": "Winnipeg Market",
    "kma_name": "Winnipeg Market",
    "region": "ND",
    "freight_score": 75,
    "population": 9,
    "zip_zone": "Z5"
  },