[
  {
    "city": "Birmingham",
    "state": "AL",
    "zip": "35218",
    "lat": 33.5279,
    "lon": -86.7971,
    "kma": "Birmingham Market",
    "kma_name": "Birmingham Market",
    "region": "AL",
    "freight_score": 100,
    "population": 778756,
    "zip_zone": "Z3"
  },
  {
    "city": "Huntsville",
    "state": "AL",
    "zip": "35801",
    "lat": 34.6981,
    "lon": -86.6412,
    "kma": "Decatur Market",
    "kma_name": "Decatur Market",
    "region": "AL",
    "freight_score": 100,
    "population": 359389,
    "zip_zone": "Z3"
  },
  {
    "city": "Mobile",
    "state": "AL",
    "zip": "36652",
    "lat": 30.6782,
    "lon": -88.1162,
    "kma": "Mobile Market",
    "kma_name": "Mobile Market",
    "region": "AL",
    "freight_score": 100,
    "population": 324067,
    "zip_zone": "Z3"
  },
  {
    "city": "Montgomery",
    "state": "AL",
    "zip": "36112",
    "lat": 32.3482,
    "lon": -86.2668,
    "kma": "Montgomery Market",
    "kma_name": "Montgomery Market",
    "region": "AL",
    "freight_score": 100,
    "population": 251545,
    "zip_zone": "Z3"
  },
  {
    "city": "Tuscaloosa",
    "state": "AL",
    "zip": "35475",
    "lat": 33.2348,
    "lon": -87.5268,
    "kma": "Birmingham Market",
    "kma_name": "Birmingham Market",
    "region": "AL",
    "freight_score": 100,
    "population": 166253,
    "zip_zone": "Z3"
  },
  {
    "city": "Auburn",
    "state": "AL",
    "zip": "36849",
    "lat": 32.6087,
    "lon": -85.4903,
    "kma": "Montgomery Market",
    "kma_name": "Montgomery Market",
    "region": "AL",
    "freight_score": 100,
    "population": 108327,
    "zip_zone": "Z3"
  },
  {
    "city": "Hoover",
    "state": "AL",
    "zip": "35216",
    "lat": 33.3763,
    "lon": -86.8068,
    "kma": "Birmingham Market",
    "kma_name": "Birmingham Market",
    "region": "AL",
    "freight_score": 98,
    "population": 92401,
    "zip_zone": "Z3"
  },
  {
    "city": "Florence",
    "state": "AL",
    "zip": "35632",
    "lat": 34.8303,
    "lon": -87.6655,
    "kma": "Decatur Market",
    "kma_name": "Decatur Market",
    "region": "AL",
    "freight_score": 95,
    "population": 80720,
    "zip_zone": "Z3"
  },
  {
    "city": "Anniston",
    "state": "AL",
    "zip": "36201",
    "lat": 33.6712,
    "lon": -85.8135,
    "kma": "Birmingham Market",
    "kma_name": "Birmingham Market",
    "region": "AL",
    "freight_score": 94,
    "population": 76228,
    "zip_zone": "Z3"
  },
  {
    "city": "Dothan",
    "state": "AL",
    "zip": "36303",
    "lat": 31.2336,
    "lon": -85.407,
    "kma": "Montgomery Market",
    "kma_name": "Montgomery Market",
    "region": "AL",
    "freight_score": 94,
    "population": 74002,
    "zip_zone": "Z3"
  },
  {
    "city": "Madison",
    "state": "AL",
    "zip": "35756",
    "lat": 34.7114,
    "lon": -86.7626,
    "kma": "Decatur Market",
    "kma_name": "Decatur Market",
    "region": "AL",
    "freight_score": 90,
    "population": 58335,
    "zip_zone": "Z3"
  },
  {
    "city": "Decatur",
    "state": "AL",
    "zip": "35603",
    "lat": 34.5731,
    "lon": -86.9905,
    "kma": "Decatur Market",
    "kma_name": "Decatur Market",
    "region": "AL",
    "freight_score": 89,
    "population": 57760,
    "zip_zone": "Z3"
  },
  {
    "city": "Prattville",
    "state": "AL",
    "zip": "36066",
    "lat": 32.4597,
    "lon": -86.4573,
    "kma": "Montgomery Market",
    "kma_name": "Montgomery Market",
    "region": "AL",
    "freight_score": 85,
    "population": 38850,
    "zip_zone": "Z3"
  },
  {
    "city": "Vestavia Hills",
    "state": "AL",
    "zip": "35216",
    "lat": 33.4518,
    "lon": -86.7437,
    "kma": "Birmingham Market",
    "kma_name": "Birmingham Market",
    "region": "AL",
    "freight_score": 85,
    "population": 38704,
    "zip_zone": "Z3"
  },
  {
    "city": "Phenix City",
    "state": "AL",
    "zip": "36869",
    "lat": 32.4585,
    "lon": -85.0253,
    "kma": "Montgomery Market",
    "kma_name": "Montgomery Market",
    "region": "AL",
    "freight_score": 85,
    "population": 38477,
    "zip_zone": "Z3"
  },
  {
    "city": "Alabaster",
    "state": "AL",
    "zip": "35114",
    "lat": 33.2198,
    "lon": -86.8225,
    "kma": "Birmingham Market",
    "kma_name": "Birmingham Market",
    "region": "AL",
    "freight_score": 83,
    "population": 33633,
    "zip_zone": "Z3"
  },
  {
    "city": "Gadsden",
    "state": "AL",
    "zip": "35901",
    "lat": 34.0086,
    "lon": -86.0157,
    "kma": "Birmingham Market",
    "kma_name": "Birmingham Market",
    "region": "AL",
    "freight_score": 83,
    "population": 33617,
    "zip_zone": "Z3"
  },
  {
    "city": "Opelika",
    "state": "AL",
    "zip": "36801",
    "lat": 32.6612,
    "lon": -85.3769,
    "kma": "Montgomery Market",
    "kma_name": "Montgomery Market",
    "region": "AL",
    "freight_score": 83,
    "population": 31944,
    "zip_zone": "Z3"
  },
  {
    "city": "Northport",
    "state": "AL",
    "zip": "35473",
    "lat": 33.2586,
    "lon": -87.5993,
    "kma": "Birmingham Market",
    "kma_name": "Birmingham Market",
    "region": "AL",
    "freight_score": 83,
    "population": 30991,
    "zip_zone": "Z3"
  },
  {
    "city": "Enterprise",
    "state": "AL",
    "zip": "36330",
    "lat": 31.3275,
    "lon": -85.8463,
    "kma": "Montgomery Market",
    "kma_name": "Montgomery Market",
    "region": "AL",
    "freight_score": 82,
    "population": 28990,
    "zip_zone": "Z3"
  },
  {
    "city": "Daphne",
    "state": "AL",
    "zip": "36526",
    "lat": 30.6263,
    "lon": -87.8816,
    "kma": "Mobile Market",
    "kma_name": "Mobile Market",
    "region": "AL",
    "freight_score": 82,
    "population": 28673,
    "zip_zone": "Z3"
  },
  {
    "city": "Homewood",
    "state": "AL",
    "zip": "35229",
    "lat": 33.4619,
    "lon": -86.809,
    "kma": "Birmingham Market",
    "kma_name": "Birmingham Market",
    "region": "AL",
    "freight_score": 82,
    "population": 27697,
    "zip_zone": "Z3"
  },
  {
    "city": "Athens",
    "state": "AL",
    "zip": "35611",
    "lat": 34.7843,
    "lon": -86.9503,
    "kma": "Decatur Market",
    "kma_name": "Decatur Market",
    "region": "AL",
    "freight_score": 82,
    "population": 27474,
    "zip_zone": "Z3"
  },
  {
    "city": "Trussville",
    "state": "AL",
    "zip": "35235",
    "lat": 33.6405,
    "lon": -86.5815,
    "kma": "Birmingham Market",
    "kma_name": "Birmingham Market",
    "region": "AL",
    "freight_score": 82,
    "population": 26182,
    "zip_zone": "Z3"
  },
  {
    "city": "Bessemer",
    "state": "AL",
    "zip": "35022",
    "lat": 33.3712,
    "lon": -86.9728,
    "kma": "Birmingham Market",
    "kma_name": "Birmingham Market",
    "region": "AL",
    "freight_score": 81,
    "population": 25655,
    "zip_zone": "Z3"
  },
  {
    "city": "Pelham",
    "state": "AL",
    "zip": "35124",
    "lat": 33.3114,
    "lon": -86.7573,
    "kma": "Birmingham Market",
    "kma_name": "Birmingham Market",
    "region": "AL",
    "freight_score": 81,
    "population": 24510,
    "zip_zone": "Z3"
  },
  {
    "city": "Fairhope",
    "state": "AL",
    "zip": "36532",
    "lat": 30.5209,
    "lon": -87.8813,
    "kma": "Mobile Market",
    "kma_name": "Mobile Market",
    "region": "AL",
    "freight_score": 81,
    "population": 23360,
    "zip_zone": "Z3"
  },
  {
    "city": "Albertville",
    "state": "AL",
    "zip": "35951",
    "lat": 34.2633,
    "lon": -86.2108,
    "kma": "Decatur Market",
    "kma_name": "Decatur Market",
    "region": "AL",
    "freight_score": 81,
    "population": 22584,
    "zip_zone": "Z3"
  },
  {
    "city": "Foley",
    "state": "AL",
    "zip": "36535",
    "lat": 30.3983,
    "lon": -87.665,
    "kma": "Mobile Market",
    "kma_name": "Mobile Market",
    "region": "AL",
    "freight_score": 81,
    "population": 22330,
    "zip_zone": "Z3"
  },
  {
    "city": "Mountain Brook",
    "state": "AL",
    "zip": "35213",
    "lat": 33.4871,
    "lon": -86.74,
    "kma": "Birmingham Market",
    "kma_name": "Birmingham Market",
    "region": "AL",
    "freight_score": 81,
    "population": 22160,
    "zip_zone": "Z3"
  },
  {
    "city": "Oxford",
    "state": "AL",
    "zip": "36260",
    "lat": 33.5967,
    "lon": -85.8687,
    "kma": "Birmingham Market",
    "kma_name": "Birmingham Market",
    "region": "AL",
    "freight_score": 81,
    "population": 22063,
    "zip_zone": "Z3"
  },
  {
    "city": "Helena",
    "state": "AL",
    "zip": "35022",
    "lat": 33.2837,
    "lon": -86.8791,
    "kma": "Birmingham Market",
    "kma_name": "Birmingham Market",
    "region": "AL",
    "freight_score": 80,
    "population": 21452,
    "zip_zone": "Z3"
  },
  {
    "city": "Prichard",
    "state": "AL",
    "zip": "36663",
    "lat": 30.7735,
    "lon": -88.1301,
    "kma": "Mobile Market",
    "kma_name": "Mobile Market",
    "region": "AL",
    "freight_score": 80,
    "population": 19121,
    "zip_zone": "Z3"
  },
  {
    "city": "Cullman",
    "state": "AL",
    "zip": "35058",
    "lat": 34.1775,
    "lon": -86.8407,
    "kma": "Decatur Market",
    "kma_name": "Decatur Market",
    "region": "AL",
    "freight_score": 80,
    "population": 18894,
    "zip_zone": "Z3"
  },
  {
    "city": "Troy",
    "state": "AL",
    "zip": "36079",
    "lat": 31.8021,
    "lon": -85.9664,
    "kma": "Montgomery Market",
    "kma_name": "Montgomery Market",
    "region": "AL",
    "freight_score": 79,
    "population": 17733,
    "zip_zone": "Z3"
  },
  {
    "city": "Tillmans Corner",
    "state": "AL",
    "zip": "36582",
    "lat": 30.5819,
    "lon": -88.2128,
    "kma": "Mobile Market",
    "kma_name": "Mobile Market",
    "region": "AL",
    "freight_score": 79,
    "population": 17678,
    "zip_zone": "Z3"
  },
  {
    "city": "Selma",
    "state": "AL",
    "zip": "36703",
    "lat": 32.4166,
    "lon": -87.0336,
    "kma": "Montgomery Market",
    "kma_name": "Montgomery Market",
    "region": "AL",
    "freight_score": 79,
    "population": 17442,
    "zip_zone": "Z3"
  },
  {
    "city": "Calera",
    "state": "AL",
    "zip": "35040",
    "lat": 33.1254,
    "lon": -86.7449,
    "kma": "Birmingham Market",
    "kma_name": "Birmingham Market",
    "region": "AL",
    "freight_score": 79,
    "population": 17188,
    "zip_zone": "Z3"
  },
  {
    "city": "Millbrook",
    "state": "AL",
    "zip": "36054",
    "lat": 32.5027,
    "lon": -86.3737,
    "kma": "Montgomery Market",
    "kma_name": "Montgomery Market",
    "region": "AL",
    "freight_score": 79,
    "population": 16923,
    "zip_zone": "Z3"
  },
  {
    "city": "Muscle Shoals",
    "state": "AL",
    "zip": "35674",
    "lat": 34.7432,
    "lon": -87.6343,
    "kma": "Decatur Market",
    "kma_name": "Decatur Market",
    "region": "AL",
    "freight_score": 79,
    "population": 16670,
    "zip_zone": "Z3"
  },
  {
    "city": "Hueytown",
    "state": "AL",
    "zip": "35023",
    "lat": 33.4239,
    "lon": -87.022,
    "kma": "Birmingham Market",
    "kma_name": "Birmingham Market",
    "region": "AL",
    "freight_score": 79,
    "population": 16541,
    "zip_zone": "Z3"
  },
  {
    "city": "Saraland",
    "state": "AL",
    "zip": "36571",
    "lat": 30.8479,
    "lon": -88.1004,
    "kma": "Mobile Market",
    "kma_name": "Mobile Market",
    "region": "AL",
    "freight_score": 79,
    "population": 16304,
    "zip_zone": "Z3"
  },
  {
    "city": "Center Point",
    "state": "AL",
    "zip": "35215",
    "lat": 33.6447,
    "lon": -86.6852,
    "kma": "Birmingham Market",
    "kma_name": "Birmingham Market",
    "region": "AL",
    "freight_score": 79,
    "population": 16125,
    "zip_zone": "Z3"
  },
  {
    "city": "Gardendale",
    "state": "AL",
    "zip": "35071",
    "lat": 33.6677,
    "lon": -86.8069,
    "kma": "Birmingham Market",
    "kma_name": "Birmingham Market",
    "region": "AL",
    "freight_score": 79,
    "population": 16110,
    "zip_zone": "Z3"
  },
  {
    "city": "Gulf Shores",
    "state": "AL",
    "zip": "36542",
    "lat": 30.2764,
    "lon": -87.7017,
    "kma": "Mobile Market",
    "kma_name": "Mobile Market",
    "region": "AL",
    "freight_score": 79,
    "population": 15785,
    "zip_zone": "Z3"
  },
  {
    "city": "Chelsea",
    "state": "AL",
    "zip": "35051",
    "lat": 33.3262,
    "lon": -86.63,
    "kma": "Birmingham Market",
    "kma_name": "Birmingham Market",
    "region": "AL",
    "freight_score": 79,
    "population": 15731,
    "zip_zone": "Z3"
  },
  {
    "city": "Scottsboro",
    "state": "AL",
    "zip": "35768",
    "lat": 34.6438,
    "lon": -86.0491,
    "kma": "Chattanooga Market",
    "kma_name": "Chattanooga Market",
    "region": "AL",
    "freight_score": 79,
    "population": 15641,
    "zip_zone": "Z3"
  },
  {
    "city": "Hartselle",
    "state": "AL",
    "zip": "35640",
    "lat": 34.4391,
    "lon": -86.9396,
    "kma": "Decatur Market",
    "kma_name": "Decatur Market",
    "region": "AL",
    "freight_score": 79,
    "population": 15586,
    "zip_zone": "Z3"
  },
  {
    "city": "Talladega",
    "state": "AL",
    "zip": "35160",
    "lat": 33.4333,
    "lon": -86.0986,
    "kma": "Birmingham Market",
    "kma_name": "Birmingham Market",
    "region": "AL",
    "freight_score": 79,
    "population": 15041,
    "zip_zone": "Z3"
  },
  {
    "city": "Fort Payne",
    "state": "AL",
    "zip": "35967",
    "lat": 34.4559,
    "lon": -85.6965,
    "kma": "Chattanooga Market",
    "kma_name": "Chattanooga Market",
    "region": "AL",
    "freight_score": 79,
    "population": 14886,
    "zip_zone": "Z3"
  },
  {
    "city": "Alexander City",
    "state": "AL",
    "zip": "35010",
    "lat": 32.9229,
    "lon": -85.9358,
    "kma": "Montgomery Market",
    "kma_name": "Montgomery Market",
    "region": "AL",
    "freight_score": 79,
    "population": 14686,
    "zip_zone": "Z3"
  },
  {
    "city": "Jasper",
    "state": "AL",
    "zip": "35503",
    "lat": 33.8508,
    "lon": -87.271,
    "kma": "Birmingham Market",
    "kma_name": "Birmingham Market",
    "region": "AL",
    "freight_score": 79,
    "population": 14480,
    "zip_zone": "Z3"
  },
  {
    "city": "Ozark",
    "state": "AL",
    "zip": "36360",
    "lat": 31.4508,
    "lon": -85.6473,
    "kma": "Montgomery Market",
    "kma_name": "Montgomery Market",
    "region": "AL",
    "freight_score": 79,
    "population": 14348,
    "zip_zone": "Z3"
  },
  {
    "city": "Jacksonville",
    "state": "AL",
    "zip": "36265",
    "lat": 33.8088,
    "lon": -85.7545,
    "kma": "Birmingham Market",
    "kma_name": "Birmingham Market",
    "region": "AL",
    "freight_score": 79,
    "population": 14345,
    "zip_zone": "Z3"
  },
  {
    "city": "McCalla",
    "state": "AL",
    "zip": "35022",
    "lat": 33.3023,
    "lon": -87.0302,
    "kma": "Birmingham Market",
    "kma_name": "Birmingham Market",
    "region": "AL",
    "freight_score": 78,
    "population": 13939,
    "zip_zone": "Z3"
  },
  {
    "city": "Irondale",
    "state": "AL",
    "zip": "35210",
    "lat": 33.5439,
    "lon": -86.6606,
    "kma": "Birmingham Market",
    "kma_name": "Birmingham Market",
    "region": "AL",
    "freight_score": 78,
    "population": 13462,
    "zip_zone": "Z3"
  },
  {
    "city": "Moody",
    "state": "AL",
    "zip": "35094",
    "lat": 33.5986,
    "lon": -86.4963,
    "kma": "Birmingham Market",
    "kma_name": "Birmingham Market",
    "region": "AL",
    "freight_score": 78,
    "population": 13378,
    "zip_zone": "Z3"
  },
  {
    "city": "Pell City",
    "state": "AL",
    "zip": "35125",
    "lat": 33.561,
    "lon": -86.2669,
    "kma": "Birmingham Market",
    "kma_name": "Birmingham Market",
    "region": "AL",
    "freight_score": 78,
    "population": 13353,
    "zip_zone": "Z3"
  },
  {
    "city": "Eufaula",
    "state": "AL",
    "zip": "36027",
    "lat": 31.9102,
    "lon": -85.1505,
    "kma": "Montgomery Market",
    "kma_name": "Montgomery Market",
    "region": "AL",
    "freight_score": 78,
    "population": 12664,
    "zip_zone": "Z3"
  },
  {
    "city": "Sylacauga",
    "state": "AL",
    "zip": "35151",
    "lat": 33.178,
    "lon": -86.2605,
    "kma": "Birmingham Market",
    "kma_name": "Birmingham Market",
    "region": "AL",
    "freight_score": 78,
    "population": 12388,
    "zip_zone": "Z3"
  },
  {
    "city": "Leeds",
    "state": "AL",
    "zip": "35094",
    "lat": 33.5436,
    "lon": -86.5639,
    "kma": "Birmingham Market",
    "kma_name": "Birmingham Market",
    "region": "AL",
    "freight_score": 78,
    "population": 12221,
    "zip_zone": "Z3"
  },
  {
    "city": "Boaz",
    "state": "AL",
    "zip": "35957",
    "lat": 34.1985,
    "lon": -86.1529,
    "kma": "Decatur Market",
    "kma_name": "Decatur Market",
    "region": "AL",
    "freight_score": 78,
    "population": 10847,
    "zip_zone": "Z3"
  },
  {
    "city": "Russellville",
    "state": "AL",
    "zip": "35654",
    "lat": 34.5055,
    "lon": -87.7283,
    "kma": "Decatur Market",
    "kma_name": "Decatur Market",
    "region": "AL",
    "freight_score": 78,
    "population": 10783,
    "zip_zone": "Z3"
  },
  {
    "city": "Saks",
    "state": "AL",
    "zip": "36201",
    "lat": 33.7118,
    "lon": -85.8536,
    "kma": "Birmingham Market",
    "kma_name": "Birmingham Market",
    "region": "AL",
    "freight_score": 78,
    "population": 10727,
    "zip_zone": "Z3"
  },
  {
    "city": "Valley",
    "state": "AL",
    "zip": "36854",
    "lat": 32.8088,
    "lon": -85.181,
    "kma": "Montgomery Market",
    "kma_name": "Montgomery Market",
    "region": "AL",
    "freight_score": 78,
    "population": 10406,
    "zip_zone": "Z3"
  },
  {
    "city": "Spanish Fort",
    "state": "AL",
    "zip": "36507",
    "lat": 30.7254,
    "lon": -87.8597,
    "kma": "Mobile Market",
    "kma_name": "Mobile Market",
    "region": "AL",
    "freight_score": 78,
    "population": 10377,
    "zip_zone": "Z3"
  },
  {
    "city": "Clay",
    "state": "AL",
    "zip": "35173",
    "lat": 33.6951,
    "lon": -86.609,
    "kma": "Birmingham Market",
    "kma_name": "Birmingham Market",
    "region": "AL",
    "freight_score": 78,
    "population": 10288,
    "zip_zone": "Z3"
  },
  {
    "city": "Meridianville",
    "state": "AL",
    "zip": "35773",
    "lat": 34.8729,
    "lon": -86.5722,
    "kma": "Decatur Market",
    "kma_name": "Decatur Market",
    "region": "AL",
    "freight_score": 78,
    "population": 10268,
    "zip_zone": "Z3"
  },
  {
    "city": "Rainbow City",
    "state": "AL",
    "zip": "35906",
    "lat": 33.9336,
    "lon": -86.0922,
    "kma": "Birmingham Market",
    "kma_name": "Birmingham Market",
    "region": "AL",
    "freight_score": 78,
    "population": 10213,
    "zip_zone": "Z3"
  },
  {
    "city": "Pike Road",
    "state": "AL",
    "zip": "36064",
    "lat": 32.2939,
    "lon": -86.09,
    "kma": "Montgomery Market",
    "kma_name": "Montgomery Market",
    "region": "AL",
    "freight_score": 78,
    "population": 10103,
    "zip_zone": "Z3"
  },
  {
    "city": "Fairfield",
    "state": "AL",
    "zip": "35064",
    "lat": 33.4747,
    "lon": -86.9194,
    "kma": "Birmingham Market",
    "kma_name": "Birmingham Market",
    "region": "AL",
    "freight_score": 77,
    "population": 9846,
    "zip_zone": "Z3"
  },
  {
    "city": "Fultondale",
    "state": "AL",
    "zip": "35217",
    "lat": 33.6174,
    "lon": -86.8014,
    "kma": "Birmingham Market",
    "kma_name": "Birmingham Market",
    "region": "AL",
    "freight_score": 77,
    "population": 9753,
    "zip_zone": "Z3"
  },
  {
    "city": "Pleasant Grove",
    "state": "AL",
    "zip": "35127",
    "lat": 33.494,
    "lon": -86.9782,
    "kma": "Birmingham Market",
    "kma_name": "Birmingham Market",
    "region": "AL",
    "freight_score": 77,
    "population": 9502,
    "zip_zone": "Z3"
  },
  {
    "city": "Southside",
    "state": "AL",
    "zip": "35907",
    "lat": 33.9007,
    "lon": -86.0238,
    "kma": "Birmingham Market",
    "kma_name": "Birmingham Market",
    "region": "AL",
    "freight_score": 77,
    "population": 9407,
    "zip_zone": "Z3"
  },
  {
    "city": "Sheffield",
    "state": "AL",
    "zip": "35660",
    "lat": 34.757,
    "lon": -87.6977,
    "kma": "Decatur Market",
    "kma_name": "Decatur Market",
    "region": "AL",
    "freight_score": 77,
    "population": 9334,
    "zip_zone": "Z3"
  },
  {
    "city": "Forestdale",
    "state": "AL",
    "zip": "35214",
    "lat": 33.5737,
    "lon": -86.9,
    "kma": "Birmingham Market",
    "kma_name": "Birmingham Market",
    "region": "AL",
    "freight_score": 77,
    "population": 9149,
    "zip_zone": "Z3"
  },
  {
    "city": "Tuscumbia",
    "state": "AL",
    "zip": "35674",
    "lat": 34.7204,
    "lon": -87.7035,
    "kma": "Decatur Market",
    "kma_name": "Decatur Market",
    "region": "AL",
    "freight_score": 77,
    "population": 9084,
    "zip_zone": "Z3"
  },
  {
    "city": "Tuskegee",
    "state": "AL",
    "zip": "36083",
    "lat": 32.4409,
    "lon": -85.7131,
    "kma": "Montgomery Market",
    "kma_name": "Montgomery Market",
    "region": "AL",
    "freight_score": 77,
    "population": 9070,
    "zip_zone": "Z3"
  },
  {
    "city": "Meadowbrook",
    "state": "AL",
    "zip": "35242",
    "lat": 33.3935,
    "lon": -86.7041,
    "kma": "Birmingham Market",
    "kma_name": "Birmingham Market",
    "region": "AL",
    "freight_score": 77,
    "population": 8939,
    "zip_zone": "Z3"
  },
  {
    "city": "Clanton",
    "state": "AL",
    "zip": "35045",
    "lat": 32.8444,
    "lon": -86.6233,
    "kma": "Montgomery Market",
    "kma_name": "Montgomery Market",
    "region": "AL",
    "freight_score": 77,
    "population": 8862,
    "zip_zone": "Z3"
  },
  {
    "city": "Andalusia",
    "state": "AL",
    "zip": "36420",
    "lat": 31.3102,
    "lon": -86.4781,
    "kma": "Montgomery Market",
    "kma_name": "Montgomery Market",
    "region": "AL",
    "freight_score": 77,
    "population": 8841,
    "zip_zone": "Z3"
  },
  {
    "city": "Guntersville",
    "state": "AL",
    "zip": "35976",
    "lat": 34.3671,
    "lon": -86.2637,
    "kma": "Decatur Market",
    "kma_name": "Decatur Market",
    "region": "AL",
    "freight_score": 77,
    "population": 8771,
    "zip_zone": "Z3"
  },
  {
    "city": "Arab",
    "state": "AL",
    "zip": "35016",
    "lat": 34.3309,
    "lon": -86.4991,
    "kma": "Decatur Market",
    "kma_name": "Decatur Market",
    "region": "AL",
    "freight_score": 77,
    "population": 8573,
    "zip_zone": "Z3"
  },
  {
    "city": "Brook Highland",
    "state": "AL",
    "zip": "35242",
    "lat": 33.4359,
    "lon": -86.6849,
    "kma": "Birmingham Market",
    "kma_name": "Birmingham Market",
    "region": "AL",
    "freight_score": 77,
    "population": 8428,
    "zip_zone": "Z3"
  },
  {
    "city": "Atmore",
    "state": "AL",
    "zip": "36503",
    "lat": 31.0927,
    "lon": -87.4762,
    "kma": "Mobile Market",
    "kma_name": "Mobile Market",
    "region": "AL",
    "freight_score": 77,
    "population": 8389,
    "zip_zone": "Z3"
  },
  {
    "city": "Orange Beach",
    "state": "AL",
    "zip": "36561",
    "lat": 30.2942,
    "lon": -87.5849,
    "kma": "Mobile Market",
    "kma_name": "Mobile Market",
    "region": "AL",
    "freight_score": 77,
    "population": 8244,
    "zip_zone": "Z3"
  },
  {
    "city": "Bay Minette",
    "state": "AL",
    "zip": "36507",
    "lat": 30.893,
    "lon": -87.7912,
    "kma": "Mobile Market",
    "kma_name": "Mobile Market",
    "region": "AL",
    "freight_score": 77,
    "population": 8215,
    "zip_zone": "Z3"
  },
  {
    "city": "Pinson",
    "state": "AL",
    "zip": "35215",
    "lat": 33.7055,
    "lon": -86.6678,
    "kma": "Birmingham Market",
    "kma_name": "Birmingham Market",
    "region": "AL",
    "freight_score": 77,
    "population": 7851,
    "zip_zone": "Z3"
  },
  {
    "city": "Montevallo",
    "state": "AL",
    "zip": "35115",
    "lat": 33.1246,
    "lon": -86.8477,
    "kma": "Birmingham Market",
    "kma_name": "Birmingham Market",
    "region": "AL",
    "freight_score": 77,
    "population": 7429,
    "zip_zone": "Z3"
  },
  {
    "city": "Greenville",
    "state": "AL",
    "zip": "36037",
    "lat": 31.8437,
    "lon": -86.638,
    "kma": "Montgomery Market",
    "kma_name": "Montgomery Market",
    "region": "AL",
    "freight_score": 77,
    "population": 7229,
    "zip_zone": "Z3"
  },
  {
    "city": "Wetumpka",
    "state": "AL",
    "zip": "36093",
    "lat": 32.5406,
    "lon": -86.2053,
    "kma": "Montgomery Market",
    "kma_name": "Montgomery Market",
    "region": "AL",
    "freight_score": 77,
    "population": 7182,
    "zip_zone": "Z3"
  },
  {
    "city": "Lincoln",
    "state": "AL",
    "zip": "35160",
    "lat": 33.5935,
    "lon": -86.1365,
    "kma": "Birmingham Market",
    "kma_name": "Birmingham Market",
    "region": "AL",
    "freight_score": 77,
    "population": 7135,
    "zip_zone": "Z3"
  },
  {
    "city": "Demopolis",
    "state": "AL",
    "zip": "36732",
    "lat": 32.498,
    "lon": -87.8298,
    "kma": "Montgomery Market",
    "kma_name": "Montgomery Market",
    "region": "AL",
    "freight_score": 77,
    "population": 7010,
    "zip_zone": "Z3"
  },
  {
    "city": "Robertsdale",
    "state": "AL",
    "zip": "36567",
    "lat": 30.5535,
    "lon": -87.7023,
    "kma": "Mobile Market",
    "kma_name": "Mobile Market",
    "region": "AL",
    "freight_score": 77,
    "population": 6985,
    "zip_zone": "Z3"
  },
  {
    "city": "Oneonta",
    "state": "AL",
    "zip": "35121",
    "lat": 33.9394,
    "lon": -86.4932,
    "kma": "Birmingham Market",
    "kma_name": "Birmingham Market",
    "region": "AL",
    "freight_score": 77,
    "population": 6943,
    "zip_zone": "Z3"
  },
  {
    "city": "Hamilton",
    "state": "AL",
    "zip": "35570",
    "lat": 34.1346,
    "lon": -87.9755,
    "kma": "Decatur Market",
    "kma_name": "Decatur Market",
    "region": "AL",
    "freight_score": 77,
    "population": 6907,
    "zip_zone": "Z3"
  },
  {
    "city": "Lanett",
    "state": "AL",
    "zip": "36863",
    "lat": 32.8577,
    "lon": -85.2078,
    "kma": "Montgomery Market",
    "kma_name": "Montgomery Market",
    "region": "AL",
    "freight_score": 77,
    "population": 6854,
    "zip_zone": "Z3"
  },
  {
    "city": "Satsuma",
    "state": "AL",
    "zip": "36572",
    "lat": 30.8578,
    "lon": -88.0631,
    "kma": "Mobile Market",
    "kma_name": "Mobile Market",
    "region": "AL",
    "freight_score": 77,
    "population": 6784,
    "zip_zone": "Z3"
  },
  {
    "city": "Opp",
    "state": "AL",
    "zip": "36467",
    "lat": 31.2848,
    "lon": -86.257,
    "kma": "Montgomery Market",
    "kma_name": "Montgomery Market",
    "region": "AL",
    "freight_score": 77,
    "population": 6752,
    "zip_zone": "Z3"
  },
  {
    "city": "Harvest",
    "state": "AL",
    "zip": "35749",
    "lat": 34.8558,
    "lon": -86.752,
    "kma": "Decatur Market",
    "kma_name": "Decatur Market",
    "region": "AL",
    "freight_score": 77,
    "population": 6624,
    "zip_zone": "Z3"
  },
  {
    "city": "Chickasaw",
    "state": "AL",
    "zip": "36611",
    "lat": 30.7715,
    "lon": -88.0793,
    "kma": "Mobile Market",
    "kma_name": "Mobile Market",
    "region": "AL",
    "freight_score": 77,
    "population": 6367,
    "zip_zone": "Z3"
  },
  {
    "city": "Moores Mill",
    "state": "AL",
    "zip": "35759",
    "lat": 34.8491,
    "lon": -86.5222,
    "kma": "Decatur Market",
    "kma_name": "Decatur Market",
    "region": "AL",
    "freight_score": 77,
    "population": 6041,
    "zip_zone": "Z3"
  },
  {
    "city": "Tarrant",
    "state": "AL",
    "zip": "35217",
    "lat": 33.5945,
    "lon": -86.7685,
    "kma": "Birmingham Market",
    "kma_name": "Birmingham Market",
    "region": "AL",
    "freight_score": 77,
    "population": 6014,
    "zip_zone": "Z3"
  },
  {
    "city": "Grayson Valley",
    "state": "AL",
    "zip": "35235",
    "lat": 33.6467,
    "lon": -86.6417,
    "kma": "Birmingham Market",
    "kma_name": "Birmingham Market",
    "region": "AL",
    "freight_score": 76,
    "population": 5882,
    "zip_zone": "Z3"
  },
  {
    "city": "Monroeville",
    "state": "AL",
    "zip": "36460",
    "lat": 31.5162,
    "lon": -87.3279,
    "kma": "Mobile Market",
    "kma_name": "Mobile Market",
    "region": "AL",
    "freight_score": 76,
    "population": 5875,
    "zip_zone": "Z3"
  },
  {
    "city": "Attalla",
    "state": "AL",
    "zip": "35954",
    "lat": 34.005,
    "lon": -86.1039,
    "kma": "Birmingham Market",
    "kma_name": "Birmingham Market",
    "region": "AL",
    "freight_score": 76,
    "population": 5829,
    "zip_zone": "Z3"
  },
  {
    "city": "Holtville",
    "state": "AL",
    "zip": "36092",
    "lat": 32.6314,
    "lon": -86.3268,
    "kma": "Montgomery Market",
    "kma_name": "Montgomery Market",
    "region": "AL",
    "freight_score": 76,
    "population": 5700,
    "zip_zone": "Z3"
  },
  {
    "city": "Highland Lakes",
    "state": "AL",
    "zip": "35242",
    "lat": 33.3973,
    "lon": -86.6495,
    "kma": "Birmingham Market",
    "kma_name": "Birmingham Market",
    "region": "AL",
    "freight_score": 76,
    "population": 5673,
    "zip_zone": "Z3"
  },
  {
    "city": "Rainsville",
    "state": "AL",
    "zip": "35986",
    "lat": 34.4938,
    "lon": -85.8436,
    "kma": "Chattanooga Market",
    "kma_name": "Chattanooga Market",
    "region": "AL",
    "freight_score": 76,
    "population": 5613,
    "zip_zone": "Z3"
  },
  {
    "city": "Margaret",
    "state": "AL",
    "zip": "35112",
    "lat": 33.6734,
    "lon": -86.468,
    "kma": "Birmingham Market",
    "kma_name": "Birmingham Market",
    "region": "AL",
    "freight_score": 76,
    "population": 5538,
    "zip_zone": "Z3"
  },
  {
    "city": "Smiths Station",
    "state": "AL",
    "zip": "36877",
    "lat": 32.528,
    "lon": -85.0943,
    "kma": "Montgomery Market",
    "kma_name": "Montgomery Market",
    "region": "AL",
    "freight_score": 76,
    "population": 5443,
    "zip_zone": "Z3"
  },
  {
    "city": "Semmes",
    "state": "AL",
    "zip": "36613",
    "lat": 30.7899,
    "lon": -88.2389,
    "kma": "Mobile Market",
    "kma_name": "Mobile Market",
    "region": "AL",
    "freight_score": 76,
    "population": 5404,
    "zip_zone": "Z3"
  },
  {
    "city": "Glencoe",
    "state": "AL",
    "zip": "35903",
    "lat": 33.9447,
    "lon": -85.9322,
    "kma": "Birmingham Market",
    "kma_name": "Birmingham Market",
    "region": "AL",
    "freight_score": 76,
    "population": 5356,
    "zip_zone": "Z3"
  },
  {
    "city": "Roanoke",
    "state": "AL",
    "zip": "36274",
    "lat": 33.1453,
    "lon": -85.3694,
    "kma": "Atlanta Market",
    "kma_name": "Atlanta Market",
    "region": "AL",
    "freight_score": 76,
    "population": 5332,
    "zip_zone": "Z3"
  },
  {
    "city": "Brewton",
    "state": "AL",
    "zip": "36426",
    "lat": 31.1113,
    "lon": -87.0737,
    "kma": "Mobile Market",
    "kma_name": "Mobile Market",
    "region": "AL",
    "freight_score": 76,
    "population": 5232,
    "zip_zone": "Z3"
  },
  {
    "city": "Redland",
    "state": "AL",
    "zip": "36093",
    "lat": 32.4754,
    "lon": -86.1375,
    "kma": "Montgomery Market",
    "kma_name": "Montgomery Market",
    "region": "AL",
    "freight_score": 76,
    "population": 5231,
    "zip_zone": "Z3"
  },
  {
    "city": "Fort Rucker",
    "state": "AL",
    "zip": "36362",
    "lat": 31.3428,
    "lon": -85.7154,
    "kma": "Montgomery Market",
    "kma_name": "Montgomery Market",
    "region": "AL",
    "freight_score": 76,
    "population": 5221,
    "zip_zone": "Z3"
  },
  {
    "city": "Headland",
    "state": "AL",
    "zip": "36345",
    "lat": 31.3501,
    "lon": -85.3523,
    "kma": "Montgomery Market",
    "kma_name": "Montgomery Market",
    "region": "AL",
    "freight_score": 76,
    "population": 5124,
    "zip_zone": "Z3"
  },
  {
    "city": "Midfield",
    "state": "AL",
    "zip": "35221",
    "lat": 33.4553,
    "lon": -86.9224,
    "kma": "Birmingham Market",
    "kma_name": "Birmingham Market",
    "region": "AL",
    "freight_score": 76,
    "population": 5101,
    "zip_zone": "Z3"
  },
  {
    "city": "Tallassee",
    "state": "AL",
    "zip": "36078",
    "lat": 32.5315,
    "lon": -85.8903,
    "kma": "Montgomery Market",
    "kma_name": "Montgomery Market",
    "region": "AL",
    "freight_score": 76,
    "population": 5056,
    "zip_zone": "Z3"
  },
  {
    "city": "Odenville",
    "state": "AL",
    "zip": "35146",
    "lat": 33.6978,
    "lon": -86.4228,
    "kma": "Birmingham Market",
    "kma_name": "Birmingham Market",
    "region": "AL",
    "freight_score": 76,
    "population": 5015,
    "zip_zone": "Z3"
  },
  {
    "city": "Winfield",
    "state": "AL",
    "zip": "35594",
    "lat": 33.9334,
    "lon": -87.7961,
    "kma": "Birmingham Market",
    "kma_name": "Birmingham Market",
    "region": "AL",
    "freight_score": 76,
    "population": 4982,
    "zip_zone": "Z3"
  },
  {
    "city": "Theodore",
    "state": "AL",
    "zip": "36582",
    "lat": 30.5408,
    "lon": -88.1885,
    "kma": "Mobile Market",
    "kma_name": "Mobile Market",
    "region": "AL",
    "freight_score": 76,
    "population": 4950,
    "zip_zone": "Z3"
  },
  {
    "city": "Springville",
    "state": "AL",
    "zip": "35146",
    "lat": 33.7643,
    "lon": -86.4742,
    "kma": "Birmingham Market",
    "kma_name": "Birmingham Market",
    "region": "AL",
    "freight_score": 76,
    "population": 4949,
    "zip_zone": "Z3"
  },
  {
    "city": "Daleville",
    "state": "AL",
    "zip": "36322",
    "lat": 31.2915,
    "lon": -85.7117,
    "kma": "Montgomery Market",
    "kma_name": "Montgomery Market",
    "region": "AL",
    "freight_score": 76,
    "population": 4891,
    "zip_zone": "Z3"
  },
  {
    "city": "Piedmont",
    "state": "AL",
    "zip": "36272",
    "lat": 33.9269,
    "lon": -85.6149,
    "kma": "Atlanta Market",
    "kma_name": "Atlanta Market",
    "region": "AL",
    "freight_score": 76,
    "population": 4749,
    "zip_zone": "Z3"
  },
  {
    "city": "Childersburg",
    "state": "AL",
    "zip": "35044",
    "lat": 33.2962,
    "lon": -86.3456,
    "kma": "Birmingham Market",
    "kma_name": "Birmingham Market",
    "region": "AL",
    "freight_score": 76,
    "population": 4694,
    "zip_zone": "Z3"
  },
  {
    "city": "Jackson",
    "state": "AL",
    "zip": "36545",
    "lat": 31.5318,
    "lon": -87.8915,
    "kma": "Mobile Market",
    "kma_name": "Mobile Market",
    "region": "AL",
    "freight_score": 76,
    "population": 4654,
    "zip_zone": "Z3"
  },
  {
    "city": "Columbiana",
    "state": "AL",
    "zip": "35051",
    "lat": 33.193,
    "lon": -86.6114,
    "kma": "Birmingham Market",
    "kma_name": "Birmingham Market",
    "region": "AL",
    "freight_score": 76,
    "population": 4640,
    "zip_zone": "Z3"
  },
  {
    "city": "Hokes Bluff",
    "state": "AL",
    "zip": "35903",
    "lat": 33.9902,
    "lon": -85.8639,
    "kma": "Birmingham Market",
    "kma_name": "Birmingham Market",
    "region": "AL",
    "freight_score": 76,
    "population": 4493,
    "zip_zone": "Z3"
  },
  {
    "city": "Argo",
    "state": "AL",
    "zip": "35173",
    "lat": 33.6963,
    "lon": -86.5063,
    "kma": "Birmingham Market",
    "kma_name": "Birmingham Market",
    "region": "AL",
    "freight_score": 76,
    "population": 4456,
    "zip_zone": "Z3"
  },
  {
    "city": "Kimberly",
    "state": "AL",
    "zip": "35071",
    "lat": 33.7758,
    "lon": -86.7964,
    "kma": "Birmingham Market",
    "kma_name": "Birmingham Market",
    "region": "AL",
    "freight_score": 76,
    "population": 4327,
    "zip_zone": "Z3"
  },
  {
    "city": "Adamsville",
    "state": "AL",
    "zip": "35224",
    "lat": 33.6073,
    "lon": -86.974,
    "kma": "Birmingham Market",
    "kma_name": "Birmingham Market",
    "region": "AL",
    "freight_score": 76,
    "population": 4291,
    "zip_zone": "Z3"
  },
  {
    "city": "Haleyville",
    "state": "AL",
    "zip": "35565",
    "lat": 34.2331,
    "lon": -87.6175,
    "kma": "Decatur Market",
    "kma_name": "Decatur Market",
    "region": "AL",
    "freight_score": 76,
    "population": 4283,
    "zip_zone": "Z3"
  },
  {
    "city": "Lake View",
    "state": "AL",
    "zip": "35111",
    "lat": 33.2802,
    "lon": -87.1259,
    "kma": "Birmingham Market",
    "kma_name": "Birmingham Market",
    "region": "AL",
    "freight_score": 76,
    "population": 4238,
    "zip_zone": "Z3"
  },
  {
    "city": "Pine Level",
    "state": "AL",
    "zip": "36066",
    "lat": 32.5785,
    "lon": -86.4523,
    "kma": "Montgomery Market",
    "kma_name": "Montgomery Market",
    "region": "AL",
    "freight_score": 76,
    "population": 4228,
    "zip_zone": "Z3"
  },
  {
    "city": "Geneva",
    "state": "AL",
    "zip": "36340",
    "lat": 31.0437,
    "lon": -85.8763,
    "kma": "Montgomery Market",
    "kma_name": "Montgomery Market",
    "region": "AL",
    "freight_score": 76,
    "population": 4227,
    "zip_zone": "Z3"
  },
  {
    "city": "Fayette",
    "state": "AL",
    "zip": "35555",
    "lat": 33.6943,
    "lon": -87.8307,
    "kma": "Birmingham Market",
    "kma_name": "Birmingham Market",
    "region": "AL",
    "freight_score": 76,
    "population": 4221,
    "zip_zone": "Z3"
  },
  {
    "city": "Valley Grande",
    "state": "AL",
    "zip": "36703",
    "lat": 32.4862,
    "lon": -87.0305,
    "kma": "Montgomery Market",
    "kma_name": "Montgomery Market",
    "region": "AL",
    "freight_score": 76,
    "population": 4106,
    "zip_zone": "Z3"
  },
  {
    "city": "Loxley",
    "state": "AL",
    "zip": "36551",
    "lat": 30.6812,
    "lon": -87.7416,
    "kma": "Mobile Market",
    "kma_name": "Mobile Market",
    "region": "AL",
    "freight_score": 76,
    "population": 4029,
    "zip_zone": "Z3"
  },
  {
    "city": "Ladonia",
    "state": "AL",
    "zip": "36870",
    "lat": 32.4609,
    "lon": -85.0877,
    "kma": "Montgomery Market",
    "kma_name": "Montgomery Market",
    "region": "AL",
    "freight_score": 76,
    "population": 3987,
    "zip_zone": "Z3"
  },
  {
    "city": "Citronelle",
    "state": "AL",
    "zip": "36522",
    "lat": 31.0952,
    "lon": -88.2467,
    "kma": "Mobile Market",
    "kma_name": "Mobile Market",
    "region": "AL",
    "freight_score": 76,
    "population": 3918,
    "zip_zone": "Z3"
  },
  {
    "city": "Hazel Green",
    "state": "AL",
    "zip": "35761",
    "lat": 34.9236,
    "lon": -86.5671,
    "kma": "Decatur Market",
    "kma_name": "Decatur Market",
    "region": "AL",
    "freight_score": 76,
    "population": 3765,
    "zip_zone": "Z3"
  },
  {
    "city": "Grand Bay",
    "state": "AL",
    "zip": "36541",
    "lat": 30.4717,
    "lon": -88.345,
    "kma": "Mobile Market",
    "kma_name": "Mobile Market",
    "region": "AL",
    "freight_score": 76,
    "population": 3765,
    "zip_zone": "Z3"
  },
  {
    "city": "West End-Cobb Town",
    "state": "AL",
    "zip": "36201",
    "lat": 33.6526,
    "lon": -85.8741,
    "kma": "Birmingham Market",
    "kma_name": "Birmingham Market",
    "region": "AL",
    "freight_score": 76,
    "population": 3705,
    "zip_zone": "Z3"
  },
  {
    "city": "Thomasville",
    "state": "AL",
    "zip": "36784",
    "lat": 31.911,
    "lon": -87.7419,
    "kma": "Mobile Market",
    "kma_name": "Mobile Market",
    "region": "AL",
    "freight_score": 76,
    "population": 3668,
    "zip_zone": "Z3"
  },
  {
    "city": "Centre",
    "state": "AL",
    "zip": "35960",
    "lat": 34.1537,
    "lon": -85.6689,
    "kma": "Chattanooga Market",
    "kma_name": "Chattanooga Market",
    "region": "AL",
    "freight_score": 76,
    "population": 3664,
    "zip_zone": "Z3"
  },
  {
    "city": "Priceville",
    "state": "AL",
    "zip": "35603",
    "lat": 34.5246,
    "lon": -86.8856,
    "kma": "Decatur Market",
    "kma_name": "Decatur Market",
    "region": "AL",
    "freight_score": 76,
    "population": 3653,
    "zip_zone": "Z3"
  },
  {
    "city": "Moundville",
    "state": "AL",
    "zip": "35474",
    "lat": 32.9968,
    "lon": -87.6272,
    "kma": "Birmingham Market",
    "kma_name": "Birmingham Market",
    "region": "AL",
    "freight_score": 76,
    "population": 3649,
    "zip_zone": "Z3"
  },
  {
    "city": "Holt",
    "state": "AL",
    "zip": "35404",
    "lat": 33.2302,
    "lon": -87.4827,
    "kma": "Birmingham Market",
    "kma_name": "Birmingham Market",
    "region": "AL",
    "freight_score": 76,
    "population": 3540,
    "zip_zone": "Z3"
  },
  {
    "city": "Triana",
    "state": "AL",
    "zip": "35756",
    "lat": 34.5888,
    "lon": -86.7489,
    "kma": "Decatur Market",
    "kma_name": "Decatur Market",
    "region": "AL",
    "freight_score": 76,
    "population": 3510,
    "zip_zone": "Z3"
  },
  {
    "city": "Heflin",
    "state": "AL",
    "zip": "36264",
    "lat": 33.647,
    "lon": -85.5698,
    "kma": "Atlanta Market",
    "kma_name": "Atlanta Market",
    "region": "AL",
    "freight_score": 76,
    "population": 3462,
    "zip_zone": "Z3"
  },
  {
    "city": "Elba",
    "state": "AL",
    "zip": "36323",
    "lat": 31.4172,
    "lon": -86.0759,
    "kma": "Montgomery Market",
    "kma_name": "Montgomery Market",
    "region": "AL",
    "freight_score": 76,
    "population": 3459,
    "zip_zone": "Z3"
  },
  {
    "city": "Mount Olive",
    "state": "AL",
    "zip": "35117",
    "lat": 33.6778,
    "lon": -86.8727,
    "kma": "Birmingham Market",
    "kma_name": "Birmingham Market",
    "region": "AL",
    "freight_score": 76,
    "population": 3449,
    "zip_zone": "Z3"
  },
  {
    "city": "Evergreen",
    "state": "AL",
    "zip": "36401",
    "lat": 31.4342,
    "lon": -86.9723,
    "kma": "Montgomery Market",
    "kma_name": "Montgomery Market",
    "region": "AL",
    "freight_score": 76,
    "population": 3442,
    "zip_zone": "Z3"
  },
  {
    "city": "Alexandria",
    "state": "AL",
    "zip": "36265",
    "lat": 33.7675,
    "lon": -85.8792,
    "kma": "Birmingham Market",
    "kma_name": "Birmingham Market",
    "region": "AL",
    "freight_score": 76,
    "population": 3420,
    "zip_zone": "Z3"
  },
  {
    "city": "Moulton",
    "state": "AL",
    "zip": "35650",
    "lat": 34.4844,
    "lon": -87.2833,
    "kma": "Decatur Market",
    "kma_name": "Decatur Market",
    "region": "AL",
    "freight_score": 76,
    "population": 3397,
    "zip_zone": "Z3"
  },
  {
    "city": "Emerald Mountain",
    "state": "AL",
    "zip": "36093",
    "lat": 32.4396,
    "lon": -86.0857,
    "kma": "Montgomery Market",
    "kma_name": "Montgomery Market",
    "region": "AL",
    "freight_score": 76,
    "population": 3387,
    "zip_zone": "Z3"
  },
  {
    "city": "East Brewton",
    "state": "AL",
    "zip": "36426",
    "lat": 31.0906,
    "lon": -87.0556,
    "kma": "Mobile Market",
    "kma_name": "Mobile Market",
    "region": "AL",
    "freight_score": 76,
    "population": 3325,
    "zip_zone": "Z3"
  },
  {
    "city": "Weaver",
    "state": "AL",
    "zip": "36277",
    "lat": 33.7601,
    "lon": -85.8117,
    "kma": "Birmingham Market",
    "kma_name": "Birmingham Market",
    "region": "AL",
    "freight_score": 76,
    "population": 3323,
    "zip_zone": "Z3"
  },
  {
    "city": "Union Springs",
    "state": "AL",
    "zip": "36089",
    "lat": 32.1395,
    "lon": -85.7141,
    "kma": "Montgomery Market",
    "kma_name": "Montgomery Market",
    "region": "AL",
    "freight_score": 76,
    "population": 3287,
    "zip_zone": "Z3"
  },
  {
    "city": "Hanceville",
    "state": "AL",
    "zip": "35077",
    "lat": 34.0632,
    "lon": -86.7645,
    "kma": "Birmingham Market",
    "kma_name": "Birmingham Market",
    "region": "AL",
    "freight_score": 76,
    "population": 3255,
    "zip_zone": "Z3"
  },
  {
    "city": "Livingston",
    "state": "AL",
    "zip": "35470",
    "lat": 32.5982,
    "lon": -88.1891,
    "kma": "Birmingham Market",
    "kma_name": "Birmingham Market",
    "region": "AL",
    "freight_score": 76,
    "population": 3243,
    "zip_zone": "Z3"
  },
  {
    "city": "Red Bay",
    "state": "AL",
    "zip": "35582",
    "lat": 34.4357,
    "lon": -88.1361,
    "kma": "Decatur Market",
    "kma_name": "Decatur Market",
    "region": "AL",
    "freight_score": 76,
    "population": 3213,
    "zip_zone": "Z3"
  },
  {
    "city": "Warrior",
    "state": "AL",
    "zip": "35180",
    "lat": 33.8149,
    "lon": -86.8157,
    "kma": "Birmingham Market",
    "kma_name": "Birmingham Market",
    "region": "AL",
    "freight_score": 76,
    "population": 3204,
    "zip_zone": "Z3"
  },
  {
    "city": "Choccolocco",
    "state": "AL",
    "zip": "36207",
    "lat": 33.6683,
    "lon": -85.7128,
    "kma": "Birmingham Market",
    "kma_name": "Birmingham Market",
    "region": "AL",
    "freight_score": 76,
    "population": 3120,
    "zip_zone": "Z3"
  },
  {
    "city": "Bon Secour",
    "state": "AL",
    "zip": "36511",
    "lat": 30.3222,
    "lon": -87.7271,
    "kma": "Mobile Market",
    "kma_name": "Mobile Market",
    "region": "AL",
    "freight_score": 76,
    "population": 3094,
    "zip_zone": "Z3"
  },
  {
    "city": "Brighton",
    "state": "AL",
    "zip": "35020",
    "lat": 33.4396,
    "lon": -86.9454,
    "kma": "Birmingham Market",
    "kma_name": "Birmingham Market",
    "region": "AL",
    "freight_score": 76,
    "population": 3091,
    "zip_zone": "Z3"
  },
  {
    "city": "Underwood-Petersville",
    "state": "AL",
    "zip": "35633",
    "lat": 34.877,
    "lon": -87.6975,
    "kma": "Decatur Market",
    "kma_name": "Decatur Market",
    "region": "AL",
    "freight_score": 76,
    "population": 3049,
    "zip_zone": "Z3"
  },
  {
    "city": "Dadeville",
    "state": "AL",
    "zip": "36853",
    "lat": 32.8326,
    "lon": -85.7675,
    "kma": "Montgomery Market",
    "kma_name": "Montgomery Market",
    "region": "AL",
    "freight_score": 76,
    "population": 3034,
    "zip_zone": "Z3"
  },
  {
    "city": "Marion",
    "state": "AL",
    "zip": "36756",
    "lat": 32.6318,
    "lon": -87.3172,
    "kma": "Montgomery Market",
    "kma_name": "Montgomery Market",
    "region": "AL",
    "freight_score": 76,
    "population": 2994,
    "zip_zone": "Z3"
  },
  {
    "city": "Huguley",
    "state": "AL",
    "zip": "36863",
    "lat": 32.8431,
    "lon": -85.2396,
    "kma": "Montgomery Market",
    "kma_name": "Montgomery Market",
    "region": "AL",
    "freight_score": 76,
    "population": 2944,
    "zip_zone": "Z3"
  },
  {
    "city": "Eagle Point",
    "state": "AL",
    "zip": "35242",
    "lat": 33.3937,
    "lon": -86.6779,
    "kma": "Birmingham Market",
    "kma_name": "Birmingham Market",
    "region": "AL",
    "freight_score": 76,
    "population": 2929,
    "zip_zone": "Z3"
  },
  {
    "city": "Taylor",
    "state": "AL",
    "zip": "36301",
    "lat": 31.1658,
    "lon": -85.4697,
    "kma": "Montgomery Market",
    "kma_name": "Montgomery Market",
    "region": "AL",
    "freight_score": 76,
    "population": 2916,
    "zip_zone": "Z3"
  },
  {
    "city": "New Hope",
    "state": "AL",
    "zip": "35760",
    "lat": 34.537,
    "lon": -86.4128,
    "kma": "Decatur Market",
    "kma_name": "Decatur Market",
    "region": "AL",
    "freight_score": 76,
    "population": 2895,
    "zip_zone": "Z3"
  },
  {
    "city": "Eutaw",
    "state": "AL",
    "zip": "35462",
    "lat": 32.8436,
    "lon": -87.8986,
    "kma": "Birmingham Market",
    "kma_name": "Birmingham Market",
    "region": "AL",
    "freight_score": 76,
    "population": 2864,
    "zip_zone": "Z3"
  },
  {
    "city": "Brent",
    "state": "AL",
    "zip": "35042",
    "lat": 32.9421,
    "lon": -87.1753,
    "kma": "Birmingham Market",
    "kma_name": "Birmingham Market",
    "region": "AL",
    "freight_score": 76,
    "population": 2862,
    "zip_zone": "Z3"
  },
  {
    "city": "Cottondale",
    "state": "AL",
    "zip": "35404",
    "lat": 33.1923,
    "lon": -87.4543,
    "kma": "Birmingham Market",
    "kma_name": "Birmingham Market",
    "region": "AL",
    "freight_score": 76,
    "population": 2850,
    "zip_zone": "Z3"
  },
  {
    "city": "York",
    "state": "AL",
    "zip": "36925",
    "lat": 32.4998,
    "lon": -88.2938,
    "kma": "Birmingham Market",
    "kma_name": "Birmingham Market",
    "region": "AL",
    "freight_score": 76,
    "population": 2849,
    "zip_zone": "Z3"
  },
  {
    "city": "Centreville",
    "state": "AL",
    "zip": "35042",
    "lat": 32.9598,
    "lon": -87.1334,
    "kma": "Birmingham Market",
    "kma_name": "Birmingham Market",
    "region": "AL",
    "freight_score": 76,
    "population": 2757,
    "zip_zone": "Z3"
  },
  {
    "city": "Ashville",
    "state": "AL",
    "zip": "35953",
    "lat": 33.8331,
    "lon": -86.2698,
    "kma": "Birmingham Market",
    "kma_name": "Birmingham Market",
    "region": "AL",
    "freight_score": 76,
    "population": 2748,
    "zip_zone": "Z3"
  },
  {
    "city": "Jemison",
    "state": "AL",
    "zip": "35085",
    "lat": 32.9696,
    "lon": -86.7339,
    "kma": "Birmingham Market",
    "kma_name": "Birmingham Market",
    "region": "AL",
    "freight_score": 76,
    "population": 2728,
    "zip_zone": "Z3"
  },
  {
    "city": "Luverne",
    "state": "AL",
    "zip": "36049",
    "lat": 31.7186,
    "lon": -86.2687,
    "kma": "Montgomery Market",
    "kma_name": "Montgomery Market",
    "region": "AL",
    "freight_score": 76,
    "population": 2713,
    "zip_zone": "Z3"
  },
  {
    "city": "Owens Cross Roads",
    "state": "AL",
    "zip": "35763",
    "lat": 34.5845,
    "lon": -86.4574,
    "kma": "Decatur Market",
    "kma_name": "Decatur Market",
    "region": "AL",
    "freight_score": 76,
    "population": 2678,
    "zip_zone": "Z3"
  },
  {
    "city": "Hartford",
    "state": "AL",
    "zip": "36344",
    "lat": 31.1055,
    "lon": -85.6916,
    "kma": "Montgomery Market",
    "kma_name": "Montgomery Market",
    "region": "AL",
    "freight_score": 76,
    "population": 2677,
    "zip_zone": "Z3"
  },
  {
    "city": "La Fayette",
    "state": "AL",
    "zip": "36862",
    "lat": 32.8997,
    "lon": -85.4007,
    "kma": "Montgomery Market",
    "kma_name": "Montgomery Market",
    "region": "AL",
    "freight_score": 76,
    "population": 2665,
    "zip_zone": "Z3"
  },
  {
    "city": "Indian Springs Village",
    "state": "AL",
    "zip": "35242",
    "lat": 33.359,
    "lon": -86.7492,
    "kma": "Birmingham Market",
    "kma_name": "Birmingham Market",
    "region": "AL",
    "freight_score": 76,
    "population": 2637,
    "zip_zone": "Z3"
  },
  {
    "city": "Lineville",
    "state": "AL",
    "zip": "36266",
    "lat": 33.3129,
    "lon": -85.7508,
    "kma": "Birmingham Market",
    "kma_name": "Birmingham Market",
    "region": "AL",
    "freight_score": 76,
    "population": 2636,
    "zip_zone": "Z3"
  },
  {
    "city": "Deatsville",
    "state": "AL",
    "zip": "36022",
    "lat": 32.5864,
    "lon": -86.3917,
    "kma": "Montgomery Market",
    "kma_name": "Montgomery Market",
    "region": "AL",
    "freight_score": 76,
    "population": 2618,
    "zip_zone": "Z3"
  },
  {
    "city": "Dora",
    "state": "AL",
    "zip": "35130",
    "lat": 33.7288,
    "lon": -87.0842,
    "kma": "Birmingham Market",
    "kma_name": "Birmingham Market",
    "region": "AL",
    "freight_score": 76,
    "population": 2617,
    "zip_zone": "Z3"
  },
  {
    "city": "Stapleton",
    "state": "AL",
    "zip": "36527",
    "lat": 30.7395,
    "lon": -87.7943,
    "kma": "Mobile Market",
    "kma_name": "Mobile Market",
    "region": "AL",
    "freight_score": 76,
    "population": 2606,
    "zip_zone": "Z3"
  },
  {
    "city": "Thorsby",
    "state": "AL",
    "zip": "35171",
    "lat": 32.9169,
    "lon": -86.7203,
    "kma": "Birmingham Market",
    "kma_name": "Birmingham Market",
    "region": "AL",
    "freight_score": 76,
    "population": 2601,
    "zip_zone": "Z3"
  },
  {
    "city": "Graysville",
    "state": "AL",
    "zip": "35117",
    "lat": 33.6567,
    "lon": -86.9665,
    "kma": "Birmingham Market",
    "kma_name": "Birmingham Market",
    "region": "AL",
    "freight_score": 76,
    "population": 2600,
    "zip_zone": "Z3"
  },
  {
    "city": "Henagar",
    "state": "AL",
    "zip": "35978",
    "lat": 34.6306,
    "lon": -85.7413,
    "kma": "Chattanooga Market",
    "kma_name": "Chattanooga Market",
    "region": "AL",
    "freight_score": 76,
    "population": 2554,
    "zip_zone": "Z3"
  },
  {
    "city": "Butler",
    "state": "AL",
    "zip": "36904",
    "lat": 32.0965,
    "lon": -88.2108,
    "kma": "Mobile Market",
    "kma_name": "Mobile Market",
    "region": "AL",
    "freight_score": 76,
    "population": 2552,
    "zip_zone": "Z3"
  },
  {
    "city": "Morris",
    "state": "AL",
    "zip": "35071",
    "lat": 33.7464,
    "lon": -86.8042,
    "kma": "Birmingham Market",
    "kma_name": "Birmingham Market",
    "region": "AL",
    "freight_score": 76,
    "population": 2546,
    "zip_zone": "Z3"
  },
  {
    "city": "Good Hope",
    "state": "AL",
    "zip": "35057",
    "lat": 34.1102,
    "lon": -86.8662,
    "kma": "Decatur Market",
    "kma_name": "Decatur Market",
    "region": "AL",
    "freight_score": 76,
    "population": 2542,
    "zip_zone": "Z3"
  },
  {
    "city": "Trinity",
    "state": "AL",
    "zip": "35673",
    "lat": 34.6011,
    "lon": -87.0816,
    "kma": "Decatur Market",
    "kma_name": "Decatur Market",
    "region": "AL",
    "freight_score": 76,
    "population": 2533,
    "zip_zone": "Z3"
  },
  {
    "city": "Sumiton",
    "state": "AL",
    "zip": "35062",
    "lat": 33.7502,
    "lon": -87.0483,
    "kma": "Birmingham Market",
    "kma_name": "Birmingham Market",
    "region": "AL",
    "freight_score": 76,
    "population": 2506,
    "zip_zone": "Z3"
  },
  {
    "city": "Creola",
    "state": "AL",
    "zip": "36525",
    "lat": 30.8906,
    "lon": -88.0132,
    "kma": "Mobile Market",
    "kma_name": "Mobile Market",
    "region": "AL",
    "freight_score": 76,
    "population": 2489,
    "zip_zone": "Z3"
  },
  {
    "city": "Brookwood",
    "state": "AL",
    "zip": "35444",
    "lat": 33.2398,
    "lon": -87.3277,
    "kma": "Birmingham Market",
    "kma_name": "Birmingham Market",
    "region": "AL",
    "freight_score": 76,
    "population": 2489,
    "zip_zone": "Z3"
  },
  {
    "city": "Abbeville",
    "state": "AL",
    "zip": "36310",
    "lat": 31.5664,
    "lon": -85.2528,
    "kma": "Montgomery Market",
    "kma_name": "Montgomery Market",
    "region": "AL",
    "freight_score": 76,
    "population": 2470,
    "zip_zone": "Z3"
  },
  {
    "city": "Guin",
    "state": "AL",
    "zip": "35563",
    "lat": 33.9832,
    "lon": -87.9023,
    "kma": "Decatur Market",
    "kma_name": "Decatur Market",
    "region": "AL",
    "freight_score": 76,
    "population": 2469,
    "zip_zone": "Z3"
  },
  {
    "city": "Ashford",
    "state": "AL",
    "zip": "36312",
    "lat": 31.1858,
    "lon": -85.2359,
    "kma": "Tifton Market",
    "kma_name": "Tifton Market",
    "region": "AL",
    "freight_score": 76,
    "population": 2438,
    "zip_zone": "Z3"
  },
  {
    "city": "Lipscomb",
    "state": "AL",
    "zip": "35020",
    "lat": 33.426,
    "lon": -86.9261,
    "kma": "Birmingham Market",
    "kma_name": "Birmingham Market",
    "region": "AL",
    "freight_score": 76,
    "population": 2407,
    "zip_zone": "Z3"
  },
  {
    "city": "Greensboro",
    "state": "AL",
    "zip": "36744",
    "lat": 32.7014,
    "lon": -87.595,
    "kma": "Birmingham Market",
    "kma_name": "Birmingham Market",
    "region": "AL",
    "freight_score": 76,
    "population": 2390,
    "zip_zone": "Z3"
  },
  {
    "city": "Bridgeport",
    "state": "AL",
    "zip": "35740",
    "lat": 34.9496,
    "lon": -85.7243,
    "kma": "Chattanooga Market",
    "kma_name": "Chattanooga Market",
    "region": "AL",
    "freight_score": 76,
    "population": 2377,
    "zip_zone": "Z3"
  },
  {
    "city": "Remlap",
    "state": "AL",
    "zip": "35133",
    "lat": 33.8049,
    "lon": -86.597,
    "kma": "Birmingham Market",
    "kma_name": "Birmingham Market",
    "region": "AL",
    "freight_score": 76,
    "population": 2369,
    "zip_zone": "Z3"
  },
  {
    "city": "Aliceville",
    "state": "AL",
    "zip": "35442",
    "lat": 33.1237,
    "lon": -88.1593,
    "kma": "Birmingham Market",
    "kma_name": "Birmingham Market",
    "region": "AL",
    "freight_score": 76,
    "population": 2338,
    "zip_zone": "Z3"
  },
  {
    "city": "Westover",
    "state": "AL",
    "zip": "35185",
    "lat": 33.3684,
    "lon": -86.5346,
    "kma": "Birmingham Market",
    "kma_name": "Birmingham Market",
    "region": "AL",
    "freight_score": 76,
    "population": 2298,
    "zip_zone": "Z3"
  },
  {
    "city": "Crossville",
    "state": "AL",
    "zip": "35962",
    "lat": 34.2852,
    "lon": -85.9996,
    "kma": "Decatur Market",
    "kma_name": "Decatur Market",
    "region": "AL",
    "freight_score": 76,
    "population": 2296,
    "zip_zone": "Z3"
  },
  {
    "city": "Clayton",
    "state": "AL",
    "zip": "36016",
    "lat": 31.8823,
    "lon": -85.4605,
    "kma": "Montgomery Market",
    "kma_name": "Montgomery Market",
    "region": "AL",
    "freight_score": 76,
    "population": 2271,
    "zip_zone": "Z3"
  },
  {
    "city": "Coaling",
    "state": "AL",
    "zip": "35453",
    "lat": 33.1641,
    "lon": -87.3534,
    "kma": "Birmingham Market",
    "kma_name": "Birmingham Market",
    "region": "AL",
    "freight_score": 76,
    "population": 2253,
    "zip_zone": "Z3"
  },
  {
    "city": "Riverside",
    "state": "AL",
    "zip": "35135",
    "lat": 33.6171,
    "lon": -86.2042,
    "kma": "Birmingham Market",
    "kma_name": "Birmingham Market",
    "region": "AL",
    "freight_score": 76,
    "population": 2247,
    "zip_zone": "Z3"
  },
  {
    "city": "Elberta",
    "state": "AL",
    "zip": "36530",
    "lat": 30.3855,
    "lon": -87.5888,
    "kma": "Mobile Market",
    "kma_name": "Mobile Market",
    "region": "AL",
    "freight_score": 76,
    "population": 2209,
    "zip_zone": "Z3"
  },
  {
    "city": "Cowarts",
    "state": "AL",
    "zip": "36303",
    "lat": 31.2034,
    "lon": -85.3057,
    "kma": "Montgomery Market",
    "kma_name": "Montgomery Market",
    "region": "AL",
    "freight_score": 76,
    "population": 2189,
    "zip_zone": "Z3"
  },
  {
    "city": "Kinsey",
    "state": "AL",
    "zip": "36303",
    "lat": 31.2926,
    "lon": -85.3353,
    "kma": "Montgomery Market",
    "kma_name": "Montgomery Market",
    "region": "AL",
    "freight_score": 76,
    "population": 2175,
    "zip_zone": "Z3"
  },
  {
    "city": "Brundidge",
    "state": "AL",
    "zip": "36010",
    "lat": 31.7182,
    "lon": -85.8178,
    "kma": "Montgomery Market",
    "kma_name": "Montgomery Market",
    "region": "AL",
    "freight_score": 76,
    "population": 2170,
    "zip_zone": "Z3"
  },
  {
    "city": "Selmont-West Selmont",
    "state": "AL",
    "zip": "36703",
    "lat": 32.3784,
    "lon": -87.0074,
    "kma": "Montgomery Market",
    "kma_name": "Montgomery Market",
    "region": "AL",
    "freight_score": 76,
    "population": 2121,
    "zip_zone": "Z3"
  },
  {
    "city": "Whitesboro",
    "state": "AL",
    "zip": "35956",
    "lat": 34.1682,
    "lon": -86.0572,
    "kma": "Decatur Market",
    "kma_name": "Decatur Market",
    "region": "AL",
    "freight_score": 76,
    "population": 2098,
    "zip_zone": "Z3"
  },
  {
    "city": "Wilsonville",
    "state": "AL",
    "zip": "35186",
    "lat": 33.2346,
    "lon": -86.4884,
    "kma": "Birmingham Market",
    "kma_name": "Birmingham Market",
    "region": "AL",
    "freight_score": 76,
    "population": 2097,
    "zip_zone": "Z3"
  },
  {
    "city": "Camden",
    "state": "AL",
    "zip": "36726",
    "lat": 32.0007,
    "lon": -87.2967,
    "kma": "Montgomery Market",
    "kma_name": "Montgomery Market",
    "region": "AL",
    "freight_score": 76,
    "population": 2056,
    "zip_zone": "Z3"
  },
  {
    "city": "Sylvania",
    "state": "AL",
    "zip": "35988",
    "lat": 34.5616,
    "lon": -85.8056,
    "kma": "Chattanooga Market",
    "kma_name": "Chattanooga Market",
    "region": "AL",
    "freight_score": 76,
    "population": 2005,
    "zip_zone": "Z3"
  },
  {
    "city": "Slocomb",
    "state": "AL",
    "zip": "36375",
    "lat": 31.1103,
    "lon": -85.5954,
    "kma": "Montgomery Market",
    "kma_name": "Montgomery Market",
    "region": "AL",
    "freight_score": 75,
    "population": 1995,
    "zip_zone": "Z3"
  },
  {
    "city": "Bayou La Batre",
    "state": "AL",
    "zip": "36544",
    "lat": 30.4126,
    "lon": -88.2611,
    "kma": "Mobile Market",
    "kma_name": "Mobile Market",
    "region": "AL",
    "freight_score": 75,
    "population": 1977,
    "zip_zone": "Z3"
  },
  {
    "city": "Stevenson",
    "state": "AL",
    "zip": "35772",
    "lat": 34.8487,
    "lon": -85.8437,
    "kma": "Chattanooga Market",
    "kma_name": "Chattanooga Market",
    "region": "AL",
    "freight_score": 75,
    "population": 1947,
    "zip_zone": "Z3"
  },
  {
    "city": "Dauphin Island",
    "state": "AL",
    "zip": "36528",
    "lat": 30.2525,
    "lon": -88.1438,
    "kma": "Mobile Market",
    "kma_name": "Mobile Market",
    "region": "AL",
    "freight_score": 75,
    "population": 1944,
    "zip_zone": "Z3"
  },
  {
    "city": "Grove Hill",
    "state": "AL",
    "zip": "36451",
    "lat": 31.7006,
    "lon": -87.7748,
    "kma": "Mobile Market",
    "kma_name": "Mobile Market",
    "region": "AL",
    "freight_score": 75,
    "population": 1940,
    "zip_zone": "Z3"
  },
  {
    "city": "Lillian",
    "state": "AL",
    "zip": "36549",
    "lat": 30.4122,
    "lon": -87.432,
    "kma": "Mobile Market",
    "kma_name": "Mobile Market",
    "region": "AL",
    "freight_score": 75,
    "population": 1889,
    "zip_zone": "Z3"
  },
  {
    "city": "Linden",
    "state": "AL",
    "zip": "36748",
    "lat": 32.3001,
    "lon": -87.7926,
    "kma": "Montgomery Market",
    "kma_name": "Montgomery Market",
    "region": "AL",
    "freight_score": 75,
    "population": 1879,
    "zip_zone": "Z3"
  },
  {
    "city": "Concord",
    "state": "AL",
    "zip": "35023",
    "lat": 33.4674,
    "lon": -87.0392,
    "kma": "Birmingham Market",
    "kma_name": "Birmingham Market",
    "region": "AL",
    "freight_score": 75,
    "population": 1878,
    "zip_zone": "Z3"
  },
  {
    "city": "Vincent",
    "state": "AL",
    "zip": "35178",
    "lat": 33.3849,
    "lon": -86.4087,
    "kma": "Birmingham Market",
    "kma_name": "Birmingham Market",
    "region": "AL",
    "freight_score": 75,
    "population": 1870,
    "zip_zone": "Z3"
  },
  {
    "city": "Point Clear",
    "state": "AL",
    "zip": "36564",
    "lat": 30.4898,
    "lon": -87.9112,
    "kma": "Mobile Market",
    "kma_name": "Mobile Market",
    "region": "AL",
    "freight_score": 75,
    "population": 1858,
    "zip_zone": "Z3"
  },
  {
    "city": "Florala",
    "state": "AL",
    "zip": "36442",
    "lat": 31.0176,
    "lon": -86.3138,
    "kma": "Montgomery Market",
    "kma_name": "Montgomery Market",
    "region": "AL",
    "freight_score": 75,
    "population": 1841,
    "zip_zone": "Z3"
  },
  {
    "city": "Malvern",
    "state": "AL",
    "zip": "36375",
    "lat": 31.1428,
    "lon": -85.521,
    "kma": "Montgomery Market",
    "kma_name": "Montgomery Market",
    "region": "AL",
    "freight_score": 75,
    "population": 1836,
    "zip_zone": "Z3"
  },
  {
    "city": "Collinsville",
    "state": "AL",
    "zip": "35961",
    "lat": 34.2664,
    "lon": -85.8679,
    "kma": "Chattanooga Market",
    "kma_name": "Chattanooga Market",
    "region": "AL",
    "freight_score": 75,
    "population": 1835,
    "zip_zone": "Z3"
  },
  {
    "city": "Vance",
    "state": "AL",
    "zip": "35188",
    "lat": 33.1746,
    "lon": -87.2314,
    "kma": "Birmingham Market",
    "kma_name": "Birmingham Market",
    "region": "AL",
    "freight_score": 75,
    "population": 1822,
    "zip_zone": "Z3"
  },
  {
    "city": "Vernon",
    "state": "AL",
    "zip": "35592",
    "lat": 33.7588,
    "lon": -88.1143,
    "kma": "Birmingham Market",
    "kma_name": "Birmingham Market",
    "region": "AL",
    "freight_score": 75,
    "population": 1819,
    "zip_zone": "Z3"
  },
  {
    "city": "Sardis City",
    "state": "AL",
    "zip": "35956",
    "lat": 34.1749,
    "lon": -86.1125,
    "kma": "Decatur Market",
    "kma_name": "Decatur Market",
    "region": "AL",
    "freight_score": 75,
    "population": 1805,
    "zip_zone": "Z3"
  },
  {
    "city": "Midland City",
    "state": "AL",
    "zip": "36350",
    "lat": 31.3157,
    "lon": -85.4937,
    "kma": "Montgomery Market",
    "kma_name": "Montgomery Market",
    "region": "AL",
    "freight_score": 75,
    "population": 1803,
    "zip_zone": "Z3"
  },
  {
    "city": "Carlisle-Rockledge",
    "state": "AL",
    "zip": "35956",
    "lat": 34.114,
    "lon": -86.1191,
    "kma": "Birmingham Market",
    "kma_name": "Birmingham Market",
    "region": "AL",
    "freight_score": 75,
    "population": 1791,
    "zip_zone": "Z3"
  },
  {
    "city": "Ashland",
    "state": "AL",
    "zip": "36251",
    "lat": 33.2703,
    "lon": -85.8337,
    "kma": "Birmingham Market",
    "kma_name": "Birmingham Market",
    "region": "AL",
    "freight_score": 75,
    "population": 1779,
    "zip_zone": "Z3"
  },
  {
    "city": "Blountsville",
    "state": "AL",
    "zip": "35031",
    "lat": 34.0814,
    "lon": -86.5867,
    "kma": "Birmingham Market",
    "kma_name": "Birmingham Market",
    "region": "AL",
    "freight_score": 75,
    "population": 1757,
    "zip_zone": "Z3"
  },
  {
    "city": "Cordova",
    "state": "AL",
    "zip": "35550",
    "lat": 33.7613,
    "lon": -87.1926,
    "kma": "Birmingham Market",
    "kma_name": "Birmingham Market",
    "region": "AL",
    "freight_score": 75,
    "population": 1723,
    "zip_zone": "Z3"
  },
  {
    "city": "Munford",
    "state": "AL",
    "zip": "36268",
    "lat": 33.5258,
    "lon": -85.9555,
    "kma": "Birmingham Market",
    "kma_name": "Birmingham Market",
    "region": "AL",
    "freight_score": 75,
    "population": 1694,
    "zip_zone": "Z3"
  },
  {
    "city": "Flomaton",
    "state": "AL",
    "zip": "36441",
    "lat": 31.0127,
    "lon": -87.2541,
    "kma": "Mobile Market",
    "kma_name": "Mobile Market",
    "region": "AL",
    "freight_score": 75,
    "population": 1675,
    "zip_zone": "Z3"
  },
  {
    "city": "Frisco City",
    "state": "AL",
    "zip": "36445",
    "lat": 31.4353,
    "lon": -87.4037,
    "kma": "Mobile Market",
    "kma_name": "Mobile Market",
    "region": "AL",
    "freight_score": 75,
    "population": 1657,
    "zip_zone": "Z3"
  },
  {
    "city": "Uniontown",
    "state": "AL",
    "zip": "36786",
    "lat": 32.449,
    "lon": -87.4958,
    "kma": "Montgomery Market",
    "kma_name": "Montgomery Market",
    "region": "AL",
    "freight_score": 75,
    "population": 1655,
    "zip_zone": "Z3"
  },
  {
    "city": "Harpersville",
    "state": "AL",
    "zip": "35078",
    "lat": 33.3184,
    "lon": -86.4286,
    "kma": "Birmingham Market",
    "kma_name": "Birmingham Market",
    "region": "AL",
    "freight_score": 75,
    "population": 1649,
    "zip_zone": "Z3"
  },
  {
    "city": "Rehobeth",
    "state": "AL",
    "zip": "36301",
    "lat": 31.1242,
    "lon": -85.4383,
    "kma": "Montgomery Market",
    "kma_name": "Montgomery Market",
    "region": "AL",
    "freight_score": 75,
    "population": 1647,
    "zip_zone": "Z3"
  },
  {
    "city": "Hackleburg",
    "state": "AL",
    "zip": "35564",
    "lat": 34.2693,
    "lon": -87.8303,
    "kma": "Decatur Market",
    "kma_name": "Decatur Market",
    "region": "AL",
    "freight_score": 75,
    "population": 1642,
    "zip_zone": "Z3"
  },
  {
    "city": "Reform",
    "state": "AL",
    "zip": "35481",
    "lat": 33.3788,
    "lon": -88.0173,
    "kma": "Birmingham Market",
    "kma_name": "Birmingham Market",
    "region": "AL",
    "freight_score": 75,
    "population": 1636,
    "zip_zone": "Z3"
  },
  {
    "city": "Cedar Bluff",
    "state": "AL",
    "zip": "35959",
    "lat": 34.2217,
    "lon": -85.5882,
    "kma": "Chattanooga Market",
    "kma_name": "Chattanooga Market",
    "region": "AL",
    "freight_score": 75,
    "population": 1633,
    "zip_zone": "Z3"
  },
  {
    "city": "Marbury",
    "state": "AL",
    "zip": "36022",
    "lat": 32.6793,
    "lon": -86.4608,
    "kma": "Montgomery Market",
    "kma_name": "Montgomery Market",
    "region": "AL",
    "freight_score": 75,
    "population": 1609,
    "zip_zone": "Z3"
  },
  {
    "city": "Level Plains",
    "state": "AL",
    "zip": "36330",
    "lat": 31.3071,
    "lon": -85.7687,
    "kma": "Montgomery Market",
    "kma_name": "Montgomery Market",
    "region": "AL",
    "freight_score": 75,
    "population": 1608,
    "zip_zone": "Z3"
  },
  {
    "city": "Ragland",
    "state": "AL",
    "zip": "35131",
    "lat": 33.7469,
    "lon": -86.1384,
    "kma": "Birmingham Market",
    "kma_name": "Birmingham Market",
    "region": "AL",
    "freight_score": 75,
    "population": 1601,
    "zip_zone": "Z3"
  },
  {
    "city": "Summerdale",
    "state": "AL",
    "zip": "36535",
    "lat": 30.4783,
    "lon": -87.6904,
    "kma": "Mobile Market",
    "kma_name": "Mobile Market",
    "region": "AL",
    "freight_score": 75,
    "population": 1589,
    "zip_zone": "Z3"
  },
  {
    "city": "Fort Deposit",
    "state": "AL",
    "zip": "36032",
    "lat": 31.9863,
    "lon": -86.5664,
    "kma": "Montgomery Market",
    "kma_name": "Montgomery Market",
    "region": "AL",
    "freight_score": 75,
    "population": 1560,
    "zip_zone": "Z3"
  },
  {
    "city": "Sylvan Springs",
    "state": "AL",
    "zip": "35118",
    "lat": 33.5302,
    "lon": -87.0312,
    "kma": "Birmingham Market",
    "kma_name": "Birmingham Market",
    "region": "AL",
    "freight_score": 75,
    "population": 1559,
    "zip_zone": "Z3"
  },
  {
    "city": "Stewartville",
    "state": "AL",
    "zip": "35151",
    "lat": 33.0725,
    "lon": -86.2658,
    "kma": "Birmingham Market",
    "kma_name": "Birmingham Market",
    "region": "AL",
    "freight_score": 75,
    "population": 1557,
    "zip_zone": "Z3"
  },
  {
    "city": "Snead",
    "state": "AL",
    "zip": "35952",
    "lat": 34.1162,
    "lon": -86.3902,
    "kma": "Birmingham Market",
    "kma_name": "Birmingham Market",
    "region": "AL",
    "freight_score": 75,
    "population": 1490,
    "zip_zone": "Z3"
  },
  {
    "city": "Elmore",
    "state": "AL",
    "zip": "36022",
    "lat": 32.5552,
    "lon": -86.3425,
    "kma": "Montgomery Market",
    "kma_name": "Montgomery Market",
    "region": "AL",
    "freight_score": 75,
    "population": 1482,
    "zip_zone": "Z3"
  },
  {
    "city": "Samson",
    "state": "AL",
    "zip": "36477",
    "lat": 31.1124,
    "lon": -86.0462,
    "kma": "Montgomery Market",
    "kma_name": "Montgomery Market",
    "region": "AL",
    "freight_score": 75,
    "population": 1477,
    "zip_zone": "Z3"
  },
  {
    "city": "Smoke Rise",
    "state": "AL",
    "zip": "35180",
    "lat": 33.8789,
    "lon": -86.824,
    "kma": "Birmingham Market",
    "kma_name": "Birmingham Market",
    "region": "AL",
    "freight_score": 75,
    "population": 1469,
    "zip_zone": "Z3"
  },
  {
    "city": "Falkville",
    "state": "AL",
    "zip": "35622",
    "lat": 34.3793,
    "lon": -86.9086,
    "kma": "Decatur Market",
    "kma_name": "Decatur Market",
    "region": "AL",
    "freight_score": 75,
    "population": 1464,
    "zip_zone": "Z3"
  },
  {
    "city": "Hayden",
    "state": "AL",
    "zip": "35180",
    "lat": 33.8818,
    "lon": -86.7842,
    "kma": "Birmingham Market",
    "kma_name": "Birmingham Market",
    "region": "AL",
    "freight_score": 75,
    "population": 1453,
    "zip_zone": "Z3"
  },
  {
    "city": "Ardmore",
    "state": "AL",
    "zip": "35739",
    "lat": 34.9847,
    "lon": -86.8373,
    "kma": "Decatur Market",
    "kma_name": "Decatur Market",
    "region": "AL",
    "freight_score": 75,
    "population": 1444,
    "zip_zone": "Z3"
  },
  {
    "city": "Sulligent",
    "state": "AL",
    "zip": "35586",
    "lat": 33.8912,
    "lon": -88.1266,
    "kma": "Birmingham Market",
    "kma_name": "Birmingham Market",
    "region": "AL",
    "freight_score": 75,
    "population": 1440,
    "zip_zone": "Z3"
  },
  {
    "city": "New Brockton",
    "state": "AL",
    "zip": "36351",
    "lat": 31.3785,
    "lon": -85.9228,
    "kma": "Montgomery Market",
    "kma_name": "Montgomery Market",
    "region": "AL",
    "freight_score": 75,
    "population": 1440,
    "zip_zone": "Z3"
  },
  {
    "city": "Carbon Hill",
    "state": "AL",
    "zip": "35549",
    "lat": 33.8944,
    "lon": -87.5224,
    "kma": "Birmingham Market",
    "kma_name": "Birmingham Market",
    "region": "AL",
    "freight_score": 75,
    "population": 1440,
    "zip_zone": "Z3"
  },
  {
    "city": "Gordo",
    "state": "AL",
    "zip": "35466",
    "lat": 33.3221,
    "lon": -87.904,
    "kma": "Birmingham Market",
    "kma_name": "Birmingham Market",
    "region": "AL",
    "freight_score": 75,
    "population": 1435,
    "zip_zone": "Z3"
  },
  {
    "city": "Georgiana",
    "state": "AL",
    "zip": "36033",
    "lat": 31.6391,
    "lon": -86.7468,
    "kma": "Montgomery Market",
    "kma_name": "Montgomery Market",
    "region": "AL",
    "freight_score": 75,
    "population": 1432,
    "zip_zone": "Z3"
  },
  {
    "city": "Newton",
    "state": "AL",
    "zip": "36350",
    "lat": 31.3423,
    "lon": -85.5893,
    "kma": "Montgomery Market",
    "kma_name": "Montgomery Market",
    "region": "AL",
    "freight_score": 75,
    "population": 1431,
    "zip_zone": "Z3"
  },
  {
    "city": "Killen",
    "state": "AL",
    "zip": "35645",
    "lat": 34.8607,
    "lon": -87.5268,
    "kma": "Decatur Market",
    "kma_name": "Decatur Market",
    "region": "AL",
    "freight_score": 75,
    "population": 1431,
    "zip_zone": "Z3"
  },
  {
    "city": "Coats Bend",
    "state": "AL",
    "zip": "35901",
    "lat": 34.0774,
    "lon": -85.8742,
    "kma": "Birmingham Market",
    "kma_name": "Birmingham Market",
    "region": "AL",
    "freight_score": 75,
    "population": 1429,
    "zip_zone": "Z3"
  },
  {
    "city": "Millport",
    "state": "AL",
    "zip": "35576",
    "lat": 33.5586,
    "lon": -88.0817,
    "kma": "Birmingham Market",
    "kma_name": "Birmingham Market",
    "region": "AL",
    "freight_score": 75,
    "population": 1417,
    "zip_zone": "Z3"
  },
  {
    "city": "Grant",
    "state": "AL",
    "zip": "35747",
    "lat": 34.519,
    "lon": -86.2492,
    "kma": "Decatur Market",
    "kma_name": "Decatur Market",
    "region": "AL",
    "freight_score": 75,
    "population": 1410,
    "zip_zone": "Z3"
  },
  {
    "city": "Webb",
    "state": "AL",
    "zip": "36376",
    "lat": 31.2572,
    "lon": -85.2896,
    "kma": "Montgomery Market",
    "kma_name": "Montgomery Market",
    "region": "AL",
    "freight_score": 75,
    "population": 1398,
    "zip_zone": "Z3"
  },
  {
    "city": "Clio",
    "state": "AL",
    "zip": "36017",
    "lat": 31.7085,
    "lon": -85.6109,
    "kma": "Montgomery Market",
    "kma_name": "Montgomery Market",
    "region": "AL",
    "freight_score": 75,
    "population": 1393,
    "zip_zone": "Z3"
  },
  {
    "city": "Blue Ridge",
    "state": "AL",
    "zip": "36093",
    "lat": 32.501,
    "lon": -86.1839,
    "kma": "Montgomery Market",
    "kma_name": "Montgomery Market",
    "region": "AL",
    "freight_score": 75,
    "population": 1375,
    "zip_zone": "Z3"
  },
  {
    "city": "Goodwater",
    "state": "AL",
    "zip": "35072",
    "lat": 33.0608,
    "lon": -86.0516,
    "kma": "Montgomery Market",
    "kma_name": "Montgomery Market",
    "region": "AL",
    "freight_score": 75,
    "population": 1375,
    "zip_zone": "Z3"
  },
  {
    "city": "Shoal Creek",
    "state": "AL",
    "zip": "35242",
    "lat": 33.4328,
    "lon": -86.6071,
    "kma": "Birmingham Market",
    "kma_name": "Birmingham Market",
    "region": "AL",
    "freight_score": 75,
    "population": 1371,
    "zip_zone": "Z3"
  },
  {
    "city": "Cleveland",
    "state": "AL",
    "zip": "35049",
    "lat": 33.9964,
    "lon": -86.5671,
    "kma": "Birmingham Market",
    "kma_name": "Birmingham Market",
    "region": "AL",
    "freight_score": 75,
    "population": 1366,
    "zip_zone": "Z3"
  },
  {
    "city": "Geraldine",
    "state": "AL",
    "zip": "35974",
    "lat": 34.3579,
    "lon": -86.0037,
    "kma": "Decatur Market",
    "kma_name": "Decatur Market",
    "region": "AL",
    "freight_score": 75,
    "population": 1340,
    "zip_zone": "Z3"
  },
  {
    "city": "Mount Vernon",
    "state": "AL",
    "zip": "36560",
    "lat": 31.0889,
    "lon": -88.0137,
    "kma": "Mobile Market",
    "kma_name": "Mobile Market",
    "region": "AL",
    "freight_score": 75,
    "population": 1339,
    "zip_zone": "Z3"
  },
  {
    "city": "Susan Moore",
    "state": "AL",
    "zip": "35952",
    "lat": 34.0804,
    "lon": -86.4228,
    "kma": "Birmingham Market",
    "kma_name": "Birmingham Market",
    "region": "AL",
    "freight_score": 75,
    "population": 1323,
    "zip_zone": "Z3"
  },
  {
    "city": "West Blocton",
    "state": "AL",
    "zip": "35184",
    "lat": 33.1186,
    "lon": -87.1253,
    "kma": "Birmingham Market",
    "kma_name": "Birmingham Market",
    "region": "AL",
    "freight_score": 75,
    "population": 1320,
    "zip_zone": "Z3"
  },
  {
    "city": "Bear Creek",
    "state": "AL",
    "zip": "35581",
    "lat": 34.2651,
    "lon": -87.7164,
    "kma": "Decatur Market",
    "kma_name": "Decatur Market",
    "region": "AL",
    "freight_score": 75,
    "population": 1317,
    "zip_zone": "Z3"
  },
  {
    "city": "Rock Creek",
    "state": "AL",
    "zip": "35023",
    "lat": 33.4772,
    "lon": -87.0812,
    "kma": "Birmingham Market",
    "kma_name": "Birmingham Market",
    "region": "AL",
    "freight_score": 75,
    "population": 1313,
    "zip_zone": "Z3"
  },
  {
    "city": "Locust Fork",
    "state": "AL",
    "zip": "35133",
    "lat": 33.8957,
    "lon": -86.6302,
    "kma": "Birmingham Market",
    "kma_name": "Birmingham Market",
    "region": "AL",
    "freight_score": 75,
    "population": 1312,
    "zip_zone": "Z3"
  },
  {
    "city": "New Market",
    "state": "AL",
    "zip": "35761",
    "lat": 34.8892,
    "lon": -86.4226,
    "kma": "Decatur Market",
    "kma_name": "Decatur Market",
    "region": "AL",
    "freight_score": 75,
    "population": 1296,
    "zip_zone": "Z3"
  },
  {
    "city": "Steele",
    "state": "AL",
    "zip": "35987",
    "lat": 33.937,
    "lon": -86.2004,
    "kma": "Birmingham Market",
    "kma_name": "Birmingham Market",
    "region": "AL",
    "freight_score": 75,
    "population": 1293,
    "zip_zone": "Z3"
  },
  {
    "city": "Woodstock",
    "state": "AL",
    "zip": "35188",
    "lat": 33.2193,
    "lon": -87.149,
    "kma": "Birmingham Market",
    "kma_name": "Birmingham Market",
    "region": "AL",
    "freight_score": 75,
    "population": 1282,
    "zip_zone": "Z3"
  },
  {
    "city": "Magnolia Springs",
    "state": "AL",
    "zip": "36535",
    "lat": 30.4003,
    "lon": -87.7749,
    "kma": "Mobile Market",
    "kma_name": "Mobile Market",
    "region": "AL",
    "freight_score": 75,
    "population": 1278,
    "zip_zone": "Z3"
  },
  {
    "city": "Rogersville",
    "state": "AL",
    "zip": "35652",
    "lat": 34.8251,
    "lon": -87.2821,
    "kma": "Decatur Market",
    "kma_name": "Decatur Market",
    "region": "AL",
    "freight_score": 75,
    "population": 1260,
    "zip_zone": "Z3"
  },
  {
    "city": "Fyffe",
    "state": "AL",
    "zip": "35971",
    "lat": 34.449,
    "lon": -85.9052,
    "kma": "Chattanooga Market",
    "kma_name": "Chattanooga Market",
    "region": "AL",
    "freight_score": 75,
    "population": 1250,
    "zip_zone": "Z3"
  },
  {
    "city": "Gallant",
    "state": "AL",
    "zip": "35972",
    "lat": 34.0013,
    "lon": -86.2304,
    "kma": "Birmingham Market",
    "kma_name": "Birmingham Market",
    "region": "AL",
    "freight_score": 75,
    "population": 1215,
    "zip_zone": "Z3"
  },
  {
    "city": "Altoona",
    "state": "AL",
    "zip": "35952",
    "lat": 34.0308,
    "lon": -86.3179,
    "kma": "Birmingham Market",
    "kma_name": "Birmingham Market",
    "region": "AL",
    "freight_score": 75,
    "population": 1211,
    "zip_zone": "Z3"
  },
  {
    "city": "Eclectic",
    "state": "AL",
    "zip": "36024",
    "lat": 32.6387,
    "lon": -86.0387,
    "kma": "Montgomery Market",
    "kma_name": "Montgomery Market",
    "region": "AL",
    "freight_score": 75,
    "population": 1201,
    "zip_zone": "Z3"
  },
  {
    "city": "Brookside",
    "state": "AL",
    "zip": "35214",
    "lat": 33.6372,
    "lon": -86.9002,
    "kma": "Birmingham Market",
    "kma_name": "Birmingham Market",
    "region": "AL",
    "freight_score": 75,
    "population": 1200,
    "zip_zone": "Z3"
  },
  {
    "city": "Double Springs",
    "state": "AL",
    "zip": "35553",
    "lat": 34.1502,
    "lon": -87.391,
    "kma": "Decatur Market",
    "kma_name": "Decatur Market",
    "region": "AL",
    "freight_score": 75,
    "population": 1188,
    "zip_zone": "Z3"
  },
  {
    "city": "Douglas",
    "state": "AL",
    "zip": "35957",
    "lat": 34.1705,
    "lon": -86.3224,
    "kma": "Decatur Market",
    "kma_name": "Decatur Market",
    "region": "AL",
    "freight_score": 75,
    "population": 1153,
    "zip_zone": "Z3"
  },
  {
    "city": "Coker",
    "state": "AL",
    "zip": "35452",
    "lat": 33.2446,
    "lon": -87.68,
    "kma": "Birmingham Market",
    "kma_name": "Birmingham Market",
    "region": "AL",
    "freight_score": 75,
    "population": 1152,
    "zip_zone": "Z3"
  },
  {
    "city": "Ballplay",
    "state": "AL",
    "zip": "35903",
    "lat": 34.0179,
    "lon": -85.7852,
    "kma": "Birmingham Market",
    "kma_name": "Birmingham Market",
    "region": "AL",
    "freight_score": 75,
    "population": 1149,
    "zip_zone": "Z3"
  },
  {
    "city": "Fayetteville",
    "state": "AL",
    "zip": "35151",
    "lat": 33.1643,
    "lon": -86.4412,
    "kma": "Birmingham Market",
    "kma_name": "Birmingham Market",
    "region": "AL",
    "freight_score": 75,
    "population": 1135,
    "zip_zone": "Z3"
  },
  {
    "city": "Autaugaville",
    "state": "AL",
    "zip": "36003",
    "lat": 32.432,
    "lon": -86.6578,
    "kma": "Montgomery Market",
    "kma_name": "Montgomery Market",
    "region": "AL",
    "freight_score": 75,
    "population": 1119,
    "zip_zone": "Z3"
  },
  {
    "city": "Camp Hill",
    "state": "AL",
    "zip": "36850",
    "lat": 32.8002,
    "lon": -85.6536,
    "kma": "Montgomery Market",
    "kma_name": "Montgomery Market",
    "region": "AL",
    "freight_score": 75,
    "population": 1098,
    "zip_zone": "Z3"
  },
  {
    "city": "Parrish",
    "state": "AL",
    "zip": "35580",
    "lat": 33.7323,
    "lon": -87.2802,
    "kma": "Birmingham Market",
    "kma_name": "Birmingham Market",
    "region": "AL",
    "freight_score": 75,
    "population": 1093,
    "zip_zone": "Z3"
  },
  {
    "city": "Cottonwood",
    "state": "AL",
    "zip": "36320",
    "lat": 31.0552,
    "lon": -85.3008,
    "kma": "Montgomery Market",
    "kma_name": "Montgomery Market",
    "region": "AL",
    "freight_score": 75,
    "population": 1091,
    "zip_zone": "Z3"
  },
  {
    "city": "Tidmore Bend",
    "state": "AL",
    "zip": "35901",
    "lat": 34.0324,
    "lon": -85.9253,
    "kma": "Birmingham Market",
    "kma_name": "Birmingham Market",
    "region": "AL",
    "freight_score": 75,
    "population": 1086,
    "zip_zone": "Z3"
  },
  {
    "city": "Brilliant",
    "state": "AL",
    "zip": "35594",
    "lat": 34.0256,
    "lon": -87.7691,
    "kma": "Decatur Market",
    "kma_name": "Decatur Market",
    "region": "AL",
    "freight_score": 75,
    "population": 1078,
    "zip_zone": "Z3"
  },
  {
    "city": "Lookout Mountain",
    "state": "AL",
    "zip": "35904",
    "lat": 34.1091,
    "lon": -85.9585,
    "kma": "Birmingham Market",
    "kma_name": "Birmingham Market",
    "region": "AL",
    "freight_score": 75,
    "population": 1074,
    "zip_zone": "Z3"
  },
  {
    "city": "Notasulga",
    "state": "AL",
    "zip": "36866",
    "lat": 32.5573,
    "lon": -85.6692,
    "kma": "Montgomery Market",
    "kma_name": "Montgomery Market",
    "region": "AL",
    "freight_score": 75,
    "population": 1074,
    "zip_zone": "Z3"
  },
  {
    "city": "Berry",
    "state": "AL",
    "zip": "35546",
    "lat": 33.6623,
    "lon": -87.6079,
    "kma": "Birmingham Market",
    "kma_name": "Birmingham Market",
    "region": "AL",
    "freight_score": 75,
    "population": 1063,
    "zip_zone": "Z3"
  },
  {
    "city": "Coosada",
    "state": "AL",
    "zip": "36020",
    "lat": 32.4984,
    "lon": -86.3279,
    "kma": "Montgomery Market",
    "kma_name": "Montgomery Market",
    "region": "AL",
    "freight_score": 75,
    "population": 1060,
    "zip_zone": "Z3"
  },
  {
    "city": "Cherokee",
    "state": "AL",
    "zip": "35616",
    "lat": 34.7577,
    "lon": -87.967,
    "kma": "Decatur Market",
    "kma_name": "Decatur Market",
    "region": "AL",
    "freight_score": 75,
    "population": 1059,
    "zip_zone": "Z3"
  },
  {
    "city": "Ohatchee",
    "state": "AL",
    "zip": "36271",
    "lat": 33.7877,
    "lon": -86.0281,
    "kma": "Birmingham Market",
    "kma_name": "Birmingham Market",
    "region": "AL",
    "freight_score": 75,
    "population": 1043,
    "zip_zone": "Z3"
  },
  {
    "city": "Egypt",
    "state": "AL",
    "zip": "35952",
    "lat": 34.076,
    "lon": -86.1651,
    "kma": "Birmingham Market",
    "kma_name": "Birmingham Market",
    "region": "AL",
    "freight_score": 75,
    "population": 1039,
    "zip_zone": "Z3"
  },
  {
    "city": "Leroy",
    "state": "AL",
    "zip": "36548",
    "lat": 31.4952,
    "lon": -87.969,
    "kma": "Mobile Market",
    "kma_name": "Mobile Market",
    "region": "AL",
    "freight_score": 75,
    "population": 1016,
    "zip_zone": "Z3"
  },
  {
    "city": "Town Creek",
    "state": "AL",
    "zip": "35672",
    "lat": 34.6718,
    "lon": -87.4063,
    "kma": "Decatur Market",
    "kma_name": "Decatur Market",
    "region": "AL",
    "freight_score": 75,
    "population": 1015,
    "zip_zone": "Z3"
  },
  {
    "city": "Woodville",
    "state": "AL",
    "zip": "35776",
    "lat": 34.6256,
    "lon": -86.2792,
    "kma": "Decatur Market",
    "kma_name": "Decatur Market",
    "region": "AL",
    "freight_score": 75,
    "population": 1015,
    "zip_zone": "Z3"
  },
  {
    "city": "Skyline",
    "state": "AL",
    "zip": "35768",
    "lat": 34.7986,
    "lon": -86.1228,
    "kma": "Chattanooga Market",
    "kma_name": "Chattanooga Market",
    "region": "AL",
    "freight_score": 75,
    "population": 1011,
    "zip_zone": "Z3"
  },
  {
    "city": "Dunnavant",
    "state": "AL",
    "zip": "35094",
    "lat": 33.4977,
    "lon": -86.5421,
    "kma": "Birmingham Market",
    "kma_name": "Birmingham Market",
    "region": "AL",
    "freight_score": 75,
    "population": 1010,
    "zip_zone": "Z3"
  },
  {
    "city": "Pisgah",
    "state": "AL",
    "zip": "35765",
    "lat": 34.6844,
    "lon": -85.846,
    "kma": "Chattanooga Market",
    "kma_name": "Chattanooga Market",
    "region": "AL",
    "freight_score": 75,
    "population": 1009,
    "zip_zone": "Z3"
  },
  {
    "city": "Section",
    "state": "AL",
    "zip": "35771",
    "lat": 34.5816,
    "lon": -85.9849,
    "kma": "Chattanooga Market",
    "kma_name": "Chattanooga Market",
    "region": "AL",
    "freight_score": 75,
    "population": 998,
    "zip_zone": "Z3"
  },
  {
    "city": "Baileyton",
    "state": "AL",
    "zip": "35019",
    "lat": 34.2609,
    "lon": -86.6083,
    "kma": "Decatur Market",
    "kma_name": "Decatur Market",
    "region": "AL",
    "freight_score": 75,
    "population": 976,
    "zip_zone": "Z3"
  },
  {
    "city": "Redstone Arsenal",
    "state": "AL",
    "zip": "35808",
    "lat": 34.6645,
    "lon": -86.653,
    "kma": "Decatur Market",
    "kma_name": "Decatur Market",
    "region": "AL",
    "freight_score": 75,
    "population": 971,
    "zip_zone": "Z3"
  },
  {
    "city": "Hobson City",
    "state": "AL",
    "zip": "36203",
    "lat": 33.6148,
    "lon": -85.8561,
    "kma": "Birmingham Market",
    "kma_name": "Birmingham Market",
    "region": "AL",
    "freight_score": 75,
    "population": 962,
    "zip_zone": "Z3"
  },
  {
    "city": "Hollywood",
    "state": "AL",
    "zip": "35769",
    "lat": 34.7195,
    "lon": -85.9641,
    "kma": "Chattanooga Market",
    "kma_name": "Chattanooga Market",
    "region": "AL",
    "freight_score": 75,
    "population": 939,
    "zip_zone": "Z3"
  },
  {
    "city": "Silverhill",
    "state": "AL",
    "zip": "36576",
    "lat": 30.5455,
    "lon": -87.7506,
    "kma": "Mobile Market",
    "kma_name": "Mobile Market",
    "region": "AL",
    "freight_score": 75,
    "population": 929,
    "zip_zone": "Z3"
  },
  {
    "city": "New Union",
    "state": "AL",
    "zip": "35956",
    "lat": 34.1422,
    "lon": -86.2218,
    "kma": "Decatur Market",
    "kma_name": "Decatur Market",
    "region": "AL",
    "freight_score": 75,
    "population": 927,
    "zip_zone": "Z3"
  },
  {
    "city": "Brantley",
    "state": "AL",
    "zip": "36009",
    "lat": 31.5823,
    "lon": -86.2569,
    "kma": "Montgomery Market",
    "kma_name": "Montgomery Market",
    "region": "AL",
    "freight_score": 75,
    "population": 915,
    "zip_zone": "Z3"
  },
  {
    "city": "Powell",
    "state": "AL",
    "zip": "35986",
    "lat": 34.5326,
    "lon": -85.8975,
    "kma": "Chattanooga Market",
    "kma_name": "Chattanooga Market",
    "region": "AL",
    "freight_score": 75,
    "population": 911,
    "zip_zone": "Z3"
  },
  {
    "city": "Minor",
    "state": "AL",
    "zip": "35224",
    "lat": 33.539,
    "lon": -86.9401,
    "kma": "Birmingham Market",
    "kma_name": "Birmingham Market",
    "region": "AL",
    "freight_score": 75,
    "population": 911,
    "zip_zone": "Z3"
  },
  {
    "city": "Oak Grove",
    "state": "AL",
    "zip": "35151",
    "lat": 33.1927,
    "lon": -86.304,
    "kma": "Birmingham Market",
    "kma_name": "Birmingham Market",
    "region": "AL",
    "freight_score": 75,
    "population": 905,
    "zip_zone": "Z3"
  },
  {
    "city": "Wedowee",
    "state": "AL",
    "zip": "36278",
    "lat": 33.3078,
    "lon": -85.4864,
    "kma": "Atlanta Market",
    "kma_name": "Atlanta Market",
    "region": "AL",
    "freight_score": 75,
    "population": 905,
    "zip_zone": "Z3"
  },
  {
    "city": "Franklin",
    "state": "AL",
    "zip": "36083",
    "lat": 32.4513,
    "lon": -85.7864,
    "kma": "Montgomery Market",
    "kma_name": "Montgomery Market",
    "region": "AL",
    "freight_score": 75,
    "population": 899,
    "zip_zone": "Z3"
  },
  {
    "city": "Sterrett",
    "state": "AL",
    "zip": "35147",
    "lat": 33.449,
    "lon": -86.4645,
    "kma": "Birmingham Market",
    "kma_name": "Birmingham Market",
    "region": "AL",
    "freight_score": 75,
    "population": 895,
    "zip_zone": "Z3"
  },
  {
    "city": "White Plains",
    "state": "AL",
    "zip": "36207",
    "lat": 33.7603,
    "lon": -85.688,
    "kma": "Birmingham Market",
    "kma_name": "Birmingham Market",
    "region": "AL",
    "freight_score": 75,
    "population": 895,
    "zip_zone": "Z3"
  },
  {
    "city": "Hayneville",
    "state": "AL",
    "zip": "36040",
    "lat": 32.1822,
    "lon": -86.5787,
    "kma": "Montgomery Market",
    "kma_name": "Montgomery Market",
    "region": "AL",
    "freight_score": 75,
    "population": 895,
    "zip_zone": "Z3"
  },
  {
    "city": "Carrollton",
    "state": "AL",
    "zip": "35447",
    "lat": 33.2619,
    "lon": -88.0951,
    "kma": "Birmingham Market",
    "kma_name": "Birmingham Market",
    "region": "AL",
    "freight_score": 75,
    "population": 892,
    "zip_zone": "Z3"
  },
  {
    "city": "Vandiver",
    "state": "AL",
    "zip": "35147",
    "lat": 33.4601,
    "lon": -86.5247,
    "kma": "Birmingham Market",
    "kma_name": "Birmingham Market",
    "region": "AL",
    "freight_score": 75,
    "population": 890,
    "zip_zone": "Z3"
  },
  {
    "city": "Oakman",
    "state": "AL",
    "zip": "35579",
    "lat": 33.7141,
    "lon": -87.389,
    "kma": "Birmingham Market",
    "kma_name": "Birmingham Market",
    "region": "AL",
    "freight_score": 75,
    "population": 872,
    "zip_zone": "Z3"
  },
  {
    "city": "South Vinemont",
    "state": "AL",
    "zip": "35058",
    "lat": 34.2349,
    "lon": -86.8642,
    "kma": "Decatur Market",
    "kma_name": "Decatur Market",
    "region": "AL",
    "freight_score": 75,
    "population": 872,
    "zip_zone": "Z3"
  },
  {
    "city": "Walnut Grove",
    "state": "AL",
    "zip": "35952",
    "lat": 34.0641,
    "lon": -86.2863,
    "kma": "Birmingham Market",
    "kma_name": "Birmingham Market",
    "region": "AL",
    "freight_score": 75,
    "population": 871,
    "zip_zone": "Z3"
  },
  {
    "city": "Ider",
    "state": "AL",
    "zip": "35981",
    "lat": 34.7026,
    "lon": -85.669,
    "kma": "Chattanooga Market",
    "kma_name": "Chattanooga Market",
    "region": "AL",
    "freight_score": 75,
    "population": 871,
    "zip_zone": "Z3"
  },
  {
    "city": "Littleville",
    "state": "AL",
    "zip": "35674",
    "lat": 34.595,
    "lon": -87.6719,
    "kma": "Decatur Market",
    "kma_name": "Decatur Market",
    "region": "AL",
    "freight_score": 75,
    "population": 866,
    "zip_zone": "Z3"
  },
  {
    "city": "Mosses",
    "state": "AL",
    "zip": "36040",
    "lat": 32.1802,
    "lon": -86.6888,
    "kma": "Montgomery Market",
    "kma_name": "Montgomery Market",
    "region": "AL",
    "freight_score": 75,
    "population": 865,
    "zip_zone": "Z3"
  },
  {
    "city": "Pine Hill",
    "state": "AL",
    "zip": "36769",
    "lat": 31.9859,
    "lon": -87.5872,
    "kma": "Montgomery Market",
    "kma_name": "Montgomery Market",
    "region": "AL",
    "freight_score": 75,
    "population": 861,
    "zip_zone": "Z3"
  },
  {
    "city": "Belle Fontaine",
    "state": "AL",
    "zip": "36582",
    "lat": 30.492,
    "lon": -88.1131,
    "kma": "Mobile Market",
    "kma_name": "Mobile Market",
    "region": "AL",
    "freight_score": 75,
    "population": 853,
    "zip_zone": "Z3"
  },
  {
    "city": "Wadley",
    "state": "AL",
    "zip": "36276",
    "lat": 33.1239,
    "lon": -85.5683,
    "kma": "Montgomery Market",
    "kma_name": "Montgomery Market",
    "region": "AL",
    "freight_score": 75,
    "population": 837,
    "zip_zone": "Z3"
  },
  {
    "city": "Phil Campbell",
    "state": "AL",
    "zip": "35581",
    "lat": 34.3519,
    "lon": -87.7072,
    "kma": "Decatur Market",
    "kma_name": "Decatur Market",
    "region": "AL",
    "freight_score": 75,
    "population": 834,
    "zip_zone": "Z3"
  },
  {
    "city": "Valley Head",
    "state": "AL",
    "zip": "35989",
    "lat": 34.5558,
    "lon": -85.6224,
    "kma": "Chattanooga Market",
    "kma_name": "Chattanooga Market",
    "region": "AL",
    "freight_score": 75,
    "population": 825,
    "zip_zone": "Z3"
  },
  {
    "city": "Lynn",
    "state": "AL",
    "zip": "35565",
    "lat": 34.0548,
    "lon": -87.5555,
    "kma": "Decatur Market",
    "kma_name": "Decatur Market",
    "region": "AL",
    "freight_score": 75,
    "population": 821,
    "zip_zone": "Z3"
  },
  {
    "city": "Mignon",
    "state": "AL",
    "zip": "35150",
    "lat": 33.1948,
    "lon": -86.265,
    "kma": "Birmingham Market",
    "kma_name": "Birmingham Market",
    "region": "AL",
    "freight_score": 75,
    "population": 820,
    "zip_zone": "Z3"
  },
  {
    "city": "Holly Pond",
    "state": "AL",
    "zip": "35055",
    "lat": 34.1696,
    "lon": -86.6125,
    "kma": "Decatur Market",
    "kma_name": "Decatur Market",
    "region": "AL",
    "freight_score": 75,
    "population": 816,
    "zip_zone": "Z3"
  },
  {
    "city": "Sand Rock",
    "state": "AL",
    "zip": "35983",
    "lat": 34.2312,
    "lon": -85.7704,
    "kma": "Chattanooga Market",
    "kma_name": "Chattanooga Market",
    "region": "AL",
    "freight_score": 75,
    "population": 815,
    "zip_zone": "Z3"
  },
  {
    "city": "Leesburg",
    "state": "AL",
    "zip": "35983",
    "lat": 34.1839,
    "lon": -85.775,
    "kma": "Chattanooga Market",
    "kma_name": "Chattanooga Market",
    "region": "AL",
    "freight_score": 75,
    "population": 813,
    "zip_zone": "Z3"
  },
  {
    "city": "Maplesville",
    "state": "AL",
    "zip": "36750",
    "lat": 32.7867,
    "lon": -86.8783,
    "kma": "Montgomery Market",
    "kma_name": "Montgomery Market",
    "region": "AL",
    "freight_score": 75,
    "population": 813,
    "zip_zone": "Z3"
  },
  {
    "city": "Pea Ridge",
    "state": "AL",
    "zip": "35115",
    "lat": 33.1454,
    "lon": -86.9372,
    "kma": "Birmingham Market",
    "kma_name": "Birmingham Market",
    "region": "AL",
    "freight_score": 75,
    "population": 808,
    "zip_zone": "Z3"
  },
  {
    "city": "Reece City",
    "state": "AL",
    "zip": "35954",
    "lat": 34.0772,
    "lon": -86.0345,
    "kma": "Birmingham Market",
    "kma_name": "Birmingham Market",
    "region": "AL",
    "freight_score": 75,
    "population": 795,
    "zip_zone": "Z3"
  },
  {
    "city": "Allgood",
    "state": "AL",
    "zip": "35013",
    "lat": 33.9064,
    "lon": -86.5178,
    "kma": "Birmingham Market",
    "kma_name": "Birmingham Market",
    "region": "AL",
    "freight_score": 75,
    "population": 788,
    "zip_zone": "Z3"
  },
  {
    "city": "Courtland",
    "state": "AL",
    "zip": "35618",
    "lat": 34.6703,
    "lon": -87.326,
    "kma": "Decatur Market",
    "kma_name": "Decatur Market",
    "region": "AL",
    "freight_score": 75,
    "population": 777,
    "zip_zone": "Z3"
  },
  {
    "city": "Rockford",
    "state": "AL",
    "zip": "35136",
    "lat": 32.8895,
    "lon": -86.215,
    "kma": "Montgomery Market",
    "kma_name": "Montgomery Market",
    "region": "AL",
    "freight_score": 75,
    "population": 776,
    "zip_zone": "Z3"
  },
  {
    "city": "Pickensville",
    "state": "AL",
    "zip": "35447",
    "lat": 33.2336,
    "lon": -88.2744,
    "kma": "Birmingham Market",
    "kma_name": "Birmingham Market",
    "region": "AL",
    "freight_score": 75,
    "population": 776,
    "zip_zone": "Z3"
  },
  {
    "city": "Gilbertown",
    "state": "AL",
    "zip": "36908",
    "lat": 31.8663,
    "lon": -88.3075,
    "kma": "Mobile Market",
    "kma_name": "Mobile Market",
    "region": "AL",
    "freight_score": 75,
    "population": 772,
    "zip_zone": "Z3"
  },
  {
    "city": "Columbia",
    "state": "AL",
    "zip": "36319",
    "lat": 31.2968,
    "lon": -85.1103,
    "kma": "Tifton Market",
    "kma_name": "Tifton Market",
    "region": "AL",
    "freight_score": 75,
    "population": 769,
    "zip_zone": "Z3"
  },
  {
    "city": "Kinston",
    "state": "AL",
    "zip": "36467",
    "lat": 31.22,
    "lon": -86.1705,
    "kma": "Montgomery Market",
    "kma_name": "Montgomery Market",
    "region": "AL",
    "freight_score": 75,
    "population": 760,
    "zip_zone": "Z3"
  },
  {
    "city": "Rosa",
    "state": "AL",
    "zip": "35031",
    "lat": 33.9899,
    "lon": -86.5045,
    "kma": "Birmingham Market",
    "kma_name": "Birmingham Market",
    "region": "AL",
    "freight_score": 75,
    "population": 759,
    "zip_zone": "Z3"
  },