[
  {
    "city": "Wichita",
    "state": "KS",
    "zip": "67230",
    "lat": 37.6895,
    "lon": -97.3443,
    "kma": "Wichita Market",
    "kma_name": "Wichita Market",
    "region": "KS",
    "freight_score": 100,
    "population": 501760,
    "zip_zone": "Z6"
  },
  {
    "city": "Overland Park",
    "state": "KS",
    "zip": "66214",
    "lat": 38.887,
    "lon": -94.687,
    "kma": "Kansas City Market",
    "kma_name": "Kansas City Market",
    "region": "KS",
    "freight_score": 100,
    "population": 197199,
    "zip_zone": "Z6"
  },
  {
    "city": "Kansas City",
    "state": "KS",
    "zip": "66101",
    "lat": 39.1235,
    "lon": -94.7443,
    "kma": "Kansas City Market",
    "kma_name": "Kansas City Market",
    "region": "KS",
    "freight_score": 100,
    "population": 154776,
    "zip_zone": "Z6"
  },
  {
    "city": "Topeka",
    "state": "KS",
    "zip": "66621",
    "lat": 39.0346,
    "lon": -95.6955,
    "kma": "Kansas City Market",
    "kma_name": "Kansas City Market",
    "region": "KS",
    "freight_score": 100,
    "population": 150343,
    "zip_zone": "Z6"
  },
  {
    "city": "Olathe",
    "state": "KS",
    "zip": "66062",
    "lat": 38.8833,
    "lon": -94.82,
    "kma": "Kansas City Market",
    "kma_name": "Kansas City Market",
    "region": "KS",
    "freight_score": 100,
    "population": 143720,
    "zip_zone": "Z6"
  },
  {
    "city": "Lawrence",
    "state": "KS",
    "zip": "66045",
    "lat": 38.9597,
    "lon": -95.2642,
    "kma": "Kansas City Market",
    "kma_name": "Kansas City Market",
    "region": "KS",
    "freight_score": 99,
    "population": 96380,
    "zip_zone": "Z6"
  },
  {
    "city": "Shawnee",
    "state": "KS",
    "zip": "66214",
    "lat": 39.0158,
    "lon": -94.8076,
    "kma": "Kansas City Market",
    "kma_name": "Kansas City Market",
    "region": "KS",
    "freight_score": 92,
    "population": 68175,
    "zip_zone": "Z6"
  },
  {
    "city": "Lenexa",
    "state": "KS",
    "zip": "66214",
    "lat": 38.9609,
    "lon": -94.8018,
    "kma": "Kansas City Market",
    "kma_name": "Kansas City Market",
    "region": "KS",
    "freight_score": 89,
    "population": 57986,
    "zip_zone": "Z6"
  },
  {
    "city": "Manhattan",
    "state": "KS",
    "zip": "66506",
    "lat": 39.1886,
    "lon": -96.6048,
    "kma": "Hutchinson Market",
    "kma_name": "Hutchinson Market",
    "region": "KS",
    "freight_score": 88,
    "population": 53951,
    "zip_zone": "Z6"
  },
  {
    "city": "Salina",
    "state": "KS",
    "zip": "67401",
    "lat": 38.8136,
    "lon": -97.6143,
    "kma": "Hutchinson Market",
    "kma_name": "Hutchinson Market",
    "region": "KS",
    "freight_score": 87,
    "population": 46432,
    "zip_zone": "Z6"
  },
  {
    "city": "Hutchinson",
    "state": "KS",
    "zip": "67502",
    "lat": 38.0671,
    "lon": -97.9081,
    "kma": "Hutchinson Market",
    "kma_name": "Hutchinson Market",
    "region": "KS",
    "freight_score": 85,
    "population": 39837,
    "zip_zone": "Z6"
  },
  {
    "city": "Leavenworth",
    "state": "KS",
    "zip": "66027",
    "lat": 39.3239,
    "lon": -94.924,
    "kma": "Kansas City Market",
    "kma_name": "Kansas City Market",
    "region": "KS",
    "freight_score": 84,
    "population": 37176,
    "zip_zone": "Z6"
  },
  {
    "city": "Leawood",
    "state": "KS",
    "zip": "66211",
    "lat": 38.9075,
    "lon": -94.6258,
    "kma": "Kansas City Market",
    "kma_name": "Kansas City Market",
    "region": "KS",
    "freight_score": 83,
    "population": 33844,
    "zip_zone": "Z6"
  },
  {
    "city": "Garden City",
    "state": "KS",
    "zip": "67846",
    "lat": 37.9753,
    "lon": -100.8527,
    "kma": "Hutchinson Market",
    "kma_name": "Hutchinson Market",
    "region": "KS",
    "freight_score": 82,
    "population": 27781,
    "zip_zone": "Z6"
  },
  {
    "city": "Dodge City",
    "state": "KS",
    "zip": "67801",
    "lat": 37.7611,
    "lon": -100.0182,
    "kma": "Hutchinson Market",
    "kma_name": "Hutchinson Market",
    "region": "KS",
    "freight_score": 82,
    "population": 27652,
    "zip_zone": "Z6"
  },
  {
    "city": "Derby",
    "state": "KS",
    "zip": "67037",
    "lat": 37.5571,
    "lon": -97.2551,
    "kma": "Wichita Market",
    "kma_name": "Wichita Market",
    "region": "KS",
    "freight_score": 81,
    "population": 25801,
    "zip_zone": "Z6"
  },
  {
    "city": "Emporia",
    "state": "KS",
    "zip": "66801",
    "lat": 38.4028,
    "lon": -96.1932,
    "kma": "Wichita Market",
    "kma_name": "Wichita Market",
    "region": "KS",
    "freight_score": 81,
    "population": 24098,
    "zip_zone": "Z6"
  },
  {
    "city": "Gardner",
    "state": "KS",
    "zip": "66030",
    "lat": 38.8122,
    "lon": -94.9275,
    "kma": "Kansas City Market",
    "kma_name": "Kansas City Market",
    "region": "KS",
    "freight_score": 81,
    "population": 24020,
    "zip_zone": "Z6"
  },
  {
    "city": "Prairie Village",
    "state": "KS",
    "zip": "66208",
    "lat": 38.9874,
    "lon": -94.6362,
    "kma": "Kansas City Market",
    "kma_name": "Kansas City Market",
    "region": "KS",
    "freight_score": 81,
    "population": 22937,
    "zip_zone": "Z6"
  },
  {
    "city": "Junction City",
    "state": "KS",
    "zip": "66441",
    "lat": 39.0277,
    "lon": -96.8508,
    "kma": "Hutchinson Market",
    "kma_name": "Hutchinson Market",
    "region": "KS",
    "freight_score": 81,
    "population": 22431,
    "zip_zone": "Z6"
  },
  {
    "city": "Hays",
    "state": "KS",
    "zip": "67601",
    "lat": 38.8821,
    "lon": -99.3221,
    "kma": "Hutchinson Market",
    "kma_name": "Hutchinson Market",
    "region": "KS",
    "freight_score": 80,
    "population": 21078,
    "zip_zone": "Z6"
  },
  {
    "city": "Pittsburg",
    "state": "KS",
    "zip": "66762",
    "lat": 37.4129,
    "lon": -94.6985,
    "kma": "Fayetteville Market",
    "kma_name": "Fayetteville Market",
    "region": "KS",
    "freight_score": 80,
    "population": 20606,
    "zip_zone": "Z6"
  },
  {
    "city": "Liberal",
    "state": "KS",
    "zip": "67901",
    "lat": 37.0466,
    "lon": -100.9295,
    "kma": "Amarillo Market",
    "kma_name": "Amarillo Market",
    "region": "KS",
    "freight_score": 80,
    "population": 19107,
    "zip_zone": "Z6"
  },
  {
    "city": "Newton",
    "state": "KS",
    "zip": "67114",
    "lat": 38.0368,
    "lon": -97.3449,
    "kma": "Wichita Market",
    "kma_name": "Wichita Market",
    "region": "KS",
    "freight_score": 80,
    "population": 18443,
    "zip_zone": "Z6"
  },
  {
    "city": "Andover",
    "state": "KS",
    "zip": "67002",
    "lat": 37.6873,
    "lon": -97.1352,
    "kma": "Wichita Market",
    "kma_name": "Wichita Market",
    "region": "KS",
    "freight_score": 79,
    "population": 15508,
    "zip_zone": "Z6"
  },
  {
    "city": "Great Bend",
    "state": "KS",
    "zip": "67530",
    "lat": 38.3593,
    "lon": -98.8015,
    "kma": "Hutchinson Market",
    "kma_name": "Hutchinson Market",
    "region": "KS",
    "freight_score": 79,
    "population": 14596,
    "zip_zone": "Z6"
  },
  {
    "city": "McPherson",
    "state": "KS",
    "zip": "67460",
    "lat": 38.3714,
    "lon": -97.6605,
    "kma": "Hutchinson Market",
    "kma_name": "Hutchinson Market",
    "region": "KS",
    "freight_score": 78,
    "population": 13956,
    "zip_zone": "Z6"
  },
  {
    "city": "El Dorado",
    "state": "KS",
    "zip": "67042",
    "lat": 37.821,
    "lon": -96.8613,
    "kma": "Wichita Market",
    "kma_name": "Wichita Market",
    "region": "KS",
    "freight_score": 78,
    "population": 12882,
    "zip_zone": "Z6"
  },
  {
    "city": "Ottawa",
    "state": "KS",
    "zip": "66067",
    "lat": 38.5996,
    "lon": -95.2636,
    "kma": "Kansas City Market",
    "kma_name": "Kansas City Market",
    "region": "KS",
    "freight_score": 78,
    "population": 12632,
    "zip_zone": "Z6"
  },
  {
    "city": "Arkansas City",
    "state": "KS",
    "zip": "67005",
    "lat": 37.0726,
    "lon": -97.0385,
    "kma": "Wichita Market",
    "kma_name": "Wichita Market",
    "region": "KS",
    "freight_score": 78,
    "population": 11909,
    "zip_zone": "Z6"
  },
  {
    "city": "Winfield",
    "state": "KS",
    "zip": "67156",
    "lat": 37.274,
    "lon": -96.95,
    "kma": "Wichita Market",
    "kma_name": "Wichita Market",
    "region": "KS",
    "freight_score": 78,
    "population": 11731,
    "zip_zone": "Z6"
  },
  {
    "city": "Lansing",
    "state": "KS",
    "zip": "66043",
    "lat": 39.2428,
    "lon": -94.8972,
    "kma": "Kansas City Market",
    "kma_name": "Kansas City Market",
    "region": "KS",
    "freight_score": 78,
    "population": 11229,
    "zip_zone": "Z6"
  },
  {
    "city": "Haysville",
    "state": "KS",
    "zip": "67060",
    "lat": 37.5648,
    "lon": -97.3527,
    "kma": "Wichita Market",
    "kma_name": "Wichita Market",
    "region": "KS",
    "freight_score": 78,
    "population": 11117,
    "zip_zone": "Z6"
  },
  {
    "city": "Merriam",
    "state": "KS",
    "zip": "66203",
    "lat": 39.0186,
    "lon": -94.6933,
    "kma": "Kansas City Market",
    "kma_name": "Kansas City Market",
    "region": "KS",
    "freight_score": 78,
    "population": 11036,
    "zip_zone": "Z6"
  },
  {
    "city": "Atchison",
    "state": "KS",
    "zip": "66002",
    "lat": 39.5625,
    "lon": -95.1367,
    "kma": "Kansas City Market",
    "kma_name": "Kansas City Market",
    "region": "KS",
    "freight_score": 78,
    "population": 10795,
    "zip_zone": "Z6"
  },
  {
    "city": "Mission",
    "state": "KS",
    "zip": "66202",
    "lat": 39.027,
    "lon": -94.6568,
    "kma": "Kansas City Market",
    "kma_name": "Kansas City Market",
    "region": "KS",
    "freight_score": 77,
    "population": 9928,
    "zip_zone": "Z6"
  },
  {
    "city": "Parsons",
    "state": "KS",
    "zip": "67335",
    "lat": 37.3405,
    "lon": -95.2958,
    "kma": "Fayetteville Market",
    "kma_name": "Fayetteville Market",
    "region": "KS",
    "freight_score": 77,
    "population": 9482,
    "zip_zone": "Z6"
  },
  {
    "city": "Augusta",
    "state": "KS",
    "zip": "67002",
    "lat": 37.6955,
    "lon": -96.9919,
    "kma": "Wichita Market",
    "kma_name": "Wichita Market",
    "region": "KS",
    "freight_score": 77,
    "population": 9252,
    "zip_zone": "Z6"
  },
  {
    "city": "Valley Center",
    "state": "KS",
    "zip": "67147",
    "lat": 37.8332,
    "lon": -97.3646,
    "kma": "Wichita Market",
    "kma_name": "Wichita Market",
    "region": "KS",
    "freight_score": 77,
    "population": 8937,
    "zip_zone": "Z6"
  },
  {
    "city": "Coffeyville",
    "state": "KS",
    "zip": "67337",
    "lat": 37.0519,
    "lon": -95.618,
    "kma": "Wichita Market",
    "kma_name": "Wichita Market",
    "region": "KS",
    "freight_score": 77,
    "population": 8752,
    "zip_zone": "Z6"
  },
  {
    "city": "Spring Hill",
    "state": "KS",
    "zip": "66083",
    "lat": 38.7565,
    "lon": -94.8201,
    "kma": "Kansas City Market",
    "kma_name": "Kansas City Market",
    "region": "KS",
    "freight_score": 77,
    "population": 8691,
    "zip_zone": "Z6"
  },
  {
    "city": "Chanute",
    "state": "KS",
    "zip": "66720",
    "lat": 37.6695,
    "lon": -95.4621,
    "kma": "Wichita Market",
    "kma_name": "Wichita Market",
    "region": "KS",
    "freight_score": 77,
    "population": 8629,
    "zip_zone": "Z6"
  },
  {
    "city": "Fort Riley",
    "state": "KS",
    "zip": "66442",
    "lat": 39.1064,
    "lon": -96.8117,
    "kma": "Hutchinson Market",
    "kma_name": "Hutchinson Market",
    "region": "KS",
    "freight_score": 77,
    "population": 8595,
    "zip_zone": "Z6"
  },
  {
    "city": "Independence",
    "state": "KS",
    "zip": "67301",
    "lat": 37.2119,
    "lon": -95.7327,
    "kma": "Wichita Market",
    "kma_name": "Wichita Market",
    "region": "KS",
    "freight_score": 77,
    "population": 8469,
    "zip_zone": "Z6"
  },
  {
    "city": "Bonner Springs",
    "state": "KS",
    "zip": "66012",
    "lat": 39.0817,
    "lon": -94.8776,
    "kma": "Kansas City Market",
    "kma_name": "Kansas City Market",
    "region": "KS",
    "freight_score": 77,
    "population": 7735,
    "zip_zone": "Z6"
  },
  {
    "city": "Park City",
    "state": "KS",
    "zip": "67219",
    "lat": 37.8101,
    "lon": -97.3256,
    "kma": "Wichita Market",
    "kma_name": "Wichita Market",
    "region": "KS",
    "freight_score": 77,
    "population": 7726,
    "zip_zone": "Z6"
  },
  {
    "city": "Wellington",
    "state": "KS",
    "zip": "67103",
    "lat": 37.2625,
    "lon": -97.426,
    "kma": "Wichita Market",
    "kma_name": "Wichita Market",
    "region": "KS",
    "freight_score": 77,
    "population": 7643,
    "zip_zone": "Z6"
  },
  {
    "city": "Fort Scott",
    "state": "KS",
    "zip": "66701",
    "lat": 37.8283,
    "lon": -94.7038,
    "kma": "Kansas City Market",
    "kma_name": "Kansas City Market",
    "region": "KS",
    "freight_score": 77,
    "population": 7551,
    "zip_zone": "Z6"
  },
  {
    "city": "Basehor",
    "state": "KS",
    "zip": "66007",
    "lat": 39.1332,
    "lon": -94.9333,
    "kma": "Kansas City Market",
    "kma_name": "Kansas City Market",
    "region": "KS",
    "freight_score": 77,
    "population": 7229,
    "zip_zone": "Z6"
  },
  {
    "city": "Roeland Park",
    "state": "KS",
    "zip": "66205",
    "lat": 39.0359,
    "lon": -94.6374,
    "kma": "Kansas City Market",
    "kma_name": "Kansas City Market",
    "region": "KS",
    "freight_score": 77,
    "population": 6800,
    "zip_zone": "Z6"
  },
  {
    "city": "Pratt",
    "state": "KS",
    "zip": "67124",
    "lat": 37.6765,
    "lon": -98.7451,
    "kma": "Hutchinson Market",
    "kma_name": "Hutchinson Market",
    "region": "KS",
    "freight_score": 77,
    "population": 6559,
    "zip_zone": "Z6"
  },
  {
    "city": "Abilene",
    "state": "KS",
    "zip": "67410",
    "lat": 38.923,
    "lon": -97.2252,
    "kma": "Hutchinson Market",
    "kma_name": "Hutchinson Market",
    "region": "KS",
    "freight_score": 77,
    "population": 6449,
    "zip_zone": "Z6"
  },
  {
    "city": "De Soto",
    "state": "KS",
    "zip": "66025",
    "lat": 38.9688,
    "lon": -94.9549,
    "kma": "Kansas City Market",
    "kma_name": "Kansas City Market",
    "region": "KS",
    "freight_score": 77,
    "population": 6333,
    "zip_zone": "Z6"
  },
  {
    "city": "Eudora",
    "state": "KS",
    "zip": "66025",
    "lat": 38.9345,
    "lon": -95.0956,
    "kma": "Kansas City Market",
    "kma_name": "Kansas City Market",
    "region": "KS",
    "freight_score": 77,
    "population": 6036,
    "zip_zone": "Z6"
  },
  {
    "city": "Maize",
    "state": "KS",
    "zip": "67101",
    "lat": 37.7749,
    "lon": -97.462,
    "kma": "Wichita Market",
    "kma_name": "Wichita Market",
    "region": "KS",
    "freight_score": 76,
    "population": 5990,
    "zip_zone": "Z6"
  },
  {
    "city": "Mulvane",
    "state": "KS",
    "zip": "67110",
    "lat": 37.4789,
    "lon": -97.2724,
    "kma": "Wichita Market",
    "kma_name": "Wichita Market",
    "region": "KS",
    "freight_score": 76,
    "population": 5829,
    "zip_zone": "Z6"
  },
  {
    "city": "Ulysses",
    "state": "KS",
    "zip": "67880",
    "lat": 37.5774,
    "lon": -101.3546,
    "kma": "Amarillo Market",
    "kma_name": "Amarillo Market",
    "region": "KS",
    "freight_score": 76,
    "population": 5812,
    "zip_zone": "Z6"
  },
  {
    "city": "Paola",
    "state": "KS",
    "zip": "66071",
    "lat": 38.5788,
    "lon": -94.8617,
    "kma": "Kansas City Market",
    "kma_name": "Kansas City Market",
    "region": "KS",
    "freight_score": 76,
    "population": 5757,
    "zip_zone": "Z6"
  },
  {
    "city": "Tonganoxie",
    "state": "KS",
    "zip": "66086",
    "lat": 39.1088,
    "lon": -95.0811,
    "kma": "Kansas City Market",
    "kma_name": "Kansas City Market",
    "region": "KS",
    "freight_score": 76,
    "population": 5693,
    "zip_zone": "Z6"
  },
  {
    "city": "Colby",
    "state": "KS",
    "zip": "67701",
    "lat": 39.3848,
    "lon": -101.0452,
    "kma": "N Platte Market",
    "kma_name": "N Platte Market",
    "region": "KS",
    "freight_score": 76,
    "population": 5389,
    "zip_zone": "Z6"
  },
  {
    "city": "Iola",
    "state": "KS",
    "zip": "66749",
    "lat": 37.9274,
    "lon": -95.4006,
    "kma": "Kansas City Market",
    "kma_name": "Kansas City Market",
    "region": "KS",
    "freight_score": 76,
    "population": 5368,
    "zip_zone": "Z6"
  },
  {
    "city": "Goddard",
    "state": "KS",
    "zip": "67052",
    "lat": 37.6652,
    "lon": -97.5617,
    "kma": "Wichita Market",
    "kma_name": "Wichita Market",
    "region": "KS",
    "freight_score": 76,
    "population": 5361,
    "zip_zone": "Z6"
  },
  {
    "city": "Concordia",
    "state": "KS",
    "zip": "66901",
    "lat": 39.5669,
    "lon": -97.6467,
    "kma": "Grand Island Market",
    "kma_name": "Grand Island Market",
    "region": "KS",
    "freight_score": 76,
    "population": 5067,
    "zip_zone": "Z6"
  },
  {
    "city": "Louisburg",
    "state": "KS",
    "zip": "66053",
    "lat": 38.6202,
    "lon": -94.677,
    "kma": "Kansas City Market",
    "kma_name": "Kansas City Market",
    "region": "KS",
    "freight_score": 76,
    "population": 5034,
    "zip_zone": "Z6"
  },
  {
    "city": "Baldwin City",
    "state": "KS",
    "zip": "66006",
    "lat": 38.7782,
    "lon": -95.188,
    "kma": "Kansas City Market",
    "kma_name": "Kansas City Market",
    "region": "KS",
    "freight_score": 76,
    "population": 4881,
    "zip_zone": "Z6"
  },
  {
    "city": "Edwardsville",
    "state": "KS",
    "zip": "66111",
    "lat": 39.0765,
    "lon": -94.8166,
    "kma": "Kansas City Market",
    "kma_name": "Kansas City Market",
    "region": "KS",
    "freight_score": 76,
    "population": 4721,
    "zip_zone": "Z6"
  },
  {
    "city": "Rose Hill",
    "state": "KS",
    "zip": "67133",
    "lat": 37.5702,
    "lon": -97.1361,
    "kma": "Wichita Market",
    "kma_name": "Wichita Market",
    "region": "KS",
    "freight_score": 76,
    "population": 4353,
    "zip_zone": "Z6"
  },
  {
    "city": "Russell",
    "state": "KS",
    "zip": "67665",
    "lat": 38.8874,
    "lon": -98.8514,
    "kma": "Hutchinson Market",
    "kma_name": "Hutchinson Market",
    "region": "KS",
    "freight_score": 76,
    "population": 4258,
    "zip_zone": "Z6"
  },
  {
    "city": "Osawatomie",
    "state": "KS",
    "zip": "66064",
    "lat": 38.5063,
    "lon": -94.9486,
    "kma": "Kansas City Market",
    "kma_name": "Kansas City Market",
    "region": "KS",
    "freight_score": 76,
    "population": 4244,
    "zip_zone": "Z6"
  },
  {
    "city": "Wamego",
    "state": "KS",
    "zip": "66547",
    "lat": 39.2054,
    "lon": -96.3099,
    "kma": "Kansas City Market",
    "kma_name": "Kansas City Market",
    "region": "KS",
    "freight_score": 76,
    "population": 4205,
    "zip_zone": "Z6"
  },
  {
    "city": "Fairway",
    "state": "KS",
    "zip": "66205",
    "lat": 39.0245,
    "lon": -94.6287,
    "kma": "Kansas City Market",
    "kma_name": "Kansas City Market",
    "region": "KS",
    "freight_score": 76,
    "population": 4177,
    "zip_zone": "Z6"
  },
  {
    "city": "Clay Center",
    "state": "KS",
    "zip": "67432",
    "lat": 39.3812,
    "lon": -97.1276,
    "kma": "Hutchinson Market",
    "kma_name": "Hutchinson Market",
    "region": "KS",
    "freight_score": 76,
    "population": 4148,
    "zip_zone": "Z6"
  },
  {
    "city": "Hugoton",
    "state": "KS",
    "zip": "67951",
    "lat": 37.1745,
    "lon": -101.3447,
    "kma": "Amarillo Market",
    "kma_name": "Amarillo Market",
    "region": "KS",
    "freight_score": 76,
    "population": 4065,
    "zip_zone": "Z6"
  },
  {
    "city": "Scott City",
    "state": "KS",
    "zip": "67871",
    "lat": 38.4789,
    "lon": -100.9031,
    "kma": "Hutchinson Market",
    "kma_name": "Hutchinson Market",
    "region": "KS",
    "freight_score": 76,
    "population": 3955,
    "zip_zone": "Z6"
  },
  {
    "city": "Goodland",
    "state": "KS",
    "zip": "67735",
    "lat": 39.3489,
    "lon": -101.7143,
    "kma": "N Platte Market",
    "kma_name": "N Platte Market",
    "region": "KS",
    "freight_score": 76,
    "population": 3878,
    "zip_zone": "Z6"
  },
  {
    "city": "Baxter Springs",
    "state": "KS",
    "zip": "66713",
    "lat": 37.0195,
    "lon": -94.7351,
    "kma": "Fayetteville Market",
    "kma_name": "Fayetteville Market",
    "region": "KS",
    "freight_score": 76,
    "population": 3863,
    "zip_zone": "Z6"
  },
  {
    "city": "Lindsborg",
    "state": "KS",
    "zip": "67456",
    "lat": 38.5774,
    "lon": -97.6738,
    "kma": "Hutchinson Market",
    "kma_name": "Hutchinson Market",
    "region": "KS",
    "freight_score": 76,
    "population": 3773,
    "zip_zone": "Z6"
  },
  {
    "city": "Hesston",
    "state": "KS",
    "zip": "67062",
    "lat": 38.1401,
    "lon": -97.427,
    "kma": "Hutchinson Market",
    "kma_name": "Hutchinson Market",
    "region": "KS",
    "freight_score": 76,
    "population": 3747,
    "zip_zone": "Z6"
  },
  {
    "city": "Lyons",
    "state": "KS",
    "zip": "67554",
    "lat": 38.3462,
    "lon": -98.2045,
    "kma": "Hutchinson Market",
    "kma_name": "Hutchinson Market",
    "region": "KS",
    "freight_score": 76,
    "population": 3562,
    "zip_zone": "Z6"
  },
  {
    "city": "Mission Hills",
    "state": "KS",
    "zip": "66208",
    "lat": 39.0141,
    "lon": -94.6172,
    "kma": "Kansas City Market",
    "kma_name": "Kansas City Market",
    "region": "KS",
    "freight_score": 76,
    "population": 3556,
    "zip_zone": "Z6"
  },
  {
    "city": "Marysville",
    "state": "KS",
    "zip": "66508",
    "lat": 39.8432,
    "lon": -96.6387,
    "kma": "Omaha Market",
    "kma_name": "Omaha Market",
    "region": "KS",
    "freight_score": 76,
    "population": 3423,
    "zip_zone": "Z6"
  },
  {
    "city": "Holton",
    "state": "KS",
    "zip": "66436",
    "lat": 39.4699,
    "lon": -95.7319,
    "kma": "Kansas City Market",
    "kma_name": "Kansas City Market",
    "region": "KS",
    "freight_score": 76,
    "population": 3384,
    "zip_zone": "Z6"
  },
  {
    "city": "Frontenac",
    "state": "KS",
    "zip": "66763",
    "lat": 37.4581,
    "lon": -94.7012,
    "kma": "Fayetteville Market",
    "kma_name": "Fayetteville Market",
    "region": "KS",
    "freight_score": 76,
    "population": 3381,
    "zip_zone": "Z6"
  },
  {
    "city": "Larned",
    "state": "KS",
    "zip": "67550",
    "lat": 38.1833,
    "lon": -99.1012,
    "kma": "Hutchinson Market",
    "kma_name": "Hutchinson Market",
    "region": "KS",
    "freight_score": 76,
    "population": 3328,
    "zip_zone": "Z6"
  },
  {
    "city": "Hiawatha",
    "state": "KS",
    "zip": "66434",
    "lat": 39.8519,
    "lon": -95.538,
    "kma": "Kansas City Market",
    "kma_name": "Kansas City Market",
    "region": "KS",
    "freight_score": 76,
    "population": 3223,
    "zip_zone": "Z6"
  },
  {
    "city": "Garnett",
    "state": "KS",
    "zip": "66032",
    "lat": 38.2845,
    "lon": -95.2408,
    "kma": "Kansas City Market",
    "kma_name": "Kansas City Market",
    "region": "KS",
    "freight_score": 76,
    "population": 3200,
    "zip_zone": "Z6"
  },
  {
    "city": "Beloit",
    "state": "KS",
    "zip": "67420",
    "lat": 39.4645,
    "lon": -98.1082,
    "kma": "Hutchinson Market",
    "kma_name": "Hutchinson Market",
    "region": "KS",
    "freight_score": 76,
    "population": 3141,
    "zip_zone": "Z6"
  },
  {
    "city": "Ellsworth",
    "state": "KS",
    "zip": "67439",
    "lat": 38.7327,
    "lon": -98.2285,
    "kma": "Hutchinson Market",
    "kma_name": "Hutchinson Market",
    "region": "KS",
    "freight_score": 76,
    "population": 3098,
    "zip_zone": "Z6"
  },
  {
    "city": "Kingman",
    "state": "KS",
    "zip": "67068",
    "lat": 37.648,
    "lon": -98.1167,
    "kma": "Hutchinson Market",
    "kma_name": "Hutchinson Market",
    "region": "KS",
    "freight_score": 76,
    "population": 3003,
    "zip_zone": "Z6"
  },
  {
    "city": "Oaklawn-Sunview",
    "state": "KS",
    "zip": "67216",
    "lat": 37.6084,
    "lon": -97.2984,
    "kma": "Wichita Market",
    "kma_name": "Wichita Market",
    "region": "KS",
    "freight_score": 76,
    "population": 2952,
    "zip_zone": "Z6"
  },
  {
    "city": "Kechi",
    "state": "KS",
    "zip": "67067",
    "lat": 37.8234,
    "lon": -97.2891,
    "kma": "Wichita Market",
    "kma_name": "Wichita Market",
    "region": "KS",
    "freight_score": 76,
    "population": 2935,
    "zip_zone": "Z6"
  },
  {
    "city": "Columbus",
    "state": "KS",
    "zip": "66725",
    "lat": 37.1716,
    "lon": -94.844,
    "kma": "Fayetteville Market",
    "kma_name": "Fayetteville Market",
    "region": "KS",
    "freight_score": 76,
    "population": 2902,
    "zip_zone": "Z6"
  },
  {
    "city": "Osage City",
    "state": "KS",
    "zip": "66523",
    "lat": 38.6337,
    "lon": -95.8218,
    "kma": "Kansas City Market",
    "kma_name": "Kansas City Market",
    "region": "KS",
    "freight_score": 76,
    "population": 2837,
    "zip_zone": "Z6"
  },
  {
    "city": "South Hutchinson",
    "state": "KS",
    "zip": "67505",
    "lat": 38.0278,
    "lon": -97.9429,
    "kma": "Hutchinson Market",
    "kma_name": "Hutchinson Market",
    "region": "KS",
    "freight_score": 76,
    "population": 2826,
    "zip_zone": "Z6"
  },
  {
    "city": "St. Marys",
    "state": "KS",
    "zip": "66536",
    "lat": 39.1942,
    "lon": -96.0643,
    "kma": "Kansas City Market",
    "kma_name": "Kansas City Market",
    "region": "KS",
    "freight_score": 76,
    "population": 2795,
    "zip_zone": "Z6"
  },
  {
    "city": "Galena",
    "state": "KS",
    "zip": "66739",
    "lat": 37.0751,
    "lon": -94.6354,
    "kma": "Fayetteville Market",
    "kma_name": "Fayetteville Market",
    "region": "KS",
    "freight_score": 76,
    "population": 2752,
    "zip_zone": "Z6"
  },
  {
    "city": "Hillsboro",
    "state": "KS",
    "zip": "67063",
    "lat": 38.3527,
    "lon": -97.1992,
    "kma": "Hutchinson Market",
    "kma_name": "Hutchinson Market",
    "region": "KS",
    "freight_score": 76,
    "population": 2716,
    "zip_zone": "Z6"
  },
  {
    "city": "Girard",
    "state": "KS",
    "zip": "66743",
    "lat": 37.5094,
    "lon": -94.8456,
    "kma": "Fayetteville Market",
    "kma_name": "Fayetteville Market",
    "region": "KS",
    "freight_score": 76,
    "population": 2706,
    "zip_zone": "Z6"
  },
  {
    "city": "Norton",
    "state": "KS",
    "zip": "67654",
    "lat": 39.8362,
    "lon": -99.8916,
    "kma": "N Platte Market",
    "kma_name": "N Platte Market",
    "region": "KS",
    "freight_score": 76,
    "population": 2704,
    "zip_zone": "Z6"
  },
  {
    "city": "Hoisington",
    "state": "KS",
    "zip": "67544",
    "lat": 38.5181,
    "lon": -98.7774,
    "kma": "Hutchinson Market",
    "kma_name": "Hutchinson Market",
    "region": "KS",
    "freight_score": 76,
    "population": 2660,
    "zip_zone": "Z6"
  },
  {
    "city": "Burlington",
    "state": "KS",
    "zip": "66839",
    "lat": 38.1931,
    "lon": -95.7452,
    "kma": "Kansas City Market",
    "kma_name": "Kansas City Market",
    "region": "KS",
    "freight_score": 76,
    "population": 2615,
    "zip_zone": "Z6"
  },
  {
    "city": "Holcomb",
    "state": "KS",
    "zip": "67851",
    "lat": 37.9859,
    "lon": -100.9936,
    "kma": "Hutchinson Market",
    "kma_name": "Hutchinson Market",
    "region": "KS",
    "freight_score": 76,
    "population": 2582,
    "zip_zone": "Z6"
  },
  {
    "city": "Clearwater",
    "state": "KS",
    "zip": "67026",
    "lat": 37.5096,
    "lon": -97.4975,
    "kma": "Wichita Market",
    "kma_name": "Wichita Market",
    "region": "KS",
    "freight_score": 76,
    "population": 2536,
    "zip_zone": "Z6"
  },
  {
    "city": "Council Grove",
    "state": "KS",
    "zip": "66846",
    "lat": 38.6617,
    "lon": -96.4909,
    "kma": "Wichita Market",
    "kma_name": "Wichita Market",
    "region": "KS",
    "freight_score": 76,
    "population": 2487,
    "zip_zone": "Z6"
  },
  {
    "city": "Halstead",
    "state": "KS",
    "zip": "67056",
    "lat": 37.9999,
    "lon": -97.5102,
    "kma": "Hutchinson Market",
    "kma_name": "Hutchinson Market",
    "region": "KS",
    "freight_score": 76,
    "population": 2435,
    "zip_zone": "Z6"
  },
  {
    "city": "Sterling",
    "state": "KS",
    "zip": "67579",
    "lat": 38.2094,
    "lon": -98.2064,
    "kma": "Hutchinson Market",
    "kma_name": "Hutchinson Market",
    "region": "KS",
    "freight_score": 76,
    "population": 2396,
    "zip_zone": "Z6"
  },
  {
    "city": "Cheney",
    "state": "KS",
    "zip": "67025",
    "lat": 37.6353,
    "lon": -97.7797,
    "kma": "Wichita Market",
    "kma_name": "Wichita Market",
    "region": "KS",
    "freight_score": 76,
    "population": 2386,
    "zip_zone": "Z6"
  },
  {
    "city": "Sabetha",
    "state": "KS",
    "zip": "66534",
    "lat": 39.913,
    "lon": -95.7913,
    "kma": "Kansas City Market",
    "kma_name": "Kansas City Market",
    "region": "KS",
    "freight_score": 76,
    "population": 2326,
    "zip_zone": "Z6"
  },
  {
    "city": "Neodesha",
    "state": "KS",
    "zip": "66757",
    "lat": 37.4241,
    "lon": -95.6848,
    "kma": "Wichita Market",
    "kma_name": "Wichita Market",
    "region": "KS",
    "freight_score": 76,
    "population": 2311,
    "zip_zone": "Z6"
  },
  {
    "city": "Eureka",
    "state": "KS",
    "zip": "67045",
    "lat": 37.8261,
    "lon": -96.289,
    "kma": "Wichita Market",
    "kma_name": "Wichita Market",
    "region": "KS",
    "freight_score": 76,
    "population": 2271,
    "zip_zone": "Z6"
  },
  {
    "city": "Anthony",
    "state": "KS",
    "zip": "67003",
    "lat": 37.1588,
    "lon": -98.0418,
    "kma": "Wichita Market",
    "kma_name": "Wichita Market",
    "region": "KS",
    "freight_score": 76,
    "population": 2228,
    "zip_zone": "Z6"
  },
  {
    "city": "North Newton",
    "state": "KS",
    "zip": "67117",
    "lat": 38.0766,
    "lon": -97.3475,
    "kma": "Wichita Market",
    "kma_name": "Wichita Market",
    "region": "KS",
    "freight_score": 76,
    "population": 2150,
    "zip_zone": "Z6"
  },
  {
    "city": "Ellis",
    "state": "KS",
    "zip": "67637",
    "lat": 38.9346,
    "lon": -99.5568,
    "kma": "Hutchinson Market",
    "kma_name": "Hutchinson Market",
    "region": "KS",
    "freight_score": 76,
    "population": 2145,
    "zip_zone": "Z6"
  },
  {
    "city": "Seneca",
    "state": "KS",
    "zip": "66538",
    "lat": 39.838,
    "lon": -96.0696,
    "kma": "Kansas City Market",
    "kma_name": "Kansas City Market",
    "region": "KS",
    "freight_score": 76,
    "population": 2139,
    "zip_zone": "Z6"
  },
  {
    "city": "Phillipsburg",
    "state": "KS",
    "zip": "67661",
    "lat": 39.7512,
    "lon": -99.321,
    "kma": "Grand Island Market",
    "kma_name": "Grand Island Market",
    "region": "KS",
    "freight_score": 76,
    "population": 2132,
    "zip_zone": "Z6"
  },
  {
    "city": "Cherryvale",
    "state": "KS",
    "zip": "67335",
    "lat": 37.269,
    "lon": -95.5536,
    "kma": "Wichita Market",
    "kma_name": "Wichita Market",
    "region": "KS",
    "freight_score": 76,
    "population": 2125,
    "zip_zone": "Z6"
  },
  {
    "city": "Ellinwood",
    "state": "KS",
    "zip": "67526",
    "lat": 38.3574,
    "lon": -98.5837,
    "kma": "Hutchinson Market",
    "kma_name": "Hutchinson Market",
    "region": "KS",
    "freight_score": 76,
    "population": 2117,
    "zip_zone": "Z6"
  },
  {
    "city": "Fredonia",
    "state": "KS",
    "zip": "66736",
    "lat": 37.5327,
    "lon": -95.822,
    "kma": "Wichita Market",
    "kma_name": "Wichita Market",
    "region": "KS",
    "freight_score": 76,
    "population": 2113,
    "zip_zone": "Z6"
  },
  {
    "city": "Herington",
    "state": "KS",
    "zip": "67449",
    "lat": 38.6862,
    "lon": -96.8669,
    "kma": "Hutchinson Market",
    "kma_name": "Hutchinson Market",
    "region": "KS",
    "freight_score": 76,
    "population": 2105,
    "zip_zone": "Z6"
  },
  {
    "city": "Minneapolis",
    "state": "KS",
    "zip": "67467",
    "lat": 39.1243,
    "lon": -97.6997,
    "kma": "Hutchinson Market",
    "kma_name": "Hutchinson Market",
    "region": "KS",
    "freight_score": 76,
    "population": 2101,
    "zip_zone": "Z6"
  },
  {
    "city": "Lakin",
    "state": "KS",
    "zip": "67860",
    "lat": 37.94,
    "lon": -101.2585,
    "kma": "Hutchinson Market",
    "kma_name": "Hutchinson Market",
    "region": "KS",
    "freight_score": 76,
    "population": 2069,
    "zip_zone": "Z6"
  },
  {
    "city": "Oakley",
    "state": "KS",
    "zip": "67748",
    "lat": 39.1233,
    "lon": -100.8449,
    "kma": "N Platte Market",
    "kma_name": "N Platte Market",
    "region": "KS",
    "freight_score": 76,
    "population": 2049,
    "zip_zone": "Z6"
  },
  {
    "city": "Belleville",
    "state": "KS",
    "zip": "66935",
    "lat": 39.8245,
    "lon": -97.6337,
    "kma": "Grand Island Market",
    "kma_name": "Grand Island Market",
    "region": "KS",
    "freight_score": 76,
    "population": 2036,
    "zip_zone": "Z6"
  },
  {
    "city": "Marion",
    "state": "KS",
    "zip": "66861",
    "lat": 38.3547,
    "lon": -97.0082,
    "kma": "Wichita Market",
    "kma_name": "Wichita Market",
    "region": "KS",
    "freight_score": 76,
    "population": 2010,
    "zip_zone": "Z6"
  },
  {
    "city": "Wellsville",
    "state": "KS",
    "zip": "66092",
    "lat": 38.7175,
    "lon": -95.0778,
    "kma": "Kansas City Market",
    "kma_name": "Kansas City Market",
    "region": "KS",
    "freight_score": 76,
    "population": 2003,
    "zip_zone": "Z6"
  },
  {
    "city": "Humboldt",
    "state": "KS",
    "zip": "66748",
    "lat": 37.8125,
    "lon": -95.4363,
    "kma": "Kansas City Market",
    "kma_name": "Kansas City Market",
    "region": "KS",
    "freight_score": 75,
    "population": 1956,
    "zip_zone": "Z6"
  },
  {
    "city": "McConnell AFB",
    "state": "KS",
    "zip": "67210",
    "lat": 37.625,
    "lon": -97.26,
    "kma": "Wichita Market",
    "kma_name": "Wichita Market",
    "region": "KS",
    "freight_score": 75,
    "population": 1952,
    "zip_zone": "Z6"
  },
  {
    "city": "Cimarron",
    "state": "KS",
    "zip": "67835",
    "lat": 37.8097,
    "lon": -100.3453,
    "kma": "Hutchinson Market",
    "kma_name": "Hutchinson Market",
    "region": "KS",
    "freight_score": 75,
    "population": 1942,
    "zip_zone": "Z6"
  },
  {
    "city": "Westwood",
    "state": "KS",
    "zip": "66205",
    "lat": 39.0394,
    "lon": -94.6156,
    "kma": "Kansas City Market",
    "kma_name": "Kansas City Market",
    "region": "KS",
    "freight_score": 75,
    "population": 1851,
    "zip_zone": "Z6"
  },
  {
    "city": "WaKeeney",
    "state": "KS",
    "zip": "67672",
    "lat": 39.0234,
    "lon": -99.8815,
    "kma": "Hutchinson Market",
    "kma_name": "Hutchinson Market",
    "region": "KS",
    "freight_score": 75,
    "population": 1838,
    "zip_zone": "Z6"
  },
  {
    "city": "Grandview Plaza",
    "state": "KS",
    "zip": "66441",
    "lat": 39.0327,
    "lon": -96.793,
    "kma": "Hutchinson Market",
    "kma_name": "Hutchinson Market",
    "region": "KS",
    "freight_score": 75,
    "population": 1801,
    "zip_zone": "Z6"
  },
  {
    "city": "Edgerton",
    "state": "KS",
    "zip": "66021",
    "lat": 38.7717,
    "lon": -94.9706,
    "kma": "Kansas City Market",
    "kma_name": "Kansas City Market",
    "region": "KS",
    "freight_score": 75,
    "population": 1787,
    "zip_zone": "Z6"
  },
  {
    "city": "Oswego",
    "state": "KS",
    "zip": "67356",
    "lat": 37.1674,
    "lon": -95.1123,
    "kma": "Fayetteville Market",
    "kma_name": "Fayetteville Market",
    "region": "KS",
    "freight_score": 75,
    "population": 1770,
    "zip_zone": "Z6"
  },
  {
    "city": "Plainville",
    "state": "KS",
    "zip": "67663",
    "lat": 39.2341,
    "lon": -99.3009,
    "kma": "Hutchinson Market",
    "kma_name": "Hutchinson Market",
    "region": "KS",
    "freight_score": 75,
    "population": 1766,
    "zip_zone": "Z6"
  },
  {
    "city": "Oberlin",
    "state": "KS",
    "zip": "67749",
    "lat": 39.823,
    "lon": -100.5308,
    "kma": "N Platte Market",
    "kma_name": "N Platte Market",
    "region": "KS",
    "freight_score": 75,
    "population": 1763,
    "zip_zone": "Z6"
  },
  {
    "city": "Towanda",
    "state": "KS",
    "zip": "67144",
    "lat": 37.7954,
    "lon": -96.9963,
    "kma": "Wichita Market",
    "kma_name": "Wichita Market",
    "region": "KS",
    "freight_score": 75,
    "population": 1748,
    "zip_zone": "Z6"
  },
  {
    "city": "Elkhart",
    "state": "KS",
    "zip": "67950",
    "lat": 37.0038,
    "lon": -101.8944,
    "kma": "Amarillo Market",
    "kma_name": "Amarillo Market",
    "region": "KS",
    "freight_score": 75,
    "population": 1732,
    "zip_zone": "Z6"
  },
  {
    "city": "Horton",
    "state": "KS",
    "zip": "66439",
    "lat": 39.6635,
    "lon": -95.5326,
    "kma": "Kansas City Market",
    "kma_name": "Kansas City Market",
    "region": "KS",
    "freight_score": 75,
    "population": 1708,
    "zip_zone": "Z6"
  },
  {
    "city": "Syracuse",
    "state": "KS",
    "zip": "67878",
    "lat": 37.962,
    "lon": -101.7782,
    "kma": "Amarillo Market",
    "kma_name": "Amarillo Market",
    "region": "KS",
    "freight_score": 75,
    "population": 1706,
    "zip_zone": "Z6"
  },
  {
    "city": "Sedgwick",
    "state": "KS",
    "zip": "67135",
    "lat": 37.918,
    "lon": -97.4201,
    "kma": "Wichita Market",
    "kma_name": "Wichita Market",
    "region": "KS",
    "freight_score": 75,
    "population": 1702,
    "zip_zone": "Z6"
  },
  {
    "city": "Moundridge",
    "state": "KS",
    "zip": "67107",
    "lat": 38.2021,
    "lon": -97.515,
    "kma": "Hutchinson Market",
    "kma_name": "Hutchinson Market",
    "region": "KS",
    "freight_score": 75,
    "population": 1654,
    "zip_zone": "Z6"
  },
  {
    "city": "Ogden",
    "state": "KS",
    "zip": "66517",
    "lat": 39.1128,
    "lon": -96.7028,
    "kma": "Hutchinson Market",
    "kma_name": "Hutchinson Market",
    "region": "KS",
    "freight_score": 75,
    "population": 1628,
    "zip_zone": "Z6"
  },
  {
    "city": "Colwich",
    "state": "KS",
    "zip": "67030",
    "lat": 37.7818,
    "lon": -97.5363,
    "kma": "Wichita Market",
    "kma_name": "Wichita Market",
    "region": "KS",
    "freight_score": 75,
    "population": 1616,
    "zip_zone": "Z6"
  },
  {
    "city": "Conway Springs",
    "state": "KS",
    "zip": "67031",
    "lat": 37.3899,
    "lon": -97.643,
    "kma": "Wichita Market",
    "kma_name": "Wichita Market",
    "region": "KS",
    "freight_score": 75,
    "population": 1597,
    "zip_zone": "Z6"
  },
  {
    "city": "Smith Center",
    "state": "KS",
    "zip": "66967",
    "lat": 39.774,
    "lon": -98.7831,
    "kma": "Grand Island Market",
    "kma_name": "Grand Island Market",
    "region": "KS",
    "freight_score": 75,
    "population": 1585,
    "zip_zone": "Z6"
  },
  {
    "city": "Silver Lake",
    "state": "KS",
    "zip": "66539",
    "lat": 39.0994,
    "lon": -95.8563,
    "kma": "Kansas City Market",
    "kma_name": "Kansas City Market",
    "region": "KS",
    "freight_score": 75,
    "population": 1549,
    "zip_zone": "Z6"
  },
  {
    "city": "Hill City",
    "state": "KS",
    "zip": "67642",
    "lat": 39.367,
    "lon": -99.846,
    "kma": "N Platte Market",
    "kma_name": "N Platte Market",
    "region": "KS",
    "freight_score": 75,
    "population": 1536,
    "zip_zone": "Z6"
  },
  {
    "city": "Douglass",
    "state": "KS",
    "zip": "67039",
    "lat": 37.5169,
    "lon": -97.0105,
    "kma": "Wichita Market",
    "kma_name": "Wichita Market",
    "region": "KS",
    "freight_score": 75,
    "population": 1523,
    "zip_zone": "Z6"
  },
  {
    "city": "Stockton",
    "state": "KS",
    "zip": "67669",
    "lat": 39.4251,
    "lon": -99.2764,
    "kma": "Grand Island Market",
    "kma_name": "Grand Island Market",
    "region": "KS",
    "freight_score": 75,
    "population": 1521,
    "zip_zone": "Z6"
  },
  {
    "city": "Medicine Lodge",
    "state": "KS",
    "zip": "67104",
    "lat": 37.2851,
    "lon": -98.5812,
    "kma": "Hutchinson Market",
    "kma_name": "Hutchinson Market",
    "region": "KS",
    "freight_score": 75,
    "population": 1518,
    "zip_zone": "Z6"
  },
  {
    "city": "Osborne",
    "state": "KS",
    "zip": "67473",
    "lat": 39.4404,
    "lon": -98.6994,
    "kma": "Hutchinson Market",
    "kma_name": "Hutchinson Market",
    "region": "KS",
    "freight_score": 75,
    "population": 1496,
    "zip_zone": "Z6"
  },
  {
    "city": "Belle Plaine",
    "state": "KS",
    "zip": "67013",
    "lat": 37.3934,
    "lon": -97.2795,
    "kma": "Wichita Market",
    "kma_name": "Wichita Market",
    "region": "KS",
    "freight_score": 75,
    "population": 1486,
    "zip_zone": "Z6"
  },
  {
    "city": "Wathena",
    "state": "KS",
    "zip": "66090",
    "lat": 39.7602,
    "lon": -94.9396,
    "kma": "Kansas City Market",
    "kma_name": "Kansas City Market",
    "region": "KS",
    "freight_score": 75,
    "population": 1463,
    "zip_zone": "Z6"
  },
  {
    "city": "Leoti",
    "state": "KS",
    "zip": "67861",
    "lat": 38.4834,
    "lon": -101.3579,
    "kma": "N Platte Market",
    "kma_name": "N Platte Market",
    "region": "KS",
    "freight_score": 75,
    "population": 1461,
    "zip_zone": "Z6"
  },
  {
    "city": "Caney",
    "state": "KS",
    "zip": "67333",
    "lat": 37.014,
    "lon": -95.9315,
    "kma": "Wichita Market",
    "kma_name": "Wichita Market",
    "region": "KS",
    "freight_score": 75,
    "population": 1450,
    "zip_zone": "Z6"
  },
  {
    "city": "Pleasanton",
    "state": "KS",
    "zip": "66075",
    "lat": 38.179,
    "lon": -94.7053,
    "kma": "Kansas City Market",
    "kma_name": "Kansas City Market",
    "region": "KS",
    "freight_score": 75,
    "population": 1434,
    "zip_zone": "Z6"
  },
  {
    "city": "Inman",
    "state": "KS",
    "zip": "67546",
    "lat": 38.2323,
    "lon": -97.7715,
    "kma": "Hutchinson Market",
    "kma_name": "Hutchinson Market",
    "region": "KS",
    "freight_score": 75,
    "population": 1425,
    "zip_zone": "Z6"
  },
  {
    "city": "Sublette",
    "state": "KS",
    "zip": "67877",
    "lat": 37.4822,
    "lon": -100.8466,
    "kma": "Hutchinson Market",
    "kma_name": "Hutchinson Market",
    "region": "KS",
    "freight_score": 75,
    "population": 1397,
    "zip_zone": "Z6"
  },
  {
    "city": "Haven",
    "state": "KS",
    "zip": "67543",
    "lat": 37.9016,
    "lon": -97.7831,
    "kma": "Hutchinson Market",
    "kma_name": "Hutchinson Market",
    "region": "KS",
    "freight_score": 75,
    "population": 1394,
    "zip_zone": "Z6"
  },
  {
    "city": "Atwood",
    "state": "KS",
    "zip": "67730",
    "lat": 39.8101,
    "lon": -101.0418,
    "kma": "N Platte Market",
    "kma_name": "N Platte Market",
    "region": "KS",
    "freight_score": 75,
    "population": 1388,
    "zip_zone": "Z6"
  },
  {
    "city": "Yates Center",
    "state": "KS",
    "zip": "66783",
    "lat": 37.8668,
    "lon": -95.7539,
    "kma": "Wichita Market",
    "kma_name": "Wichita Market",
    "region": "KS",
    "freight_score": 75,
    "population": 1381,
    "zip_zone": "Z6"
  },
  {
    "city": "La Cygne",
    "state": "KS",
    "zip": "66040",
    "lat": 38.3479,
    "lon": -94.7613,
    "kma": "Kansas City Market",
    "kma_name": "Kansas City Market",
    "region": "KS",
    "freight_score": 75,
    "population": 1368,
    "zip_zone": "Z6"
  },
  {
    "city": "Carbondale",
    "state": "KS",
    "zip": "66414",
    "lat": 38.8192,
    "lon": -95.6932,
    "kma": "Kansas City Market",
    "kma_name": "Kansas City Market",
    "region": "KS",
    "freight_score": 75,
    "population": 1361,
    "zip_zone": "Z6"
  },
  {
    "city": "Kinsley",
    "state": "KS",
    "zip": "67547",
    "lat": 37.9224,
    "lon": -99.4114,
    "kma": "Hutchinson Market",
    "kma_name": "Hutchinson Market",
    "region": "KS",
    "freight_score": 75,
    "population": 1342,
    "zip_zone": "Z6"
  },
  {
    "city": "Erie",
    "state": "KS",
    "zip": "66733",
    "lat": 37.5717,
    "lon": -95.2418,
    "kma": "Kansas City Market",
    "kma_name": "Kansas City Market",
    "region": "KS",
    "freight_score": 75,
    "population": 1318,
    "zip_zone": "Z6"
  },
  {
    "city": "Buhler",
    "state": "KS",
    "zip": "67522",
    "lat": 38.1384,
    "lon": -97.7704,
    "kma": "Hutchinson Market",
    "kma_name": "Hutchinson Market",
    "region": "KS",
    "freight_score": 75,
    "population": 1311,
    "zip_zone": "Z6"
  },
  {
    "city": "Plains",
    "state": "KS",
    "zip": "67869",
    "lat": 37.2642,
    "lon": -100.5898,
    "kma": "Hutchinson Market",
    "kma_name": "Hutchinson Market",
    "region": "KS",
    "freight_score": 75,
    "population": 1308,
    "zip_zone": "Z6"
  },
  {
    "city": "Valley Falls",
    "state": "KS",
    "zip": "66088",
    "lat": 39.3407,
    "lon": -95.4612,
    "kma": "Kansas City Market",
    "kma_name": "Kansas City Market",
    "region": "KS",
    "freight_score": 75,
    "population": 1305,
    "zip_zone": "Z6"
  },
  {
    "city": "Meade",
    "state": "KS",
    "zip": "67864",
    "lat": 37.2836,
    "lon": -100.343,
    "kma": "Hutchinson Market",
    "kma_name": "Hutchinson Market",
    "region": "KS",
    "freight_score": 75,
    "population": 1274,
    "zip_zone": "Z6"
  },
  {
    "city": "St. Francis",
    "state": "KS",
    "zip": "67756",
    "lat": 39.7714,
    "lon": -101.8015,
    "kma": "N Platte Market",
    "kma_name": "N Platte Market",
    "region": "KS",
    "freight_score": 75,
    "population": 1268,
    "zip_zone": "Z6"
  },
  {
    "city": "Andale",
    "state": "KS",
    "zip": "67001",
    "lat": 37.7916,
    "lon": -97.6276,
    "kma": "Wichita Market",
    "kma_name": "Wichita Market",
    "region": "KS",
    "freight_score": 75,
    "population": 1259,
    "zip_zone": "Z6"
  },
  {
    "city": "St. John",
    "state": "KS",
    "zip": "67576",
    "lat": 38.0,
    "lon": -98.7611,
    "kma": "Hutchinson Market",
    "kma_name": "Hutchinson Market",
    "region": "KS",
    "freight_score": 75,
    "population": 1247,
    "zip_zone": "Z6"
  },
  {
    "city": "Chapman",
    "state": "KS",
    "zip": "67431",
    "lat": 38.9746,
    "lon": -97.0236,
    "kma": "Hutchinson Market",
    "kma_name": "Hutchinson Market",
    "region": "KS",
    "freight_score": 75,
    "population": 1244,
    "zip_zone": "Z6"
  },
  {
    "city": "Johnson City",
    "state": "KS",
    "zip": "67855",
    "lat": 37.5703,
    "lon": -101.7447,
    "kma": "Amarillo Market",
    "kma_name": "Amarillo Market",
    "region": "KS",
    "freight_score": 75,
    "population": 1244,
    "zip_zone": "Z6"
  },
  {
    "city": "Pomona",
    "state": "KS",
    "zip": "66076",
    "lat": 38.6108,
    "lon": -95.4529,
    "kma": "Kansas City Market",
    "kma_name": "Kansas City Market",
    "region": "KS",
    "freight_score": 75,
    "population": 1210,
    "zip_zone": "Z6"
  },
  {
    "city": "Washington",
    "state": "KS",
    "zip": "66968",
    "lat": 39.816,
    "lon": -97.0487,
    "kma": "Grand Island Market",
    "kma_name": "Grand Island Market",
    "region": "KS",
    "freight_score": 75,
    "population": 1199,
    "zip_zone": "Z6"
  },
  {
    "city": "Hoxie",
    "state": "KS",
    "zip": "67740",
    "lat": 39.3558,
    "lon": -100.4397,
    "kma": "N Platte Market",
    "kma_name": "N Platte Market",
    "region": "KS",
    "freight_score": 75,
    "population": 1191,
    "zip_zone": "Z6"
  },
  {
    "city": "Harper",
    "state": "KS",
    "zip": "67058",
    "lat": 37.2851,
    "lon": -98.0276,
    "kma": "Wichita Market",
    "kma_name": "Wichita Market",
    "region": "KS",
    "freight_score": 75,
    "population": 1191,
    "zip_zone": "Z6"
  },
  {
    "city": "Auburn",
    "state": "KS",
    "zip": "66402",
    "lat": 38.9077,
    "lon": -95.8158,
    "kma": "Kansas City Market",
    "kma_name": "Kansas City Market",
    "region": "KS",
    "freight_score": 75,
    "population": 1185,
    "zip_zone": "Z6"
  },
  {
    "city": "Lyndon",
    "state": "KS",
    "zip": "66451",
    "lat": 38.612,
    "lon": -95.6844,
    "kma": "Kansas City Market",
    "kma_name": "Kansas City Market",
    "region": "KS",
    "freight_score": 75,
    "population": 1184,
    "zip_zone": "Z6"
  },
  {
    "city": "Rossville",
    "state": "KS",
    "zip": "66533",
    "lat": 39.1358,
    "lon": -95.9496,
    "kma": "Kansas City Market",
    "kma_name": "Kansas City Market",
    "region": "KS",
    "freight_score": 75,
    "population": 1183,
    "zip_zone": "Z6"
  },
  {
    "city": "Oskaloosa",
    "state": "KS",
    "zip": "66066",
    "lat": 39.2158,
    "lon": -95.3145,
    "kma": "Kansas City Market",
    "kma_name": "Kansas City Market",
    "region": "KS",
    "freight_score": 75,
    "population": 1172,
    "zip_zone": "Z6"
  },
  {
    "city": "Elwood",
    "state": "KS",
    "zip": "66024",
    "lat": 39.7519,
    "lon": -94.889,
    "kma": "Kansas City Market",
    "kma_name": "Kansas City Market",
    "region": "KS",
    "freight_score": 75,
    "population": 1169,
    "zip_zone": "Z6"
  },
  {
    "city": "Peabody",
    "state": "KS",
    "zip": "66866",
    "lat": 38.1683,
    "lon": -97.1043,
    "kma": "Wichita Market",
    "kma_name": "Wichita Market",
    "region": "KS",
    "freight_score": 75,
    "population": 1152,
    "zip_zone": "Z6"
  },
  {
    "city": "Americus",
    "state": "KS",
    "zip": "66835",
    "lat": 38.5066,
    "lon": -96.2615,
    "kma": "Wichita Market",
    "kma_name": "Wichita Market",
    "region": "KS",
    "freight_score": 75,
    "population": 1147,
    "zip_zone": "Z6"
  },
  {
    "city": "Ness City",
    "state": "KS",
    "zip": "67560",
    "lat": 38.454,
    "lon": -99.9047,
    "kma": "Hutchinson Market",
    "kma_name": "Hutchinson Market",
    "region": "KS",
    "freight_score": 75,
    "population": 1136,
    "zip_zone": "Z6"
  },
  {
    "city": "Arma",
    "state": "KS",
    "zip": "66712",
    "lat": 37.5429,
    "lon": -94.7023,
    "kma": "Fayetteville Market",
    "kma_name": "Fayetteville Market",
    "region": "KS",
    "freight_score": 75,
    "population": 1131,
    "zip_zone": "Z6"
  },
  {
    "city": "St. George",
    "state": "KS",
    "zip": "66535",
    "lat": 39.1915,
    "lon": -96.4185,
    "kma": "Kansas City Market",
    "kma_name": "Kansas City Market",
    "region": "KS",
    "freight_score": 75,
    "population": 1115,
    "zip_zone": "Z6"
  },
  {
    "city": "Caldwell",
    "state": "KS",
    "zip": "67022",
    "lat": 37.035,
    "lon": -97.6089,
    "kma": "Wichita Market",
    "kma_name": "Wichita Market",
    "region": "KS",
    "freight_score": 75,
    "population": 1091,
    "zip_zone": "Z6"
  },
  {
    "city": "Nickerson",
    "state": "KS",
    "zip": "67561",
    "lat": 38.1488,
    "lon": -98.0883,
    "kma": "Hutchinson Market",
    "kma_name": "Hutchinson Market",
    "region": "KS",
    "freight_score": 75,
    "population": 1088,
    "zip_zone": "Z6"
  },
  {
    "city": "Perry",
    "state": "KS",
    "zip": "66073",
    "lat": 39.0732,
    "lon": -95.3866,
    "kma": "Kansas City Market",
    "kma_name": "Kansas City Market",
    "region": "KS",
    "freight_score": 75,
    "population": 1085,
    "zip_zone": "Z6"
  },
  {
    "city": "La Crosse",
    "state": "KS",
    "zip": "67548",
    "lat": 38.5318,
    "lon": -99.3095,
    "kma": "Hutchinson Market",
    "kma_name": "Hutchinson Market",
    "region": "KS",
    "freight_score": 75,
    "population": 1081,
    "zip_zone": "Z6"
  },
  {
    "city": "Sedan",
    "state": "KS",
    "zip": "67361",
    "lat": 37.1284,
    "lon": -96.1848,
    "kma": "Wichita Market",
    "kma_name": "Wichita Market",
    "region": "KS",
    "freight_score": 75,
    "population": 1066,
    "zip_zone": "Z6"
  },
  {
    "city": "Garden Plain",
    "state": "KS",
    "zip": "67050",
    "lat": 37.6627,
    "lon": -97.6793,
    "kma": "Wichita Market",
    "kma_name": "Wichita Market",
    "region": "KS",
    "freight_score": 75,
    "population": 1055,
    "zip_zone": "Z6"
  },
  {
    "city": "Spearville",
    "state": "KS",
    "zip": "67876",
    "lat": 37.8481,
    "lon": -99.7548,
    "kma": "Hutchinson Market",
    "kma_name": "Hutchinson Market",
    "region": "KS",
    "freight_score": 75,
    "population": 1054,
    "zip_zone": "Z6"
  },
  {
    "city": "Highland",
    "state": "KS",
    "zip": "66035",
    "lat": 39.8603,
    "lon": -95.2649,
    "kma": "Kansas City Market",
    "kma_name": "Kansas City Market",
    "region": "KS",
    "freight_score": 75,
    "population": 1047,
    "zip_zone": "Z6"
  },
  {
    "city": "Wakefield",
    "state": "KS",
    "zip": "67487",
    "lat": 39.2164,
    "lon": -97.0187,
    "kma": "Hutchinson Market",
    "kma_name": "Hutchinson Market",
    "region": "KS",
    "freight_score": 75,
    "population": 1031,
    "zip_zone": "Z6"
  },
  {
    "city": "Overbrook",
    "state": "KS",
    "zip": "66524",
    "lat": 38.7794,
    "lon": -95.5569,
    "kma": "Kansas City Market",
    "kma_name": "Kansas City Market",
    "region": "KS",
    "freight_score": 75,
    "population": 1015,
    "zip_zone": "Z6"
  },
  {
    "city": "Lincoln Center",
    "state": "KS",
    "zip": "67455",
    "lat": 39.043,
    "lon": -98.1468,
    "kma": "Hutchinson Market",
    "kma_name": "Hutchinson Market",
    "region": "KS",
    "freight_score": 75,
    "population": 1015,
    "zip_zone": "Z6"
  },
  {
    "city": "Galva",
    "state": "KS",
    "zip": "67443",
    "lat": 38.3836,
    "lon": -97.5381,
    "kma": "Hutchinson Market",
    "kma_name": "Hutchinson Market",
    "region": "KS",
    "freight_score": 75,
    "population": 997,
    "zip_zone": "Z6"
  },
  {
    "city": "Altamont",
    "state": "KS",
    "zip": "67330",
    "lat": 37.1875,
    "lon": -95.2898,
    "kma": "Fayetteville Market",
    "kma_name": "Fayetteville Market",
    "region": "KS",
    "freight_score": 75,
    "population": 996,
    "zip_zone": "Z6"
  },
  {
    "city": "Chetopa",
    "state": "KS",
    "zip": "67336",
    "lat": 37.0376,
    "lon": -95.0923,
    "kma": "Fayetteville Market",
    "kma_name": "Fayetteville Market",
    "region": "KS",
    "freight_score": 75,
    "population": 995,
    "zip_zone": "Z6"
  },
  {
    "city": "Victoria",
    "state": "KS",
    "zip": "67671",
    "lat": 38.8538,
    "lon": -99.1473,
    "kma": "Hutchinson Market",
    "kma_name": "Hutchinson Market",
    "region": "KS",
    "freight_score": 75,
    "population": 994,
    "zip_zone": "Z6"
  },
  {
    "city": "Burlingame",
    "state": "KS",
    "zip": "66413",
    "lat": 38.7517,
    "lon": -95.8351,
    "kma": "Kansas City Market",
    "kma_name": "Kansas City Market",
    "region": "KS",
    "freight_score": 75,
    "population": 976,
    "zip_zone": "Z6"
  },
  {
    "city": "Alma",
    "state": "KS",
    "zip": "66401",
    "lat": 39.0152,
    "lon": -96.2871,
    "kma": "Kansas City Market",
    "kma_name": "Kansas City Market",
    "region": "KS",
    "freight_score": 75,
    "population": 965,
    "zip_zone": "Z6"
  },
  {
    "city": "Quinter",
    "state": "KS",
    "zip": "67752",
    "lat": 39.0666,
    "lon": -100.2347,
    "kma": "Hutchinson Market",
    "kma_name": "Hutchinson Market",
    "region": "KS",
    "freight_score": 75,
    "population": 951,
    "zip_zone": "Z6"
  },
  {
    "city": "Solomon",
    "state": "KS",
    "zip": "67480",
    "lat": 38.9215,
    "lon": -97.3692,
    "kma": "Hutchinson Market",
    "kma_name": "Hutchinson Market",
    "region": "KS",
    "freight_score": 75,
    "population": 945,
    "zip_zone": "Z6"
  },
  {
    "city": "Cottonwood Falls",
    "state": "KS",
    "zip": "66845",
    "lat": 38.3686,
    "lon": -96.5425,
    "kma": "Wichita Market",
    "kma_name": "Wichita Market",
    "region": "KS",
    "freight_score": 75,
    "population": 944,
    "zip_zone": "Z6"
  },
  {
    "city": "Linn Valley",
    "state": "KS",
    "zip": "66040",
    "lat": 38.3758,
    "lon": -94.712,
    "kma": "Kansas City Market",
    "kma_name": "Kansas City Market",
    "region": "KS",
    "freight_score": 75,
    "population": 944,
    "zip_zone": "Z6"
  },
  {
    "city": "Madison",
    "state": "KS",
    "zip": "66860",
    "lat": 38.1336,
    "lon": -96.1372,
    "kma": "Wichita Market",
    "kma_name": "Wichita Market",
    "region": "KS",
    "freight_score": 75,
    "population": 943,
    "zip_zone": "Z6"
  },
  {
    "city": "Lake Quivira",
    "state": "KS",
    "zip": "66217",
    "lat": 39.0393,
    "lon": -94.7685,
    "kma": "Kansas City Market",
    "kma_name": "Kansas City Market",
    "region": "KS",
    "freight_score": 75,
    "population": 942,
    "zip_zone": "Z6"
  },
  {
    "city": "Blue Rapids",
    "state": "KS",
    "zip": "66411",
    "lat": 39.6791,
    "lon": -96.6593,
    "kma": "Omaha Market",
    "kma_name": "Omaha Market",
    "region": "KS",
    "freight_score": 75,
    "population": 918,
    "zip_zone": "Z6"
  },
  {
    "city": "Weir",
    "state": "KS",
    "zip": "66781",
    "lat": 37.3095,
    "lon": -94.7741,
    "kma": "Fayetteville Market",
    "kma_name": "Fayetteville Market",
    "region": "KS",
    "freight_score": 75,
    "population": 910,
    "zip_zone": "Z6"
  },
  {
    "city": "Whitewater",
    "state": "KS",
    "zip": "67154",
    "lat": 37.9636,
    "lon": -97.146,
    "kma": "Wichita Market",
    "kma_name": "Wichita Market",
    "region": "KS",
    "freight_score": 75,
    "population": 900,
    "zip_zone": "Z6"
  },
  {
    "city": "Benton",
    "state": "KS",
    "zip": "67017",
    "lat": 37.7882,
    "lon": -97.1078,
    "kma": "Wichita Market",
    "kma_name": "Wichita Market",
    "region": "KS",
    "freight_score": 75,
    "population": 896,
    "zip_zone": "Z6"
  },
  {
    "city": "Oxford",
    "state": "KS",
    "zip": "67119",
    "lat": 37.2741,
    "lon": -97.1696,
    "kma": "Wichita Market",
    "kma_name": "Wichita Market",
    "region": "KS",
    "freight_score": 75,
    "population": 892,
    "zip_zone": "Z6"
  },
  {
    "city": "Scranton",
    "state": "KS",
    "zip": "66537",
    "lat": 38.7778,
    "lon": -95.7402,
    "kma": "Kansas City Market",
    "kma_name": "Kansas City Market",
    "region": "KS",
    "freight_score": 75,
    "population": 891,
    "zip_zone": "Z6"
  },
  {
    "city": "McLouth",
    "state": "KS",
    "zip": "66054",
    "lat": 39.1961,
    "lon": -95.2083,
    "kma": "Kansas City Market",
    "kma_name": "Kansas City Market",
    "region": "KS",
    "freight_score": 75,
    "population": 891,
    "zip_zone": "Z6"
  },
  {
    "city": "Montezuma",
    "state": "KS",
    "zip": "67867",
    "lat": 37.5925,
    "lon": -100.45,
    "kma": "Hutchinson Market",
    "kma_name": "Hutchinson Market",
    "region": "KS",
    "freight_score": 75,
    "population": 878,
    "zip_zone": "Z6"
  },
  {
    "city": "Burrton",
    "state": "KS",
    "zip": "67020",
    "lat": 38.0237,
    "lon": -97.6715,
    "kma": "Hutchinson Market",
    "kma_name": "Hutchinson Market",
    "region": "KS",
    "freight_score": 75,
    "population": 874,
    "zip_zone": "Z6"
  },
  {
    "city": "Vassar",
    "state": "KS",
    "zip": "66543",
    "lat": 38.6495,
    "lon": -95.6114,
    "kma": "Kansas City Market",
    "kma_name": "Kansas City Market",
    "region": "KS",
    "freight_score": 75,
    "population": 870,
    "zip_zone": "Z6"
  },
  {
    "city": "Mound City",
    "state": "KS",
    "zip": "66056",
    "lat": 38.1325,
    "lon": -94.8506,
    "kma": "Kansas City Market",
    "kma_name": "Kansas City Market",
    "region": "KS",
    "freight_score": 75,
    "population": 866,
    "zip_zone": "Z6"
  },
  {
    "city": "Satanta",
    "state": "KS",
    "zip": "67870",
    "lat": 37.4378,
    "lon": -100.988,
    "kma": "Amarillo Market",
    "kma_name": "Amarillo Market",
    "region": "KS",
    "freight_score": 75,
    "population": 852,
    "zip_zone": "Z6"
  },
  {
    "city": "Sharon Springs",
    "state": "KS",
    "zip": "67758",
    "lat": 38.8943,
    "lon": -101.7511,
    "kma": "N Platte Market",
    "kma_name": "N Platte Market",
    "region": "KS",
    "freight_score": 75,
    "population": 837,
    "zip_zone": "Z6"
  },
  {
    "city": "Enterprise",
    "state": "KS",
    "zip": "67441",
    "lat": 38.9029,
    "lon": -97.1163,
    "kma": "Hutchinson Market",
    "kma_name": "Hutchinson Market",
    "region": "KS",
    "freight_score": 75,
    "population": 831,
    "zip_zone": "Z6"
  },
  {
    "city": "Hanover",
    "state": "KS",
    "zip": "66945",
    "lat": 39.8934,
    "lon": -96.8753,
    "kma": "Grand Island Market",
    "kma_name": "Grand Island Market",
    "region": "KS",
    "freight_score": 75,
    "population": 831,
    "zip_zone": "Z6"
  },
  {
    "city": "Riley",
    "state": "KS",
    "zip": "66531",
    "lat": 39.299,
    "lon": -96.8277,
    "kma": "Hutchinson Market",
    "kma_name": "Hutchinson Market",
    "region": "KS",
    "freight_score": 75,
    "population": 826,
    "zip_zone": "Z6"
  },
  {
    "city": "Wilson",
    "state": "KS",
    "zip": "67490",
    "lat": 38.8255,
    "lon": -98.475,
    "kma": "Hutchinson Market",
    "kma_name": "Hutchinson Market",
    "region": "KS",
    "freight_score": 75,
    "population": 824,
    "zip_zone": "Z6"
  },
  {
    "city": "Clyde",
    "state": "KS",
    "zip": "66938",
    "lat": 39.5918,
    "lon": -97.4003,
    "kma": "Grand Island Market",
    "kma_name": "Grand Island Market",
    "region": "KS",
    "freight_score": 75,
    "population": 823,
    "zip_zone": "Z6"
  },
  {
    "city": "Ashland",
    "state": "KS",
    "zip": "67831",
    "lat": 37.1867,
    "lon": -99.7697,
    "kma": "Hutchinson Market",
    "kma_name": "Hutchinson Market",
    "region": "KS",
    "freight_score": 75,
    "population": 807,
    "zip_zone": "Z6"
  },
  {
    "city": "Lebo",
    "state": "KS",
    "zip": "66856",
    "lat": 38.4156,
    "lon": -95.8622,
    "kma": "Kansas City Market",
    "kma_name": "Kansas City Market",
    "region": "KS",
    "freight_score": 75,
    "population": 806,
    "zip_zone": "Z6"
  },
  {
    "city": "Mankato",
    "state": "KS",
    "zip": "66956",
    "lat": 39.7871,
    "lon": -98.2083,
    "kma": "Grand Island Market",
    "kma_name": "Grand Island Market",
    "region": "KS",
    "freight_score": 75,
    "population": 801,
    "zip_zone": "Z6"
  },
  {
    "city": "Tribune",
    "state": "KS",
    "zip": "67879",
    "lat": 38.472,
    "lon": -101.7546,
    "kma": "N Platte Market",
    "kma_name": "N Platte Market",
    "region": "KS",
    "freight_score": 75,
    "population": 799,
    "zip_zone": "Z6"
  },
  {
    "city": "Meriden",
    "state": "KS",
    "zip": "66512",
    "lat": 39.1897,
    "lon": -95.568,
    "kma": "Kansas City Market",
    "kma_name": "Kansas City Market",
    "region": "KS",
    "freight_score": 75,
    "population": 798,
    "zip_zone": "Z6"
  },
  {
    "city": "Nortonville",
    "state": "KS",
    "zip": "66060",
    "lat": 39.4159,
    "lon": -95.3304,
    "kma": "Kansas City Market",
    "kma_name": "Kansas City Market",
    "region": "KS",
    "freight_score": 75,
    "population": 797,
    "zip_zone": "Z6"
  },
  {
    "city": "Troy",
    "state": "KS",
    "zip": "66087",
    "lat": 39.7846,
    "lon": -95.0937,
    "kma": "Kansas City Market",
    "kma_name": "Kansas City Market",
    "region": "KS",
    "freight_score": 75,
    "population": 794,
    "zip_zone": "Z6"
  },
  {
    "city": "Kiowa",
    "state": "KS",
    "zip": "67070",
    "lat": 37.0174,
    "lon": -98.4848,
    "kma": "Hutchinson Market",
    "kma_name": "Hutchinson Market",
    "region": "KS",
    "freight_score": 75,
    "population": 780,
    "zip_zone": "Z6"
  },
  {
    "city": "Maple Hill",
    "state": "KS",
    "zip": "66507",
    "lat": 39.0855,
    "lon": -96.0278,
    "kma": "Kansas City Market",
    "kma_name": "Kansas City Market",
    "region": "KS",
    "freight_score": 75,
    "population": 768,
    "zip_zone": "Z6"
  },
  {
    "city": "Eastborough",
    "state": "KS",
    "zip": "67206",
    "lat": 37.6856,
    "lon": -97.2591,
    "kma": "Wichita Market",
    "kma_name": "Wichita Market",
    "region": "KS",
    "freight_score": 75,
    "population": 767,
    "zip_zone": "Z6"
  },
  {
    "city": "Franklin",
    "state": "KS",
    "zip": "66735",
    "lat": 37.523,
    "lon": -94.6994,
    "kma": "Fayetteville Market",
    "kma_name": "Fayetteville Market",
    "region": "KS",
    "freight_score": 75,
    "population": 763,
    "zip_zone": "Z6"
  },
  {
    "city": "Lecompton",
    "state": "KS",
    "zip": "66050",
    "lat": 39.0358,
    "lon": -95.3929,
    "kma": "Kansas City Market",
    "kma_name": "Kansas City Market",
    "region": "KS",
    "freight_score": 75,
    "population": 762,
    "zip_zone": "Z6"
  },
  {
    "city": "Deerfield",
    "state": "KS",
    "zip": "67838",
    "lat": 37.9819,
    "lon": -101.1332,
    "kma": "Hutchinson Market",
    "kma_name": "Hutchinson Market",
    "region": "KS",
    "freight_score": 75,
    "population": 760,
    "zip_zone": "Z6"
  },
  {
    "city": "Hoyt",
    "state": "KS",
    "zip": "66440",
    "lat": 39.2493,
    "lon": -95.708,
    "kma": "Kansas City Market",
    "kma_name": "Kansas City Market",
    "region": "KS",
    "freight_score": 75,
    "population": 759,
    "zip_zone": "Z6"
  },
  {
    "city": "Mount Hope",
    "state": "KS",
    "zip": "67108",
    "lat": 37.8735,
    "lon": -97.6619,
    "kma": "Hutchinson Market",
    "kma_name": "Hutchinson Market",
    "region": "KS",
    "freight_score": 75,
    "population": 754,
    "zip_zone": "Z6"
  },
  {
    "city": "Waterville",
    "state": "KS",
    "zip": "66548",
    "lat": 39.6919,
    "lon": -96.747,
    "kma": "Omaha Market",
    "kma_name": "Omaha Market",
    "region": "KS",
    "freight_score": 75,
    "population": 748,
    "zip_zone": "Z6"
  },
  {
    "city": "Wilroads Gardens",
    "state": "KS",
    "zip": "67801",
    "lat": 37.7153,
    "lon": -99.9269,
    "kma": "Hutchinson Market",
    "kma_name": "Hutchinson Market",
    "region": "KS",
    "freight_score": 75,
    "population": 736,
    "zip_zone": "Z6"
  },
  {
    "city": "Frankfort",
    "state": "KS",
    "zip": "66427",
    "lat": 39.7039,
    "lon": -96.4169,
    "kma": "Kansas City Market",
    "kma_name": "Kansas City Market",
    "region": "KS",
    "freight_score": 75,
    "population": 731,
    "zip_zone": "Z6"
  },
  {
    "city": "Minneola",
    "state": "KS",
    "zip": "67865",
    "lat": 37.4421,
    "lon": -100.0131,
    "kma": "Hutchinson Market",
    "kma_name": "Hutchinson Market",
    "region": "KS",
    "freight_score": 75,
    "population": 703,
    "zip_zone": "Z6"
  },
  {
    "city": "Greensburg",
    "state": "KS",
    "zip": "67054",
    "lat": 37.6049,
    "lon": -99.2895,
    "kma": "Hutchinson Market",
    "kma_name": "Hutchinson Market",
    "region": "KS",
    "freight_score": 75,
    "population": 703,
    "zip_zone": "Z6"
  },
  {
    "city": "Dighton",
    "state": "KS",
    "zip": "67839",
    "lat": 38.481,
    "lon": -100.4663,
    "kma": "Hutchinson Market",
    "kma_name": "Hutchinson Market",
    "region": "KS",
    "freight_score": 75,
    "population": 703,
    "zip_zone": "Z6"
  },
  {
    "city": "Cherokee",
    "state": "KS",
    "zip": "66724",
    "lat": 37.345,
    "lon": -94.8215,
    "kma": "Fayetteville Market",
    "kma_name": "Fayetteville Market",
    "region": "KS",
    "freight_score": 75,
    "population": 692,
    "zip_zone": "Z6"
  },
  {
    "city": "Riverton",
    "state": "KS",
    "zip": "66770",
    "lat": 37.0732,
    "lon": -94.706,
    "kma": "Fayetteville Market",
    "kma_name": "Fayetteville Market",
    "region": "KS",
    "freight_score": 75,
    "population": 683,
    "zip_zone": "Z6"
  },
  {
    "city": "Stafford",
    "state": "KS",
    "zip": "67578",
    "lat": 37.9624,
    "lon": -98.5995,
    "kma": "Hutchinson Market",
    "kma_name": "Hutchinson Market",
    "region": "KS",
    "freight_score": 75,
    "population": 680,
    "zip_zone": "Z6"
  },
  {
    "city": "Onaga",
    "state": "KS",
    "zip": "66521",
    "lat": 39.4892,
    "lon": -96.1703,
    "kma": "Kansas City Market",
    "kma_name": "Kansas City Market",
    "region": "KS",
    "freight_score": 75,
    "population": 680,
    "zip_zone": "Z6"
  },
  {
    "city": "Jetmore",
    "state": "KS",
    "zip": "67854",
    "lat": 38.0301,
    "lon": -99.9098,
    "kma": "Hutchinson Market",
    "kma_name": "Hutchinson Market",
    "region": "KS",
    "freight_score": 75,
    "population": 678,
    "zip_zone": "Z6"
  },
  {
    "city": "Coldwater",
    "state": "KS",
    "zip": "67029",
    "lat": 37.2582,
    "lon": -99.3378,
    "kma": "Hutchinson Market",
    "kma_name": "Hutchinson Market",
    "region": "KS",
    "freight_score": 75,
    "population": 667,
    "zip_zone": "Z6"
  },
  {
    "city": "St. Paul",
    "state": "KS",
    "zip": "66771",
    "lat": 37.5186,
    "lon": -95.1742,
    "kma": "Kansas City Market",
    "kma_name": "Kansas City Market",
    "region": "KS",
    "freight_score": 75,
    "population": 665,
    "zip_zone": "Z6"
  },
  {
    "city": "Downs",
    "state": "KS",
    "zip": "67437",
    "lat": 39.5045,
    "lon": -98.5472,
    "kma": "Grand Island Market",
    "kma_name": "Grand Island Market",
    "region": "KS",
    "freight_score": 75,
    "population": 663,
    "zip_zone": "Z6"
  },
  {
    "city": "Effingham",
    "state": "KS",
    "zip": "66023",
    "lat": 39.5228,
    "lon": -95.3969,
    "kma": "Kansas City Market",
    "kma_name": "Kansas City Market",
    "region": "KS",
    "freight_score": 75,
    "population": 644,
    "zip_zone": "Z6"
  },
  {
    "city": "Udall",
    "state": "KS",
    "zip": "67146",
    "lat": 37.3889,
    "lon": -97.1177,
    "kma": "Wichita Market",
    "kma_name": "Wichita Market",
    "region": "KS",
    "freight_score": 75,
    "population": 641,
    "zip_zone": "Z6"
  },
  {
    "city": "Marquette",
    "state": "KS",
    "zip": "67464",
    "lat": 38.5555,
    "lon": -97.8344,
    "kma": "Hutchinson Market",
    "kma_name": "Hutchinson Market",
    "region": "KS",
    "freight_score": 75,
    "population": 637,
    "zip_zone": "Z6"
  },
  {
    "city": "Westmoreland",
    "state": "KS",
    "zip": "66549",
    "lat": 39.3941,
    "lon": -96.4137,
    "kma": "Kansas City Market",
    "kma_name": "Kansas City Market",
    "region": "KS",
    "freight_score": 75,
    "population": 636,
    "zip_zone": "Z6"
  },
  {
    "city": "Bucklin",
    "state": "KS",
    "zip": "67834",
    "lat": 37.5488,
    "lon": -99.6343,
    "kma": "Hutchinson Market",
    "kma_name": "Hutchinson Market",
    "region": "KS",
    "freight_score": 75,
    "population": 627,
    "zip_zone": "Z6"
  },
  {
    "city": "Canton",
    "state": "KS",
    "zip": "67428",
    "lat": 38.3857,
    "lon": -97.4303,
    "kma": "Hutchinson Market",
    "kma_name": "Hutchinson Market",
    "region": "KS",
    "freight_score": 75,
    "population": 626,
    "zip_zone": "Z6"
  },
  {
    "city": "Logan",
    "state": "KS",
    "zip": "67646",
    "lat": 39.6617,
    "lon": -99.5673,
    "kma": "Grand Island Market",
    "kma_name": "Grand Island Market",
    "region": "KS",
    "freight_score": 75,
    "population": 626,
    "zip_zone": "Z6"
  },
  {
    "city": "Cedar Vale",
    "state": "KS",
    "zip": "67024",
    "lat": 37.1061,
    "lon": -96.5018,
    "kma": "Wichita Market",
    "kma_name": "Wichita Market",
    "region": "KS",
    "freight_score": 75,
    "population": 618,
    "zip_zone": "Z6"
  },
  {
    "city": "Haviland",
    "state": "KS",
    "zip": "67059",
    "lat": 37.6173,
    "lon": -99.1059,
    "kma": "Hutchinson Market",
    "kma_name": "Hutchinson Market",
    "region": "KS",
    "freight_score": 75,
    "population": 615,
    "zip_zone": "Z6"
  },
  {
    "city": "Bennington",
    "state": "KS",
    "zip": "67422",
    "lat": 39.0334,
    "lon": -97.5932,
    "kma": "Hutchinson Market",
    "kma_name": "Hutchinson Market",
    "region": "KS",
    "freight_score": 75,
    "population": 612,
    "zip_zone": "Z6"
  },
  {
    "city": "Olpe",
    "state": "KS",
    "zip": "66865",
    "lat": 38.2569,
    "lon": -96.1726,
    "kma": "Wichita Market",
    "kma_name": "Wichita Market",
    "region": "KS",
    "freight_score": 75,
    "population": 603,
    "zip_zone": "Z6"
  },
  {
    "city": "Leonardville",
    "state": "KS",
    "zip": "66449",
    "lat": 39.3642,
    "lon": -96.8596,
    "kma": "Hutchinson Market",
    "kma_name": "Hutchinson Market",
    "region": "KS",
    "freight_score": 75,
    "population": 600,
    "zip_zone": "Z6"
  },
  {
    "city": "Ozawkie",
    "state": "KS",
    "zip": "66070",
    "lat": 39.2354,
    "lon": -95.4659,
    "kma": "Kansas City Market",
    "kma_name": "Kansas City Market",
    "region": "KS",
    "freight_score": 75,
    "population": 599,
    "zip_zone": "Z6"
  },
  {
    "city": "Macksville",
    "state": "KS",
    "zip": "67557",
    "lat": 37.9572,
    "lon": -98.9689,
    "kma": "Hutchinson Market",
    "kma_name": "Hutchinson Market",
    "region": "KS",
    "freight_score": 75,
    "population": 585,
    "zip_zone": "Z6"
  },
  {
    "city": "Gas",
    "state": "KS",
    "zip": "66749",
    "lat": 37.923,
    "lon": -95.3454,
    "kma": "Kansas City Market",
    "kma_name": "Kansas City Market",
    "region": "KS",
    "freight_score": 75,
    "population": 581,
    "zip_zone": "Z6"
  },
  {
    "city": "Bird City",
    "state": "KS",
    "zip": "67731",
    "lat": 39.7495,
    "lon": -101.5328,
    "kma": "N Platte Market",
    "kma_name": "N Platte Market",
    "region": "KS",
    "freight_score": 75,
    "population": 579,
    "zip_zone": "Z6"
  },
  {
    "city": "Argonia",
    "state": "KS",
    "zip": "67004",
    "lat": 37.2679,
    "lon": -97.7629,
    "kma": "Wichita Market",
    "kma_name": "Wichita Market",
    "region": "KS",
    "freight_score": 75,
    "population": 573,
    "zip_zone": "Z6"
  },
  {
    "city": "Bronson",
    "state": "KS",
    "zip": "66716",
    "lat": 37.8958,
    "lon": -95.0732,
    "kma": "Kansas City Market",
    "kma_name": "Kansas City Market",
    "region": "KS",
    "freight_score": 75,
    "population": 573,
    "zip_zone": "Z6"
  },
  {
    "city": "Kensington",
    "state": "KS",
    "zip": "66951",
    "lat": 39.7667,
    "lon": -99.0329,
    "kma": "Grand Island Market",
    "kma_name": "Grand Island Market",
    "region": "KS",
    "freight_score": 75,
    "population": 572,
    "zip_zone": "Z6"
  },
  {
    "city": "Kanopolis",
    "state": "KS",
    "zip": "67454",
    "lat": 38.7081,
    "lon": -98.1581,
    "kma": "Hutchinson Market",
    "kma_name": "Hutchinson Market",
    "region": "KS",
    "freight_score": 75,
    "population": 567,
    "zip_zone": "Z6"
  },
  {
    "city": "Potwin",
    "state": "KS",
    "zip": "67123",
    "lat": 37.9385,
    "lon": -97.0184,
    "kma": "Wichita Market",
    "kma_name": "Wichita Market",
    "region": "KS",
    "freight_score": 75,
    "population": 562,
    "zip_zone": "Z6"
  },
  {
    "city": "Howard",
    "state": "KS",
    "zip": "67349",
    "lat": 37.4695,
    "lon": -96.2631,
    "kma": "Wichita Market",
    "kma_name": "Wichita Market",
    "region": "KS",
    "freight_score": 75,
    "population": 553,
    "zip_zone": "Z6"
  },
  {
    "city": "Pretty Prairie",
    "state": "KS",
    "zip": "67570",
    "lat": 37.78,
    "lon": -98.0224,
    "kma": "Hutchinson Market",
    "kma_name": "Hutchinson Market",
    "region": "KS",
    "freight_score": 75,
    "population": 553,
    "zip_zone": "Z6"
  },
  {
    "city": "Burden",
    "state": "KS",
    "zip": "67019",
    "lat": 37.3151,
    "lon": -96.7554,
    "kma": "Wichita Market",
    "kma_name": "Wichita Market",
    "region": "KS",
    "freight_score": 75,
    "population": 548,
    "zip_zone": "Z6"
  },
  {
    "city": "Parkerfield",
    "state": "KS",
    "zip": "67005",
    "lat": 37.0679,
    "lon": -96.9957,
    "kma": "Wichita Market",
    "kma_name": "Wichita Market",
    "region": "KS",
    "freight_score": 75,
    "population": 545,
    "zip_zone": "Z6"
  },
  {
    "city": "Rolla",
    "state": "KS",
    "zip": "67954",
    "lat": 37.1179,
    "lon": -101.6318,
    "kma": "Amarillo Market",
    "kma_name": "Amarillo Market",
    "region": "KS",
    "freight_score": 75,
    "population": 545,
    "zip_zone": "Z6"
  },
  {
    "city": "Goessel",
    "state": "KS",
    "zip": "67053",
    "lat": 38.2473,
    "lon": -97.3454,
    "kma": "Hutchinson Market",
    "kma_name": "Hutchinson Market",
    "region": "KS",
    "freight_score": 75,
    "population": 541,
    "zip_zone": "Z6"
  },
  {
    "city": "Florence",
    "state": "KS",
    "zip": "66851",
    "lat": 38.2428,
    "lon": -96.9289,
    "kma": "Wichita Market",
    "kma_name": "Wichita Market",
    "region": "KS",
    "freight_score": 75,
    "population": 537,
    "zip_zone": "Z6"
  },
  {
    "city": "Attica",
    "state": "KS",
    "zip": "67009",
    "lat": 37.2426,
    "lon": -98.2276,
    "kma": "Wichita Market",
    "kma_name": "Wichita Market",
    "region": "KS",
    "freight_score": 75,
    "population": 529,
    "zip_zone": "Z6"
  },
  {
    "city": "Waverly",
    "state": "KS",
    "zip": "66871",
    "lat": 38.3962,
    "lon": -95.6048,
    "kma": "Kansas City Market",
    "kma_name": "Kansas City Market",
    "region": "KS",
    "freight_score": 75,
    "population": 528,
    "zip_zone": "Z6"
  },
  {
    "city": "Glen Elder",
    "state": "KS",
    "zip": "67446",
    "lat": 39.5001,
    "lon": -98.3066,
    "kma": "Grand Island Market",
    "kma_name": "Grand Island Market",
    "region": "KS",
    "freight_score": 75,
    "population": 520,
    "zip_zone": "Z6"
  },
  {
    "city": "Leon",
    "state": "KS",
    "zip": "67074",
    "lat": 37.6898,
    "lon": -96.7837,
    "kma": "Wichita Market",
    "kma_name": "Wichita Market",
    "region": "KS",
    "freight_score": 75,
    "population": 519,
    "zip_zone": "Z6"
  },
  {
    "city": "Dexter",
    "state": "KS",
    "zip": "67038",
    "lat": 37.1794,
    "lon": -96.7161,
    "kma": "Wichita Market",
    "kma_name": "Wichita Market",
    "region": "KS",
    "freight_score": 75,
    "population": 508,
    "zip_zone": "Z6"
  },
  {
    "city": "Fowler",
    "state": "KS",
    "zip": "67844",
    "lat": 37.3829,
    "lon": -100.1957,
    "kma": "Hutchinson Market",
    "kma_name": "Hutchinson Market",
    "region": "KS",
    "freight_score": 75,
    "population": 507,
    "zip_zone": "Z6"
  },
  {
    "city": "Richmond",
    "state": "KS",
    "zip": "66080",
    "lat": 38.4004,
    "lon": -95.252,
    "kma": "Kansas City Market",
    "kma_name": "Kansas City Market",
    "region": "KS",
    "freight_score": 75,
    "population": 504,
    "zip_zone": "Z6"
  },
  {
    "city": "Protection",
    "state": "KS",
    "zip": "67127",
    "lat": 37.2004,
    "lon": -99.4808,
    "kma": "Hutchinson Market",
    "kma_name": "Hutchinson Market",
    "region": "KS",
    "freight_score": 75,
    "population": 504,
    "zip_zone": "Z6"
  },
  {
    "city": "Centralia",
    "state": "KS",
    "zip": "66415",
    "lat": 39.7243,
    "lon": -96.1301,
    "kma": "Kansas City Market",
    "kma_name": "Kansas City Market",
    "region": "KS",
    "freight_score": 75,
    "population": 496,
    "zip_zone": "Z6"
  },
  {
    "city": "Strong City",
    "state": "KS",
    "zip": "66869",
    "lat": 38.3955,
    "lon": -96.537,
    "kma": "Wichita Market",
    "kma_name": "Wichita Market",
    "region": "KS",
    "freight_score": 75,
    "population": 492,
    "zip_zone": "Z6"
  },
  {
    "city": "Uniontown",
    "state": "KS",
    "zip": "66779",
    "lat": 37.8471,
    "lon": -94.9755,
    "kma": "Kansas City Market",
    "kma_name": "Kansas City Market",
    "region": "KS",
    "freight_score": 75,
    "population": 492,
    "zip_zone": "Z6"
  },
  {
    "city": "Bentley",
    "state": "KS",
    "zip": "67016",
    "lat": 37.8868,
    "lon": -97.5147,
    "kma": "Wichita Market",
    "kma_name": "Wichita Market",
    "region": "KS",
    "freight_score": 75,
    "population": 489,
    "zip_zone": "Z6"
  },
  {
    "city": "Alta Vista",
    "state": "KS",
    "zip": "66834",
    "lat": 38.8628,
    "lon": -96.4888,
    "kma": "Wichita Market",
    "kma_name": "Wichita Market",
    "region": "KS",
    "freight_score": 75,
    "population": 484,
    "zip_zone": "Z6"
  },
  {
    "city": "Westwood Hills",
    "state": "KS",
    "zip": "66205",
    "lat": 39.0389,
    "lon": -94.6097,
    "kma": "Kansas City Market",
    "kma_name": "Kansas City Market",
    "region": "KS",
    "freight_score": 75,
    "population": 484,
    "zip_zone": "Z6"
  },
  {
    "city": "Norwich",
    "state": "KS",
    "zip": "67118",
    "lat": 37.4572,
    "lon": -97.848,
    "kma": "Wichita Market",
    "kma_name": "Wichita Market",
    "region": "KS",
    "freight_score": 75,
    "population": 483,
    "zip_zone": "Z6"
  },
  {
    "city": "Linn",
    "state": "KS",
    "zip": "66953",
    "lat": 39.6793,
    "lon": -97.0869,
    "kma": "Grand Island Market",
    "kma_name": "Grand Island Market",
    "region": "KS",
    "freight_score": 75,
    "population": 478,
    "zip_zone": "Z6"
  },
  {
    "city": "Lewis",
    "state": "KS",
    "zip": "67552",
    "lat": 37.937,
    "lon": -99.2547,
    "kma": "Hutchinson Market",
    "kma_name": "Hutchinson Market",
    "region": "KS",
    "freight_score": 75,
    "population": 477,
    "zip_zone": "Z6"
  },
  {
    "city": "Kismet",
    "state": "KS",
    "zip": "67859",
    "lat": 37.2046,
    "lon": -100.7018,
    "kma": "Amarillo Market",
    "kma_name": "Amarillo Market",
    "region": "KS",
    "freight_score": 75,
    "population": 476,
    "zip_zone": "Z6"
  },
  {
    "city": "The Highlands",
    "state": "KS",
    "zip": "67502",
    "lat": 38.1659,
    "lon": -97.9497,
    "kma": "Hutchinson Market",
    "kma_name": "Hutchinson Market",
    "region": "KS",
    "freight_score": 75,
    "population": 474,
    "zip_zone": "Z6"
  },
  {
    "city": "Axtell",
    "state": "KS",
    "zip": "66403",
    "lat": 39.8711,
    "lon": -96.2566,
    "kma": "Omaha Market",
    "kma_name": "Omaha Market",
    "region": "KS",
    "freight_score": 75,
    "population": 466,
    "zip_zone": "Z6"
  },
  {
    "city": "Hope",
    "state": "KS",
    "zip": "67451",
    "lat": 38.6912,
    "lon": -97.0765,
    "kma": "Hutchinson Market",
    "kma_name": "Hutchinson Market",
    "region": "KS",
    "freight_score": 75,
    "population": 463,
    "zip_zone": "Z6"
  },
  {
    "city": "LeRoy",
    "state": "KS",
    "zip": "66857",
    "lat": 38.0863,
    "lon": -95.6331,
    "kma": "Kansas City Market",
    "kma_name": "Kansas City Market",
    "region": "KS",
    "freight_score": 75,
    "population": 461,
    "zip_zone": "Z6"
  },
  {
    "city": "Cunningham",
    "state": "KS",
    "zip": "67035",
    "lat": 37.6447,
    "lon": -98.4312,
    "kma": "Hutchinson Market",
    "kma_name": "Hutchinson Market",
    "region": "KS",
    "freight_score": 75,
    "population": 457,
    "zip_zone": "Z6"
  },
  {
    "city": "Moran",
    "state": "KS",
    "zip": "66755",
    "lat": 37.9166,
    "lon": -95.1716,
    "kma": "Kansas City Market",
    "kma_name": "Kansas City Market",
    "region": "KS",
    "freight_score": 75,
    "population": 455,
    "zip_zone": "Z6"
  },
  {
    "city": "Thayer",
    "state": "KS",
    "zip": "66776",
    "lat": 37.4851,
    "lon": -95.4845,
    "kma": "Wichita Market",
    "kma_name": "Wichita Market",
    "region": "KS",
    "freight_score": 75,
    "population": 454,
    "zip_zone": "Z6"
  },
  {
    "city": "Bazine",
    "state": "KS",
    "zip": "67516",
    "lat": 38.4462,
    "lon": -99.693,
    "kma": "Hutchinson Market",
    "kma_name": "Hutchinson Market",
    "region": "KS",
    "freight_score": 75,
    "population": 454,
    "zip_zone": "Z6"
  },
  {
    "city": "Clifton",
    "state": "KS",
    "zip": "66937",
    "lat": 39.5682,
    "lon": -97.2808,
    "kma": "Grand Island Market",
    "kma_name": "Grand Island Market",
    "region": "KS",
    "freight_score": 75,
    "population": 453,
    "zip_zone": "Z6"
  },
  {
    "city": "Lucas",
    "state": "KS",
    "zip": "67648",
    "lat": 39.0587,
    "lon": -98.5378,
    "kma": "Hutchinson Market",
    "kma_name": "Hutchinson Market",
    "region": "KS",
    "freight_score": 75,
    "population": 449,
    "zip_zone": "Z6"
  },
  {
    "city": "Almena",
    "state": "KS",
    "zip": "67622",
    "lat": 39.8913,
    "lon": -99.7097,
    "kma": "Grand Island Market",
    "kma_name": "Grand Island Market",
    "region": "KS",
    "freight_score": 75,
    "population": 447,
    "zip_zone": "Z6"
  },
  {
    "city": "Chase",
    "state": "KS",
    "zip": "67524",
    "lat": 38.3551,
    "lon": -98.3489,
    "kma": "Hutchinson Market",
    "kma_name": "Hutchinson Market",
    "region": "KS",
    "freight_score": 75,
    "population": 447,
    "zip_zone": "Z6"
  },
  {
    "city": "Fontana",
    "state": "KS",
    "zip": "66026",
    "lat": 38.4239,
    "lon": -94.8441,
    "kma": "Kansas City Market",
    "kma_name": "Kansas City Market",
    "region": "KS",
    "freight_score": 75,
    "population": 447,
    "zip_zone": "Z6"
  },
  {
    "city": "Hartford",
    "state": "KS",
    "zip": "66854",
    "lat": 38.3084,
    "lon": -95.9566,
    "kma": "Wichita Market",
    "kma_name": "Wichita Market",
    "region": "KS",
    "freight_score": 75,
    "population": 442,
    "zip_zone": "Z6"
  },
  {
    "city": "Brewster",
    "state": "KS",
    "zip": "67732",
    "lat": 39.3631,
    "lon": -101.3771,
    "kma": "N Platte Market",
    "kma_name": "N Platte Market",
    "region": "KS",
    "freight_score": 75,
    "population": 440,
    "zip_zone": "Z6"
  },
  {
    "city": "White City",
    "state": "KS",
    "zip": "66872",
    "lat": 38.7938,
    "lon": -96.7349,
    "kma": "Hutchinson Market",
    "kma_name": "Hutchinson Market",
    "region": "KS",
    "freight_score": 75,
    "population": 439,
    "zip_zone": "Z6"
  },
  {
    "city": "Otis",
    "state": "KS",
    "zip": "67565",
    "lat": 38.5347,
    "lon": -99.0533,
    "kma": "Hutchinson Market",
    "kma_name": "Hutchinson Market",
    "region": "KS",
    "freight_score": 75,
    "population": 434,
    "zip_zone": "Z6"
  },
  {
    "city": "Claflin",
    "state": "KS",
    "zip": "67525",
    "lat": 38.5246,
    "lon": -98.5367,
    "kma": "Hutchinson Market",
    "kma_name": "Hutchinson Market",
    "region": "KS",
    "freight_score": 75,
    "population": 434,
    "zip_zone": "Z6"
  },
  {
    "city": "Assaria",
    "state": "KS",
    "zip": "67416",
    "lat": 38.6802,
    "lon": -97.604,
    "kma": "Hutchinson Market",
    "kma_name": "Hutchinson Market",
    "region": "KS",
    "freight_score": 75,
    "population": 433,
    "zip_zone": "Z6"
  },
  {
    "city": "Little River",
    "state": "KS",
    "zip": "67457",
    "lat": 38.3983,
    "lon": -98.0149,
    "kma": "Hutchinson Market",
    "kma_name": "Hutchinson Market",
    "region": "KS",
    "freight_score": 75,
    "population": 427,
    "zip_zone": "Z6"
  },
  {
    "city": "La Harpe",
    "state": "KS",
    "zip": "66751",
    "lat": 37.9166,
    "lon": -95.3023,
    "kma": "Kansas City Market",
    "kma_name": "Kansas City Market",
    "region": "KS",
    "freight_score": 75,
    "population": 424,
    "zip_zone": "Z6"
  },
  {
    "city": "Miltonvale",
    "state": "KS",
    "zip": "67466",
    "lat": 39.3496,
    "lon": -97.4523,
    "kma": "Hutchinson Market",
    "kma_name": "Hutchinson Market",
    "region": "KS",
    "freight_score": 75,
    "population": 422,
    "zip_zone": "Z6"
  },
  {
    "city": "Healy",
    "state": "KS",
    "zip": "67850",
    "lat": 38.603,
    "lon": -100.6176,
    "kma": "Hutchinson Market",
    "kma_name": "Hutchinson Market",
    "region": "KS",
    "freight_score": 75,
    "population": 419,
    "zip_zone": "Z6"
  },
  {
    "city": "Mulberry",
    "state": "KS",
    "zip": "66756",
    "lat": 37.5561,
    "lon": -94.6235,
    "kma": "Fayetteville Market",
    "kma_name": "Fayetteville Market",
    "region": "KS",
    "freight_score": 75,
    "population": 419,
    "zip_zone": "Z6"
  },
  {
    "city": "Cawker City",
    "state": "KS",
    "zip": "67430",
    "lat": 39.5095,
    "lon": -98.4331,
    "kma": "Grand Island Market",
    "kma_name": "Grand Island Market",
    "region": "KS",
    "freight_score": 75,
    "population": 413,
    "zip_zone": "Z6"
  },
  {
    "city": "Jewell",
    "state": "KS",
    "zip": "66949",
    "lat": 39.6715,
    "lon": -98.1525,
    "kma": "Grand Island Market",
    "kma_name": "Grand Island Market",
    "region": "KS",
    "freight_score": 75,
    "population": 409,
    "zip_zone": "Z6"
  },
  {
    "city": "Altoona",
    "state": "KS",
    "zip": "66710",
    "lat": 37.5249,
    "lon": -95.6615,
    "kma": "Wichita Market",
    "kma_name": "Wichita Market",
    "region": "KS",
    "freight_score": 75,
    "population": 409,
    "zip_zone": "Z6"
  },
  {
    "city": "New Strawn",
    "state": "KS",
    "zip": "66839",
    "lat": 38.2622,
    "lon": -95.7423,
    "kma": "Kansas City Market",
    "kma_name": "Kansas City Market",
    "region": "KS",
    "freight_score": 75,
    "population": 408,
    "zip_zone": "Z6"
  },
  {
    "city": "Chicopee",
    "state": "KS",
    "zip": "66762",
    "lat": 37.3835,
    "lon": -94.7444,
    "kma": "Fayetteville Market",
    "kma_name": "Fayetteville Market",
    "region": "KS",
    "freight_score": 75,
    "population": 405,
    "zip_zone": "Z6"
  },
  {
    "city": "Scammon",
    "state": "KS",
    "zip": "66773",
    "lat": 37.2781,
    "lon": -94.823,
    "kma": "Fayetteville Market",
    "kma_name": "Fayetteville Market",
    "region": "KS",
    "freight_score": 75,
    "population": 397,
    "zip_zone": "Z6"
  },
  {
    "city": "Arlington",
    "state": "KS",
    "zip": "67514",
    "lat": 37.8962,
    "lon": -98.178,
    "kma": "Hutchinson Market",
    "kma_name": "Hutchinson Market",
    "region": "KS",
    "freight_score": 75,
    "population": 393,
    "zip_zone": "Z6"
  },
  {
    "city": "Eskridge",
    "state": "KS",
    "zip": "66423",
    "lat": 38.8595,
    "lon": -96.1049,
    "kma": "Kansas City Market",
    "kma_name": "Kansas City Market",
    "region": "KS",
    "freight_score": 75,
    "population": 388,
    "zip_zone": "Z6"
  },
  {
    "city": "Everest",
    "state": "KS",
    "zip": "66424",
    "lat": 39.677,
    "lon": -95.4248,
    "kma": "Kansas City Market",
    "kma_name": "Kansas City Market",
    "region": "KS",
    "freight_score": 75,
    "population": 387,
    "zip_zone": "Z6"
  },
  {
    "city": "Gypsum",
    "state": "KS",
    "zip": "67448",
    "lat": 38.7058,
    "lon": -97.4266,
    "kma": "Hutchinson Market",
    "kma_name": "Hutchinson Market",
    "region": "KS",
    "freight_score": 75,
    "population": 385,
    "zip_zone": "Z6"
  },
  {
    "city": "Williamsburg",
    "state": "KS",
    "zip": "66095",
    "lat": 38.4807,
    "lon": -95.4681,
    "kma": "Kansas City Market",
    "kma_name": "Kansas City Market",
    "region": "KS",
    "freight_score": 75,
    "population": 383,
    "zip_zone": "Z6"
  },
  {
    "city": "Holyrood",
    "state": "KS",
    "zip": "67450",
    "lat": 38.5876,
    "lon": -98.4119,
    "kma": "Hutchinson Market",
    "kma_name": "Hutchinson Market",
    "region": "KS",
    "freight_score": 75,
    "population": 381,
    "zip_zone": "Z6"
  },
  {
    "city": "Grinnell",
    "state": "KS",
    "zip": "67738",
    "lat": 39.1266,
    "lon": -100.6311,
    "kma": "N Platte Market",
    "kma_name": "N Platte Market",
    "region": "KS",
    "freight_score": 75,
    "population": 376,
    "zip_zone": "Z6"
  },
  {
    "city": "Moline",
    "state": "KS",
    "zip": "67353",
    "lat": 37.3637,
    "lon": -96.3025,
    "kma": "Wichita Market",
    "kma_name": "Wichita Market",
    "region": "KS",
    "freight_score": 75,
    "population": 375,
    "zip_zone": "Z6"
  },
  {
    "city": "Gridley",
    "state": "KS",
    "zip": "66852",
    "lat": 38.1007,
    "lon": -95.8826,
    "kma": "Wichita Market",
    "kma_name": "Wichita Market",
    "region": "KS",
    "freight_score": 75,
    "population": 375,
    "zip_zone": "Z6"
  },
  {
    "city": "Quenemo",
    "state": "KS",
    "zip": "66528",
    "lat": 38.5801,
    "lon": -95.5266,
    "kma": "Kansas City Market",
    "kma_name": "Kansas City Market",
    "region": "KS",
    "freight_score": 75,
    "population": 375,
    "zip_zone": "Z6"
  },
  {
    "city": "Natoma",
    "state": "KS",
    "zip": "67651",
    "lat": 39.1885,
    "lon": -99.0241,
    "kma": "Hutchinson Market",
    "kma_name": "Hutchinson Market",
    "region": "KS",
    "freight_score": 75,
    "population": 371,
    "zip_zone": "Z6"
  },
  {
    "city": "Edna",
    "state": "KS",
    "zip": "67342",
    "lat": 37.0587,
    "lon": -95.3592,
    "kma": "Fayetteville Market",
    "kma_name": "Fayetteville Market",
    "region": "KS",
    "freight_score": 75,
    "population": 357,
    "zip_zone": "Z6"
  },
  {
    "city": "McFarland",
    "state": "KS",
    "zip": "66501",
    "lat": 39.0545,
    "lon": -96.2381,
    "kma": "Kansas City Market",
    "kma_name": "Kansas City Market",
    "region": "KS",
    "freight_score": 75,
    "population": 356,
    "zip_zone": "Z6"
  },
  {
    "city": "Lancaster",
    "state": "KS",
    "zip": "66041",
    "lat": 39.571,
    "lon": -95.3037,
    "kma": "Kansas City Market",
    "kma_name": "Kansas City Market",
    "region": "KS",
    "freight_score": 75,
    "population": 356,
    "zip_zone": "Z6"
  },
  {
    "city": "Gorham",
    "state": "KS",
    "zip": "67640",
    "lat": 38.8806,
    "lon": -99.0237,
    "kma": "Hutchinson Market",
    "kma_name": "Hutchinson Market",
    "region": "KS",
    "freight_score": 75,
    "population": 355,
    "zip_zone": "Z6"
  },
  {
    "city": "Copeland",
    "state": "KS",
    "zip": "67837",
    "lat": 37.5405,
    "lon": -100.6288,
    "kma": "Hutchinson Market",
    "kma_name": "Hutchinson Market",
    "region": "KS",
    "freight_score": 75,
    "population": 350,
    "zip_zone": "Z6"
  },
  {
    "city": "Mayetta",
    "state": "KS",
    "zip": "66509",
    "lat": 39.3386,
    "lon": -95.7216,
    "kma": "Kansas City Market",
    "kma_name": "Kansas City Market",
    "region": "KS",
    "freight_score": 75,
    "population": 347,
    "zip_zone": "Z6"
  },
  {
    "city": "Winchester",
    "state": "KS",
    "zip": "66097",
    "lat": 39.3226,
    "lon": -95.2688,
    "kma": "Kansas City Market",
    "kma_name": "Kansas City Market",
    "region": "KS",
    "freight_score": 75,
    "population": 341,
    "zip_zone": "Z6"
  },