[
  {
    "city": "Baltimore",
    "state": "MD",
    "zip": "21218",
    "lat": 39.3051,
    "lon": -76.6144,
    "kma": "Baltimore Market",
    "kma_name": "Baltimore Market",
    "region": "MD",
    "freight_score": 100,
    "population": 2189589,
    "zip_zone": "Z2"
  },
  {
    "city": "Hagerstown",
    "state": "MD",
    "zip": "21742",
    "lat": 39.6401,
    "lon": -77.7217,
    "kma": "Winchester Market",
    "kma_name": "Winchester Market",
    "region": "MD",
    "freight_score": 100,
    "population": 206889,
    "zip_zone": "Z2"
  },
  {
    "city": "Frederick",
    "state": "MD",
    "zip": "21705",
    "lat": 39.4337,
    "lon": -77.4141,
    "kma": "Washington DC Market",
    "kma_name": "Washington DC Market",
    "region": "MD",
    "freight_score": 100,
    "population": 196743,
    "zip_zone": "Z2"
  },
  {
    "city": "Waldorf",
    "state": "MD",
    "zip": "20601",
    "lat": 38.6085,
    "lon": -76.9194,
    "kma": "Washington DC Market",
    "kma_name": "Washington DC Market",
    "region": "MD",
    "freight_score": 100,
    "population": 124186,
    "zip_zone": "Z2"
  },
  {
    "city": "Columbia",
    "state": "MD",
    "zip": "21044",
    "lat": 39.2004,
    "lon": -76.859,
    "kma": "Baltimore Market",
    "kma_name": "Baltimore Market",
    "region": "MD",
    "freight_score": 100,
    "population": 105871,
    "zip_zone": "Z2"
  },
  {
    "city": "Germantown",
    "state": "MD",
    "zip": "20876",
    "lat": 39.1755,
    "lon": -77.2643,
    "kma": "Washington DC Market",
    "kma_name": "Washington DC Market",
    "region": "MD",
    "freight_score": 98,
    "population": 90521,
    "zip_zone": "Z2"
  },
  {
    "city": "Silver Spring",
    "state": "MD",
    "zip": "20910",
    "lat": 39.0028,
    "lon": -77.0207,
    "kma": "Washington DC Market",
    "kma_name": "Washington DC Market",
    "region": "MD",
    "freight_score": 96,
    "population": 82129,
    "zip_zone": "Z2"
  },
  {
    "city": "Salisbury",
    "state": "MD",
    "zip": "21804",
    "lat": 38.3756,
    "lon": -75.5865,
    "kma": "Baltimore Market",
    "kma_name": "Baltimore Market",
    "region": "MD",
    "freight_score": 95,
    "population": 80352,
    "zip_zone": "Z2"
  },
  {
    "city": "Ellicott City",
    "state": "MD",
    "zip": "21042",
    "lat": 39.2774,
    "lon": -76.8345,
    "kma": "Baltimore Market",
    "kma_name": "Baltimore Market",
    "region": "MD",
    "freight_score": 93,
    "population": 73737,
    "zip_zone": "Z2"
  },
  {
    "city": "Glen Burnie",
    "state": "MD",
    "zip": "21060",
    "lat": 39.156,
    "lon": -76.6071,
    "kma": "Baltimore Market",
    "kma_name": "Baltimore Market",
    "region": "MD",
    "freight_score": 93,
    "population": 72772,
    "zip_zone": "Z2"
  },
  {
    "city": "Gaithersburg",
    "state": "MD",
    "zip": "20878",
    "lat": 39.1346,
    "lon": -77.2131,
    "kma": "Washington DC Market",
    "kma_name": "Washington DC Market",
    "region": "MD",
    "freight_score": 92,
    "population": 69225,
    "zip_zone": "Z2"
  },
  {
    "city": "Bethesda",
    "state": "MD",
    "zip": "20892",
    "lat": 38.9866,
    "lon": -77.1188,
    "kma": "Washington DC Market",
    "kma_name": "Washington DC Market",
    "region": "MD",
    "freight_score": 92,
    "population": 67403,
    "zip_zone": "Z2"
  },
  {
    "city": "Rockville",
    "state": "MD",
    "zip": "20850",
    "lat": 39.0834,
    "lon": -77.1553,
    "kma": "Washington DC Market",
    "kma_name": "Washington DC Market",
    "region": "MD",
    "freight_score": 92,
    "population": 67218,
    "zip_zone": "Z2"
  },
  {
    "city": "Dundalk",
    "state": "MD",
    "zip": "21222",
    "lat": 39.2704,
    "lon": -76.4942,
    "kma": "Baltimore Market",
    "kma_name": "Baltimore Market",
    "region": "MD",
    "freight_score": 91,
    "population": 65441,
    "zip_zone": "Z2"
  },
  {
    "city": "Severn",
    "state": "MD",
    "zip": "21144",
    "lat": 39.1355,
    "lon": -76.6956,
    "kma": "Baltimore Market",
    "kma_name": "Baltimore Market",
    "region": "MD",
    "freight_score": 90,
    "population": 58041,
    "zip_zone": "Z2"
  },
  {
    "city": "Bowie",
    "state": "MD",
    "zip": "20720",
    "lat": 38.9549,
    "lon": -76.7406,
    "kma": "Washington DC Market",
    "kma_name": "Washington DC Market",
    "region": "MD",
    "freight_score": 89,
    "population": 57771,
    "zip_zone": "Z2"
  },
  {
    "city": "Bel Air South",
    "state": "MD",
    "zip": "21009",
    "lat": 39.5022,
    "lon": -76.3113,
    "kma": "Baltimore Market",
    "kma_name": "Baltimore Market",
    "region": "MD",
    "freight_score": 89,
    "population": 57702,
    "zip_zone": "Z2"
  },
  {
    "city": "Towson",
    "state": "MD",
    "zip": "21210",
    "lat": 39.3944,
    "lon": -76.619,
    "kma": "Baltimore Market",
    "kma_name": "Baltimore Market",
    "region": "MD",
    "freight_score": 89,
    "population": 57683,
    "zip_zone": "Z2"
  },
  {
    "city": "Aspen Hill",
    "state": "MD",
    "zip": "20853",
    "lat": 39.0927,
    "lon": -77.0826,
    "kma": "Washington DC Market",
    "kma_name": "Washington DC Market",
    "region": "MD",
    "freight_score": 88,
    "population": 53752,
    "zip_zone": "Z2"
  },
  {
    "city": "Wheaton",
    "state": "MD",
    "zip": "20906",
    "lat": 39.0492,
    "lon": -77.0573,
    "kma": "Washington DC Market",
    "kma_name": "Washington DC Market",
    "region": "MD",
    "freight_score": 88,
    "population": 52172,
    "zip_zone": "Z2"
  },
  {
    "city": "North Bethesda",
    "state": "MD",
    "zip": "20895",
    "lat": 39.0393,
    "lon": -77.1191,
    "kma": "Washington DC Market",
    "kma_name": "Washington DC Market",
    "region": "MD",
    "freight_score": 87,
    "population": 49498,
    "zip_zone": "Z2"
  },
  {
    "city": "Potomac",
    "state": "MD",
    "zip": "20817",
    "lat": 39.0141,
    "lon": -77.1943,
    "kma": "Washington DC Market",
    "kma_name": "Washington DC Market",
    "region": "MD",
    "freight_score": 87,
    "population": 46230,
    "zip_zone": "Z2"
  },
  {
    "city": "Odenton",
    "state": "MD",
    "zip": "21054",
    "lat": 39.0661,
    "lon": -76.6938,
    "kma": "Baltimore Market",
    "kma_name": "Baltimore Market",
    "region": "MD",
    "freight_score": 86,
    "population": 45585,
    "zip_zone": "Z2"
  },
  {
    "city": "Catonsville",
    "state": "MD",
    "zip": "21250",
    "lat": 39.2646,
    "lon": -76.7424,
    "kma": "Baltimore Market",
    "kma_name": "Baltimore Market",
    "region": "MD",
    "freight_score": 86,
    "population": 42717,
    "zip_zone": "Z2"
  },
  {
    "city": "Annapolis",
    "state": "MD",
    "zip": "21401",
    "lat": 38.9706,
    "lon": -76.5047,
    "kma": "Baltimore Market",
    "kma_name": "Baltimore Market",
    "region": "MD",
    "freight_score": 85,
    "population": 40744,
    "zip_zone": "Z2"
  },
  {
    "city": "Essex",
    "state": "MD",
    "zip": "21221",
    "lat": 39.3021,
    "lon": -76.4449,
    "kma": "Baltimore Market",
    "kma_name": "Baltimore Market",
    "region": "MD",
    "freight_score": 85,
    "population": 40670,
    "zip_zone": "Z2"
  },
  {
    "city": "Woodlawn",
    "state": "MD",
    "zip": "21244",
    "lat": 39.3054,
    "lon": -76.7489,
    "kma": "Baltimore Market",
    "kma_name": "Baltimore Market",
    "region": "MD",
    "freight_score": 85,
    "population": 40476,
    "zip_zone": "Z2"
  },
  {
    "city": "Severna Park",
    "state": "MD",
    "zip": "21122",
    "lat": 39.087,
    "lon": -76.5687,
    "kma": "Baltimore Market",
    "kma_name": "Baltimore Market",
    "region": "MD",
    "freight_score": 85,
    "population": 39499,
    "zip_zone": "Z2"
  },
  {
    "city": "Clinton",
    "state": "MD",
    "zip": "20735",
    "lat": 38.7499,
    "lon": -76.9063,
    "kma": "Washington DC Market",
    "kma_name": "Washington DC Market",
    "region": "MD",
    "freight_score": 85,
    "population": 38756,
    "zip_zone": "Z2"
  },
  {
    "city": "Olney",
    "state": "MD",
    "zip": "20860",
    "lat": 39.1465,
    "lon": -77.0715,
    "kma": "Washington DC Market",
    "kma_name": "Washington DC Market",
    "region": "MD",
    "freight_score": 84,
    "population": 36000,
    "zip_zone": "Z2"
  },
  {
    "city": "Randallstown",
    "state": "MD",
    "zip": "21163",
    "lat": 39.3723,
    "lon": -76.8024,
    "kma": "Baltimore Market",
    "kma_name": "Baltimore Market",
    "region": "MD",
    "freight_score": 84,
    "population": 35975,
    "zip_zone": "Z2"
  },
  {
    "city": "Owings Mills",
    "state": "MD",
    "zip": "21117",
    "lat": 39.4115,
    "lon": -76.7913,
    "kma": "Baltimore Market",
    "kma_name": "Baltimore Market",
    "region": "MD",
    "freight_score": 84,
    "population": 35626,
    "zip_zone": "Z2"
  },
  {
    "city": "Chillum",
    "state": "MD",
    "zip": "20783",
    "lat": 38.9666,
    "lon": -76.9791,
    "kma": "Washington DC Market",
    "kma_name": "Washington DC Market",
    "region": "MD",
    "freight_score": 84,
    "population": 35163,
    "zip_zone": "Z2"
  },
  {
    "city": "College Park",
    "state": "MD",
    "zip": "20742",
    "lat": 38.996,
    "lon": -76.9337,
    "kma": "Washington DC Market",
    "kma_name": "Washington DC Market",
    "region": "MD",
    "freight_score": 84,
    "population": 34397,
    "zip_zone": "Z2"
  },
  {
    "city": "Pikesville",
    "state": "MD",
    "zip": "21153",
    "lat": 39.3893,
    "lon": -76.702,
    "kma": "Baltimore Market",
    "kma_name": "Baltimore Market",
    "region": "MD",
    "freight_score": 84,
    "population": 34253,
    "zip_zone": "Z2"
  },
  {
    "city": "Montgomery Village",
    "state": "MD",
    "zip": "20886",
    "lat": 39.1788,
    "lon": -77.1954,
    "kma": "Washington DC Market",
    "kma_name": "Washington DC Market",
    "region": "MD",
    "freight_score": 84,
    "population": 34161,
    "zip_zone": "Z2"
  },
  {
    "city": "Pasadena",
    "state": "MD",
    "zip": "21122",
    "lat": 39.1552,
    "lon": -76.5537,
    "kma": "Baltimore Market",
    "kma_name": "Baltimore Market",
    "region": "MD",
    "freight_score": 83,
    "population": 32717,
    "zip_zone": "Z2"
  },
  {
    "city": "Milford Mill",
    "state": "MD",
    "zip": "21244",
    "lat": 39.3444,
    "lon": -76.7668,
    "kma": "Baltimore Market",
    "kma_name": "Baltimore Market",
    "region": "MD",
    "freight_score": 83,
    "population": 31939,
    "zip_zone": "Z2"
  },
  {
    "city": "Middle River",
    "state": "MD",
    "zip": "21220",
    "lat": 39.3436,
    "lon": -76.4253,
    "kma": "Baltimore Market",
    "kma_name": "Baltimore Market",
    "region": "MD",
    "freight_score": 83,
    "population": 31616,
    "zip_zone": "Z2"
  },
  {
    "city": "Bel Air North",
    "state": "MD",
    "zip": "21050",
    "lat": 39.5543,
    "lon": -76.3732,
    "kma": "Baltimore Market",
    "kma_name": "Baltimore Market",
    "region": "MD",
    "freight_score": 83,
    "population": 31599,
    "zip_zone": "Z2"
  },
  {
    "city": "Eldersburg",
    "state": "MD",
    "zip": "21784",
    "lat": 39.4041,
    "lon": -76.9528,
    "kma": "Baltimore Market",
    "kma_name": "Baltimore Market",
    "region": "MD",
    "freight_score": 83,
    "population": 30626,
    "zip_zone": "Z2"
  },
  {
    "city": "Parkville",
    "state": "MD",
    "zip": "21234",
    "lat": 39.3832,
    "lon": -76.5519,
    "kma": "Baltimore Market",
    "kma_name": "Baltimore Market",
    "region": "MD",
    "freight_score": 83,
    "population": 30423,
    "zip_zone": "Z2"
  },
  {
    "city": "Crofton",
    "state": "MD",
    "zip": "21054",
    "lat": 39.0144,
    "lon": -76.68,
    "kma": "Baltimore Market",
    "kma_name": "Baltimore Market",
    "region": "MD",
    "freight_score": 82,
    "population": 29878,
    "zip_zone": "Z2"
  },
  {
    "city": "Laurel",
    "state": "MD",
    "zip": "20707",
    "lat": 39.0949,
    "lon": -76.8622,
    "kma": "Washington DC Market",
    "kma_name": "Washington DC Market",
    "region": "MD",
    "freight_score": 82,
    "population": 29594,
    "zip_zone": "Z2"
  },
  {
    "city": "Clarksburg",
    "state": "MD",
    "zip": "20841",
    "lat": 39.2246,
    "lon": -77.2659,
    "kma": "Washington DC Market",
    "kma_name": "Washington DC Market",
    "region": "MD",
    "freight_score": 82,
    "population": 29246,
    "zip_zone": "Z2"
  },
  {
    "city": "Perry Hall",
    "state": "MD",
    "zip": "21234",
    "lat": 39.4068,
    "lon": -76.478,
    "kma": "Baltimore Market",
    "kma_name": "Baltimore Market",
    "region": "MD",
    "freight_score": 82,
    "population": 28908,
    "zip_zone": "Z2"
  },
  {
    "city": "Carney",
    "state": "MD",
    "zip": "21234",
    "lat": 39.405,
    "lon": -76.5235,
    "kma": "Baltimore Market",
    "kma_name": "Baltimore Market",
    "region": "MD",
    "freight_score": 82,
    "population": 28624,
    "zip_zone": "Z2"
  },
  {
    "city": "Reisterstown",
    "state": "MD",
    "zip": "21117",
    "lat": 39.455,
    "lon": -76.814,
    "kma": "Baltimore Market",
    "kma_name": "Baltimore Market",
    "region": "MD",
    "freight_score": 82,
    "population": 27764,
    "zip_zone": "Z2"
  },
  {
    "city": "South Laurel",
    "state": "MD",
    "zip": "20708",
    "lat": 39.0603,
    "lon": -76.8456,
    "kma": "Washington DC Market",
    "kma_name": "Washington DC Market",
    "region": "MD",
    "freight_score": 82,
    "population": 27736,
    "zip_zone": "Z2"
  },
  {
    "city": "Lochearn",
    "state": "MD",
    "zip": "21208",
    "lat": 39.3461,
    "lon": -76.7307,
    "kma": "Baltimore Market",
    "kma_name": "Baltimore Market",
    "region": "MD",
    "freight_score": 82,
    "population": 27591,
    "zip_zone": "Z2"
  },
  {
    "city": "Ilchester",
    "state": "MD",
    "zip": "21043",
    "lat": 39.2187,
    "lon": -76.7683,
    "kma": "Baltimore Market",
    "kma_name": "Baltimore Market",
    "region": "MD",
    "freight_score": 82,
    "population": 27552,
    "zip_zone": "Z2"
  },
  {
    "city": "Elkridge",
    "state": "MD",
    "zip": "21075",
    "lat": 39.1941,
    "lon": -76.7428,
    "kma": "Baltimore Market",
    "kma_name": "Baltimore Market",
    "region": "MD",
    "freight_score": 82,
    "population": 26183,
    "zip_zone": "Z2"
  },
  {
    "city": "Fairland",
    "state": "MD",
    "zip": "20866",
    "lat": 39.0803,
    "lon": -76.9527,
    "kma": "Washington DC Market",
    "kma_name": "Washington DC Market",
    "region": "MD",
    "freight_score": 82,
    "population": 26183,
    "zip_zone": "Z2"
  },
  {
    "city": "Ballenger Creek",
    "state": "MD",
    "zip": "21704",
    "lat": 39.3807,
    "lon": -77.4206,
    "kma": "Washington DC Market",
    "kma_name": "Washington DC Market",
    "region": "MD",
    "freight_score": 81,
    "population": 25866,
    "zip_zone": "Z2"
  },
  {
    "city": "Fort Washington",
    "state": "MD",
    "zip": "20744",
    "lat": 38.7339,
    "lon": -77.0069,
    "kma": "Washington DC Market",
    "kma_name": "Washington DC Market",
    "region": "MD",
    "freight_score": 81,
    "population": 25843,
    "zip_zone": "Z2"
  },
  {
    "city": "North Laurel",
    "state": "MD",
    "zip": "20723",
    "lat": 39.1285,
    "lon": -76.8476,
    "kma": "Baltimore Market",
    "kma_name": "Baltimore Market",
    "region": "MD",
    "freight_score": 81,
    "population": 25201,
    "zip_zone": "Z2"
  },
  {
    "city": "Edgewood",
    "state": "MD",
    "zip": "21010",
    "lat": 39.419,
    "lon": -76.2964,
    "kma": "Baltimore Market",
    "kma_name": "Baltimore Market",
    "region": "MD",
    "freight_score": 81,
    "population": 25170,
    "zip_zone": "Z2"
  },
  {
    "city": "Suitland",
    "state": "MD",
    "zip": "20746",
    "lat": 38.8492,
    "lon": -76.9225,
    "kma": "Washington DC Market",
    "kma_name": "Washington DC Market",
    "region": "MD",
    "freight_score": 81,
    "population": 24667,
    "zip_zone": "Z2"
  },
  {
    "city": "Greenbelt",
    "state": "MD",
    "zip": "20770",
    "lat": 38.9953,
    "lon": -76.8885,
    "kma": "Washington DC Market",
    "kma_name": "Washington DC Market",
    "region": "MD",
    "freight_score": 81,
    "population": 24572,
    "zip_zone": "Z2"
  },
  {
    "city": "Landover",
    "state": "MD",
    "zip": "20784",
    "lat": 38.9241,
    "lon": -76.8875,
    "kma": "Washington DC Market",
    "kma_name": "Washington DC Market",
    "region": "MD",
    "freight_score": 81,
    "population": 24558,
    "zip_zone": "Z2"
  },
  {
    "city": "North Potomac",
    "state": "MD",
    "zip": "20878",
    "lat": 39.0955,
    "lon": -77.2373,
    "kma": "Washington DC Market",
    "kma_name": "Washington DC Market",
    "region": "MD",
    "freight_score": 81,
    "population": 23994,
    "zip_zone": "Z2"
  },
  {
    "city": "Arnold",
    "state": "MD",
    "zip": "21012",
    "lat": 39.0437,
    "lon": -76.4974,
    "kma": "Baltimore Market",
    "kma_name": "Baltimore Market",
    "region": "MD",
    "freight_score": 81,
    "population": 23866,
    "zip_zone": "Z2"
  },
  {
    "city": "Cockeysville",
    "state": "MD",
    "zip": "21031",
    "lat": 39.4804,
    "lon": -76.6294,
    "kma": "Baltimore Market",
    "kma_name": "Baltimore Market",
    "region": "MD",
    "freight_score": 81,
    "population": 23265,
    "zip_zone": "Z2"
  },
  {
    "city": "Camp Springs",
    "state": "MD",
    "zip": "20744",
    "lat": 38.8052,
    "lon": -76.9199,
    "kma": "Washington DC Market",
    "kma_name": "Washington DC Market",
    "region": "MD",
    "freight_score": 81,
    "population": 22174,
    "zip_zone": "Z2"
  },
  {
    "city": "Langley Park",
    "state": "MD",
    "zip": "20783",
    "lat": 38.9897,
    "lon": -76.9808,
    "kma": "Washington DC Market",
    "kma_name": "Washington DC Market",
    "region": "MD",
    "freight_score": 81,
    "population": 22057,
    "zip_zone": "Z2"
  },
  {
    "city": "Arbutus",
    "state": "MD",
    "zip": "21227",
    "lat": 39.2428,
    "lon": -76.6922,
    "kma": "Baltimore Market",
    "kma_name": "Baltimore Market",
    "region": "MD",
    "freight_score": 80,
    "population": 20869,
    "zip_zone": "Z2"
  },
  {
    "city": "Hyattsville",
    "state": "MD",
    "zip": "20781",
    "lat": 38.9613,
    "lon": -76.9548,
    "kma": "Washington DC Market",
    "kma_name": "Washington DC Market",
    "region": "MD",
    "freight_score": 80,
    "population": 20861,
    "zip_zone": "Z2"
  },
  {
    "city": "Rosedale",
    "state": "MD",
    "zip": "21237",
    "lat": 39.3266,
    "lon": -76.5084,
    "kma": "Baltimore Market",
    "kma_name": "Baltimore Market",
    "region": "MD",
    "freight_score": 80,
    "population": 20845,
    "zip_zone": "Z2"
  },
  {
    "city": "Westminster",
    "state": "MD",
    "zip": "21158",
    "lat": 39.5796,
    "lon": -77.0067,
    "kma": "Baltimore Market",
    "kma_name": "Baltimore Market",
    "region": "MD",
    "freight_score": 80,
    "population": 20257,
    "zip_zone": "Z2"
  },
  {
    "city": "Beltsville",
    "state": "MD",
    "zip": "20705",
    "lat": 39.0394,
    "lon": -76.9211,
    "kma": "Washington DC Market",
    "kma_name": "Washington DC Market",
    "region": "MD",
    "freight_score": 80,
    "population": 19086,
    "zip_zone": "Z2"
  },
  {
    "city": "East Riverdale",
    "state": "MD",
    "zip": "20781",
    "lat": 38.96,
    "lon": -76.9109,
    "kma": "Washington DC Market",
    "kma_name": "Washington DC Market",
    "region": "MD",
    "freight_score": 80,
    "population": 19043,
    "zip_zone": "Z2"
  },
  {
    "city": "Redland",
    "state": "MD",
    "zip": "20855",
    "lat": 39.1339,
    "lon": -77.1464,
    "kma": "Washington DC Market",
    "kma_name": "Washington DC Market",
    "region": "MD",
    "freight_score": 80,
    "population": 18976,
    "zip_zone": "Z2"
  },
  {
    "city": "Cumberland",
    "state": "MD",
    "zip": "21502",
    "lat": 39.6515,
    "lon": -78.7584,
    "kma": "Winchester Market",
    "kma_name": "Winchester Market",
    "region": "MD",
    "freight_score": 80,
    "population": 18938,
    "zip_zone": "Z2"
  },
  {
    "city": "Maryland City",
    "state": "MD",
    "zip": "20724",
    "lat": 39.1016,
    "lon": -76.8051,
    "kma": "Baltimore Market",
    "kma_name": "Baltimore Market",
    "region": "MD",
    "freight_score": 80,
    "population": 18669,
    "zip_zone": "Z2"
  },
  {
    "city": "Seabrook",
    "state": "MD",
    "zip": "20706",
    "lat": 38.9802,
    "lon": -76.8502,
    "kma": "Washington DC Market",
    "kma_name": "Washington DC Market",
    "region": "MD",
    "freight_score": 80,
    "population": 18495,
    "zip_zone": "Z2"
  },
  {
    "city": "Oxon Hill",
    "state": "MD",
    "zip": "20744",
    "lat": 38.7884,
    "lon": -76.9727,
    "kma": "Washington DC Market",
    "kma_name": "Washington DC Market",
    "region": "MD",
    "freight_score": 80,
    "population": 18491,
    "zip_zone": "Z2"
  },
  {
    "city": "Lake Shore",
    "state": "MD",
    "zip": "21122",
    "lat": 39.103,
    "lon": -76.4876,
    "kma": "Baltimore Market",
    "kma_name": "Baltimore Market",
    "region": "MD",
    "freight_score": 80,
    "population": 18263,
    "zip_zone": "Z2"
  },
  {
    "city": "Parole",
    "state": "MD",
    "zip": "21401",
    "lat": 38.9863,
    "lon": -76.5518,
    "kma": "Baltimore Market",
    "kma_name": "Baltimore Market",
    "region": "MD",
    "freight_score": 79,
    "population": 17910,
    "zip_zone": "Z2"
  },
  {
    "city": "Calverton",
    "state": "MD",
    "zip": "20705",
    "lat": 39.0578,
    "lon": -76.9488,
    "kma": "Washington DC Market",
    "kma_name": "Washington DC Market",
    "region": "MD",
    "freight_score": 79,
    "population": 17721,
    "zip_zone": "Z2"
  },
  {
    "city": "Glassmanor",
    "state": "MD",
    "zip": "20745",
    "lat": 38.8181,
    "lon": -76.9833,
    "kma": "Washington DC Market",
    "kma_name": "Washington DC Market",
    "region": "MD",
    "freight_score": 79,
    "population": 17687,
    "zip_zone": "Z2"
  },
  {
    "city": "Takoma Park",
    "state": "MD",
    "zip": "20912",
    "lat": 38.981,
    "lon": -77.0028,
    "kma": "Washington DC Market",
    "kma_name": "Washington DC Market",
    "region": "MD",
    "freight_score": 79,
    "population": 17522,
    "zip_zone": "Z2"
  },
  {
    "city": "Adelphi",
    "state": "MD",
    "zip": "20783",
    "lat": 39.0017,
    "lon": -76.9649,
    "kma": "Washington DC Market",
    "kma_name": "Washington DC Market",
    "region": "MD",
    "freight_score": 79,
    "population": 17210,
    "zip_zone": "Z2"
  },
  {
    "city": "Easton",
    "state": "MD",
    "zip": "21601",
    "lat": 38.776,
    "lon": -76.0701,
    "kma": "Baltimore Market",
    "kma_name": "Baltimore Market",
    "region": "MD",
    "freight_score": 79,
    "population": 17202,
    "zip_zone": "Z2"
  },
  {
    "city": "Ferndale",
    "state": "MD",
    "zip": "21061",
    "lat": 39.1869,
    "lon": -76.6331,
    "kma": "Baltimore Market",
    "kma_name": "Baltimore Market",
    "region": "MD",
    "freight_score": 79,
    "population": 17076,
    "zip_zone": "Z2"
  },
  {
    "city": "Damascus",
    "state": "MD",
    "zip": "20872",
    "lat": 39.2701,
    "lon": -77.1957,
    "kma": "Washington DC Market",
    "kma_name": "Washington DC Market",
    "region": "MD",
    "freight_score": 79,
    "population": 16864,
    "zip_zone": "Z2"
  },
  {
    "city": "Aberdeen",
    "state": "MD",
    "zip": "21001",
    "lat": 39.5151,
    "lon": -76.1733,
    "kma": "Baltimore Market",
    "kma_name": "Baltimore Market",
    "region": "MD",
    "freight_score": 79,
    "population": 16831,
    "zip_zone": "Z2"
  },
  {
    "city": "Cloverly",
    "state": "MD",
    "zip": "20861",
    "lat": 39.1064,
    "lon": -76.9995,
    "kma": "Washington DC Market",
    "kma_name": "Washington DC Market",
    "region": "MD",
    "freight_score": 79,
    "population": 16726,
    "zip_zone": "Z2"
  },
  {
    "city": "Glenmont",
    "state": "MD",
    "zip": "20906",
    "lat": 39.0698,
    "lon": -77.0467,
    "kma": "Washington DC Market",
    "kma_name": "Washington DC Market",
    "region": "MD",
    "freight_score": 79,
    "population": 16529,
    "zip_zone": "Z2"
  },
  {
    "city": "White Oak",
    "state": "MD",
    "zip": "20904",
    "lat": 39.0451,
    "lon": -76.9885,
    "kma": "Washington DC Market",
    "kma_name": "Washington DC Market",
    "region": "MD",
    "freight_score": 79,
    "population": 16458,
    "zip_zone": "Z2"
  },
  {
    "city": "Elkton",
    "state": "MD",
    "zip": "21921",
    "lat": 39.6066,
    "lon": -75.8209,
    "kma": "Philadelphia Market",
    "kma_name": "Philadelphia Market",
    "region": "MD",
    "freight_score": 79,
    "population": 15867,
    "zip_zone": "Z2"
  },
  {
    "city": "Brooklyn Park",
    "state": "MD",
    "zip": "21225",
    "lat": 39.217,
    "lon": -76.6174,
    "kma": "Baltimore Market",
    "kma_name": "Baltimore Market",
    "region": "MD",
    "freight_score": 79,
    "population": 15799,
    "zip_zone": "Z2"
  },
  {
    "city": "Hillcrest Heights",
    "state": "MD",
    "zip": "20748",
    "lat": 38.8373,
    "lon": -76.9641,
    "kma": "Washington DC Market",
    "kma_name": "Washington DC Market",
    "region": "MD",
    "freight_score": 79,
    "population": 15670,
    "zip_zone": "Z2"
  },
  {
    "city": "Summerfield",
    "state": "MD",
    "zip": "20785",
    "lat": 38.9042,
    "lon": -76.8678,
    "kma": "Washington DC Market",
    "kma_name": "Washington DC Market",
    "region": "MD",
    "freight_score": 79,
    "population": 15635,
    "zip_zone": "Z2"
  },
  {
    "city": "Mays Chapel",
    "state": "MD",
    "zip": "21093",
    "lat": 39.4343,
    "lon": -76.6516,
    "kma": "Baltimore Market",
    "kma_name": "Baltimore Market",
    "region": "MD",
    "freight_score": 79,
    "population": 15616,
    "zip_zone": "Z2"
  },
  {
    "city": "Rossville",
    "state": "MD",
    "zip": "21237",
    "lat": 39.3572,
    "lon": -76.4767,
    "kma": "Baltimore Market",
    "kma_name": "Baltimore Market",
    "region": "MD",
    "freight_score": 79,
    "population": 15088,
    "zip_zone": "Z2"
  },
  {
    "city": "Lake Arbor",
    "state": "MD",
    "zip": "20721",
    "lat": 38.9105,
    "lon": -76.8304,
    "kma": "Washington DC Market",
    "kma_name": "Washington DC Market",
    "region": "MD",
    "freight_score": 79,
    "population": 14932,
    "zip_zone": "Z2"
  },
  {
    "city": "Glenn Dale",
    "state": "MD",
    "zip": "20720",
    "lat": 38.9833,
    "lon": -76.804,
    "kma": "Washington DC Market",
    "kma_name": "Washington DC Market",
    "region": "MD",
    "freight_score": 79,
    "population": 14896,
    "zip_zone": "Z2"
  },
  {
    "city": "Havre de Grace",
    "state": "MD",
    "zip": "21078",
    "lat": 39.548,
    "lon": -76.1146,
    "kma": "Baltimore Market",
    "kma_name": "Baltimore Market",
    "region": "MD",
    "freight_score": 79,
    "population": 14857,
    "zip_zone": "Z2"
  },
  {
    "city": "Bensville",
    "state": "MD",
    "zip": "20603",
    "lat": 38.6176,
    "lon": -77.0077,
    "kma": "Washington DC Market",
    "kma_name": "Washington DC Market",
    "region": "MD",
    "freight_score": 79,
    "population": 14792,
    "zip_zone": "Z2"
  },
  {
    "city": "Kemp Mill",
    "state": "MD",
    "zip": "20902",
    "lat": 39.0412,
    "lon": -77.0215,
    "kma": "Washington DC Market",
    "kma_name": "Washington DC Market",
    "region": "MD",
    "freight_score": 79,
    "population": 14437,
    "zip_zone": "Z2"
  },
  {
    "city": "Colesville",
    "state": "MD",
    "zip": "20904",
    "lat": 39.073,
    "lon": -77.001,
    "kma": "Washington DC Market",
    "kma_name": "Washington DC Market",
    "region": "MD",
    "freight_score": 79,
    "population": 14075,
    "zip_zone": "Z2"
  },
  {
    "city": "Urbana",
    "state": "MD",
    "zip": "21704",
    "lat": 39.3274,
    "lon": -77.3423,
    "kma": "Washington DC Market",
    "kma_name": "Washington DC Market",
    "region": "MD",
    "freight_score": 78,
    "population": 13897,
    "zip_zone": "Z2"
  },
  {
    "city": "Kettering",
    "state": "MD",
    "zip": "20774",
    "lat": 38.8888,
    "lon": -76.7889,
    "kma": "Washington DC Market",
    "kma_name": "Washington DC Market",
    "region": "MD",
    "freight_score": 78,
    "population": 13866,
    "zip_zone": "Z2"
  },
  {
    "city": "Flower Hill",
    "state": "MD",
    "zip": "20879",
    "lat": 39.1676,
    "lon": -77.1824,
    "kma": "Washington DC Market",
    "kma_name": "Washington DC Market",
    "region": "MD",
    "freight_score": 78,
    "population": 13743,
    "zip_zone": "Z2"
  },
  {
    "city": "New Carrollton",
    "state": "MD",
    "zip": "20784",
    "lat": 38.9656,
    "lon": -76.8775,
    "kma": "Washington DC Market",
    "kma_name": "Washington DC Market",
    "region": "MD",
    "freight_score": 78,
    "population": 13544,
    "zip_zone": "Z2"
  },
  {
    "city": "Lexington Park",
    "state": "MD",
    "zip": "20653",
    "lat": 38.2528,
    "lon": -76.4424,
    "kma": "Washington DC Market",
    "kma_name": "Washington DC Market",
    "region": "MD",
    "freight_score": 78,
    "population": 13419,
    "zip_zone": "Z2"
  },
  {
    "city": "Brock Hall",
    "state": "MD",
    "zip": "20774",
    "lat": 38.8604,
    "lon": -76.7459,
    "kma": "Washington DC Market",
    "kma_name": "Washington DC Market",
    "region": "MD",
    "freight_score": 78,
    "population": 13400,
    "zip_zone": "Z2"
  },
  {
    "city": "Joppatowne",
    "state": "MD",
    "zip": "21085",
    "lat": 39.4181,
    "lon": -76.3516,
    "kma": "Baltimore Market",
    "kma_name": "Baltimore Market",
    "region": "MD",
    "freight_score": 78,
    "population": 13397,
    "zip_zone": "Z2"
  },
  {
    "city": "Accokeek",
    "state": "MD",
    "zip": "20601",
    "lat": 38.6745,
    "lon": -77.0023,
    "kma": "Washington DC Market",
    "kma_name": "Washington DC Market",
    "region": "MD",
    "freight_score": 78,
    "population": 13226,
    "zip_zone": "Z2"
  },
  {
    "city": "California",
    "state": "MD",
    "zip": "20653",
    "lat": 38.2969,
    "lon": -76.4949,
    "kma": "Washington DC Market",
    "kma_name": "Washington DC Market",
    "region": "MD",
    "freight_score": 78,
    "population": 13223,
    "zip_zone": "Z2"
  },
  {
    "city": "Green Valley",
    "state": "MD",
    "zip": "21770",
    "lat": 39.3414,
    "lon": -77.24,
    "kma": "Washington DC Market",
    "kma_name": "Washington DC Market",
    "region": "MD",
    "freight_score": 78,
    "population": 13187,
    "zip_zone": "Z2"
  },
  {
    "city": "Cambridge",
    "state": "MD",
    "zip": "21613",
    "lat": 38.5515,
    "lon": -76.0787,
    "kma": "Washington DC Market",
    "kma_name": "Washington DC Market",
    "region": "MD",
    "freight_score": 78,
    "population": 13094,
    "zip_zone": "Z2"
  },
  {
    "city": "Linganore",
    "state": "MD",
    "zip": "21774",
    "lat": 39.4127,
    "lon": -77.3014,
    "kma": "Washington DC Market",
    "kma_name": "Washington DC Market",
    "region": "MD",
    "freight_score": 78,
    "population": 13044,
    "zip_zone": "Z2"
  },
  {
    "city": "Riviera Beach",
    "state": "MD",
    "zip": "21122",
    "lat": 39.1623,
    "lon": -76.5257,
    "kma": "Baltimore Market",
    "kma_name": "Baltimore Market",
    "region": "MD",
    "freight_score": 78,
    "population": 12608,
    "zip_zone": "Z2"
  },
  {
    "city": "Annapolis Neck",
    "state": "MD",
    "zip": "21403",
    "lat": 38.9409,
    "lon": -76.4997,
    "kma": "Baltimore Market",
    "kma_name": "Baltimore Market",
    "region": "MD",
    "freight_score": 78,
    "population": 12484,
    "zip_zone": "Z2"
  },
  {
    "city": "Overlea",
    "state": "MD",
    "zip": "21234",
    "lat": 39.3642,
    "lon": -76.5175,
    "kma": "Baltimore Market",
    "kma_name": "Baltimore Market",
    "region": "MD",
    "freight_score": 78,
    "population": 12430,
    "zip_zone": "Z2"
  },
  {
    "city": "Rosaryville",
    "state": "MD",
    "zip": "20623",
    "lat": 38.7672,
    "lon": -76.8266,
    "kma": "Washington DC Market",
    "kma_name": "Washington DC Market",
    "region": "MD",
    "freight_score": 78,
    "population": 12206,
    "zip_zone": "Z2"
  },
  {
    "city": "Ocean Pines",
    "state": "MD",
    "zip": "21811",
    "lat": 38.3851,
    "lon": -75.1487,
    "kma": "Baltimore Market",
    "kma_name": "Baltimore Market",
    "region": "MD",
    "freight_score": 78,
    "population": 12028,
    "zip_zone": "Z2"
  },
  {
    "city": "Honeygo",
    "state": "MD",
    "zip": "21128",
    "lat": 39.4055,
    "lon": -76.4282,
    "kma": "Baltimore Market",
    "kma_name": "Baltimore Market",
    "region": "MD",
    "freight_score": 78,
    "population": 12022,
    "zip_zone": "Z2"
  },
  {
    "city": "Westphalia",
    "state": "MD",
    "zip": "20774",
    "lat": 38.8356,
    "lon": -76.8298,
    "kma": "Washington DC Market",
    "kma_name": "Washington DC Market",
    "region": "MD",
    "freight_score": 78,
    "population": 12020,
    "zip_zone": "Z2"
  },
  {
    "city": "Lanham",
    "state": "MD",
    "zip": "20706",
    "lat": 38.962,
    "lon": -76.8421,
    "kma": "Washington DC Market",
    "kma_name": "Washington DC Market",
    "region": "MD",
    "freight_score": 78,
    "population": 11956,
    "zip_zone": "Z2"
  },
  {
    "city": "Largo",
    "state": "MD",
    "zip": "20774",
    "lat": 38.88,
    "lon": -76.8289,
    "kma": "Washington DC Market",
    "kma_name": "Washington DC Market",
    "region": "MD",
    "freight_score": 78,
    "population": 11753,
    "zip_zone": "Z2"
  },
  {
    "city": "Friendly",
    "state": "MD",
    "zip": "20744",
    "lat": 38.7601,
    "lon": -76.9642,
    "kma": "Washington DC Market",
    "kma_name": "Washington DC Market",
    "region": "MD",
    "freight_score": 78,
    "population": 11673,
    "zip_zone": "Z2"
  },
  {
    "city": "Mitchellville",
    "state": "MD",
    "zip": "20720",
    "lat": 38.9358,
    "lon": -76.8146,
    "kma": "Washington DC Market",
    "kma_name": "Washington DC Market",
    "region": "MD",
    "freight_score": 78,
    "population": 11325,
    "zip_zone": "Z2"
  },
  {
    "city": "Travilah",
    "state": "MD",
    "zip": "20854",
    "lat": 39.057,
    "lon": -77.247,
    "kma": "Washington DC Market",
    "kma_name": "Washington DC Market",
    "region": "MD",
    "freight_score": 78,
    "population": 11128,
    "zip_zone": "Z2"
  },
  {
    "city": "Brandywine",
    "state": "MD",
    "zip": "20613",
    "lat": 38.6963,
    "lon": -76.8846,
    "kma": "Washington DC Market",
    "kma_name": "Washington DC Market",
    "region": "MD",
    "freight_score": 78,
    "population": 10989,
    "zip_zone": "Z2"
  },
  {
    "city": "Halfway",
    "state": "MD",
    "zip": "21740",
    "lat": 39.6162,
    "lon": -77.7703,
    "kma": "Winchester Market",
    "kma_name": "Winchester Market",
    "region": "MD",
    "freight_score": 78,
    "population": 10974,
    "zip_zone": "Z2"
  },
  {
    "city": "Timonium",
    "state": "MD",
    "zip": "21093",
    "lat": 39.4459,
    "lon": -76.6032,
    "kma": "Baltimore Market",
    "kma_name": "Baltimore Market",
    "region": "MD",
    "freight_score": 78,
    "population": 10880,
    "zip_zone": "Z2"
  },
  {
    "city": "Forestville",
    "state": "MD",
    "zip": "20747",
    "lat": 38.8518,
    "lon": -76.8708,
    "kma": "Washington DC Market",
    "kma_name": "Washington DC Market",
    "region": "MD",
    "freight_score": 78,
    "population": 10839,
    "zip_zone": "Z2"
  },
  {
    "city": "Bel Air",
    "state": "MD",
    "zip": "21014",
    "lat": 39.5348,
    "lon": -76.346,
    "kma": "Baltimore Market",
    "kma_name": "Baltimore Market",
    "region": "MD",
    "freight_score": 78,
    "population": 10616,
    "zip_zone": "Z2"
  },
  {
    "city": "Linthicum",
    "state": "MD",
    "zip": "21090",
    "lat": 39.2088,
    "lon": -76.6626,
    "kma": "Baltimore Market",
    "kma_name": "Baltimore Market",
    "region": "MD",
    "freight_score": 78,
    "population": 10545,
    "zip_zone": "Z2"
  },
  {
    "city": "White Marsh",
    "state": "MD",
    "zip": "21128",
    "lat": 39.3819,
    "lon": -76.4574,
    "kma": "Baltimore Market",
    "kma_name": "Baltimore Market",
    "region": "MD",
    "freight_score": 78,
    "population": 10480,
    "zip_zone": "Z2"
  },
  {
    "city": "Fort Meade",
    "state": "MD",
    "zip": "20755",
    "lat": 39.1061,
    "lon": -76.7437,
    "kma": "Baltimore Market",
    "kma_name": "Baltimore Market",
    "region": "MD",
    "freight_score": 78,
    "population": 10477,
    "zip_zone": "Z2"
  },
  {
    "city": "La Plata",
    "state": "MD",
    "zip": "20646",
    "lat": 38.5352,
    "lon": -76.97,
    "kma": "Washington DC Market",
    "kma_name": "Washington DC Market",
    "region": "MD",
    "freight_score": 78,
    "population": 10470,
    "zip_zone": "Z2"
  },
  {
    "city": "Garrison",
    "state": "MD",
    "zip": "21117",
    "lat": 39.4023,
    "lon": -76.7514,
    "kma": "Baltimore Market",
    "kma_name": "Baltimore Market",
    "region": "MD",
    "freight_score": 78,
    "population": 10449,
    "zip_zone": "Z2"
  },
  {
    "city": "Scaggsville",
    "state": "MD",
    "zip": "20723",
    "lat": 39.1416,
    "lon": -76.8843,
    "kma": "Baltimore Market",
    "kma_name": "Baltimore Market",
    "region": "MD",
    "freight_score": 78,
    "population": 10441,
    "zip_zone": "Z2"
  },
  {
    "city": "Marlton",
    "state": "MD",
    "zip": "20772",
    "lat": 38.762,
    "lon": -76.7857,
    "kma": "Washington DC Market",
    "kma_name": "Washington DC Market",
    "region": "MD",
    "freight_score": 78,
    "population": 10223,
    "zip_zone": "Z2"
  },
  {
    "city": "Burtonsville",
    "state": "MD",
    "zip": "20868",
    "lat": 39.1166,
    "lon": -76.9356,
    "kma": "Washington DC Market",
    "kma_name": "Washington DC Market",
    "region": "MD",
    "freight_score": 78,
    "population": 10063,
    "zip_zone": "Z2"
  },
  {
    "city": "Fallston",
    "state": "MD",
    "zip": "21047",
    "lat": 39.5332,
    "lon": -76.4452,
    "kma": "Baltimore Market",
    "kma_name": "Baltimore Market",
    "region": "MD",
    "freight_score": 77,
    "population": 9954,
    "zip_zone": "Z2"
  },
  {
    "city": "Mount Airy",
    "state": "MD",
    "zip": "21771",
    "lat": 39.3742,
    "lon": -77.1534,
    "kma": "Baltimore Market",
    "kma_name": "Baltimore Market",
    "region": "MD",
    "freight_score": 77,
    "population": 9746,
    "zip_zone": "Z2"
  },
  {
    "city": "Walker Mill",
    "state": "MD",
    "zip": "20747",
    "lat": 38.8758,
    "lon": -76.8854,
    "kma": "Washington DC Market",
    "kma_name": "Washington DC Market",
    "region": "MD",
    "freight_score": 77,
    "population": 9626,
    "zip_zone": "Z2"
  },
  {
    "city": "Bladensburg",
    "state": "MD",
    "zip": "20710",
    "lat": 38.9424,
    "lon": -76.9264,
    "kma": "Washington DC Market",
    "kma_name": "Washington DC Market",
    "region": "MD",
    "freight_score": 77,
    "population": 9552,
    "zip_zone": "Z2"
  },
  {
    "city": "Chevy Chase",
    "state": "MD",
    "zip": "20814",
    "lat": 38.9944,
    "lon": -77.0738,
    "kma": "Washington DC Market",
    "kma_name": "Washington DC Market",
    "region": "MD",
    "freight_score": 77,
    "population": 9484,
    "zip_zone": "Z2"
  },
  {
    "city": "Coral Hills",
    "state": "MD",
    "zip": "20743",
    "lat": 38.8706,
    "lon": -76.9215,
    "kma": "Washington DC Market",
    "kma_name": "Washington DC Market",
    "region": "MD",
    "freight_score": 77,
    "population": 9372,
    "zip_zone": "Z2"
  },
  {
    "city": "Chesapeake Ranch Estates",
    "state": "MD",
    "zip": "20657",
    "lat": 38.3574,
    "lon": -76.4147,
    "kma": "Washington DC Market",
    "kma_name": "Washington DC Market",
    "region": "MD",
    "freight_score": 77,
    "population": 9307,
    "zip_zone": "Z2"
  },
  {
    "city": "Marlboro Village",
    "state": "MD",
    "zip": "20772",
    "lat": 38.8307,
    "lon": -76.7699,
    "kma": "Washington DC Market",
    "kma_name": "Washington DC Market",
    "region": "MD",
    "freight_score": 77,
    "population": 9200,
    "zip_zone": "Z2"
  },
  {
    "city": "Bryans Road",
    "state": "MD",
    "zip": "20646",
    "lat": 38.6145,
    "lon": -77.0851,
    "kma": "Washington DC Market",
    "kma_name": "Washington DC Market",
    "region": "MD",
    "freight_score": 77,
    "population": 9174,
    "zip_zone": "Z2"
  },
  {
    "city": "Jessup",
    "state": "MD",
    "zip": "20701",
    "lat": 39.1488,
    "lon": -76.7772,
    "kma": "Baltimore Market",
    "kma_name": "Baltimore Market",
    "region": "MD",
    "freight_score": 77,
    "population": 9147,
    "zip_zone": "Z2"
  },
  {
    "city": "Cape St. Claire",
    "state": "MD",
    "zip": "21409",
    "lat": 39.0433,
    "lon": -76.4471,
    "kma": "Baltimore Market",
    "kma_name": "Baltimore Market",
    "region": "MD",
    "freight_score": 77,
    "population": 9016,
    "zip_zone": "Z2"
  },
  {
    "city": "North Kensington",
    "state": "MD",
    "zip": "20895",
    "lat": 39.0393,
    "lon": -77.0723,
    "kma": "Washington DC Market",
    "kma_name": "Washington DC Market",
    "region": "MD",
    "freight_score": 77,
    "population": 8980,
    "zip_zone": "Z2"
  },
  {
    "city": "Lansdowne",
    "state": "MD",
    "zip": "21227",
    "lat": 39.2365,
    "lon": -76.6659,
    "kma": "Baltimore Market",
    "kma_name": "Baltimore Market",
    "region": "MD",
    "freight_score": 77,
    "population": 8879,
    "zip_zone": "Z2"
  },
  {
    "city": "Edgemere",
    "state": "MD",
    "zip": "21219",
    "lat": 39.2273,
    "lon": -76.459,
    "kma": "Baltimore Market",
    "kma_name": "Baltimore Market",
    "region": "MD",
    "freight_score": 77,
    "population": 8778,
    "zip_zone": "Z2"
  },
  {
    "city": "Temple Hills",
    "state": "MD",
    "zip": "20744",
    "lat": 38.8106,
    "lon": -76.9495,
    "kma": "Washington DC Market",
    "kma_name": "Washington DC Market",
    "region": "MD",
    "freight_score": 77,
    "population": 8740,
    "zip_zone": "Z2"
  },
  {
    "city": "Leisure World",
    "state": "MD",
    "zip": "20906",
    "lat": 39.1023,
    "lon": -77.0689,
    "kma": "Washington DC Market",
    "kma_name": "Washington DC Market",
    "region": "MD",
    "freight_score": 77,
    "population": 8693,
    "zip_zone": "Z2"
  },
  {
    "city": "Stevensville",
    "state": "MD",
    "zip": "21666",
    "lat": 38.9745,
    "lon": -76.3184,
    "kma": "Baltimore Market",
    "kma_name": "Baltimore Market",
    "region": "MD",
    "freight_score": 77,
    "population": 8693,
    "zip_zone": "Z2"
  },
  {
    "city": "Baltimore Highlands",
    "state": "MD",
    "zip": "21227",
    "lat": 39.2355,
    "lon": -76.6367,
    "kma": "Baltimore Market",
    "kma_name": "Baltimore Market",
    "region": "MD",
    "freight_score": 77,
    "population": 8564,
    "zip_zone": "Z2"
  },
  {
    "city": "Mayo",
    "state": "MD",
    "zip": "21037",
    "lat": 38.9042,
    "lon": -76.5179,
    "kma": "Baltimore Market",
    "kma_name": "Baltimore Market",
    "region": "MD",
    "freight_score": 77,
    "population": 8322,
    "zip_zone": "Z2"
  },
  {
    "city": "Edgewater",
    "state": "MD",
    "zip": "21037",
    "lat": 38.9373,
    "lon": -76.5572,
    "kma": "Baltimore Market",
    "kma_name": "Baltimore Market",
    "region": "MD",
    "freight_score": 77,
    "population": 8297,
    "zip_zone": "Z2"
  },
  {
    "city": "Savage",
    "state": "MD",
    "zip": "20763",
    "lat": 39.1485,
    "lon": -76.8228,
    "kma": "Baltimore Market",
    "kma_name": "Baltimore Market",
    "region": "MD",
    "freight_score": 77,
    "population": 8284,
    "zip_zone": "Z2"
  },
  {
    "city": "Mount Rainier",
    "state": "MD",
    "zip": "20712",
    "lat": 38.9423,
    "lon": -76.9645,
    "kma": "Washington DC Market",
    "kma_name": "Washington DC Market",
    "region": "MD",
    "freight_score": 77,
    "population": 8235,
    "zip_zone": "Z2"
  },
  {
    "city": "Fairwood",
    "state": "MD",
    "zip": "20720",
    "lat": 38.9565,
    "lon": -76.778,
    "kma": "Washington DC Market",
    "kma_name": "Washington DC Market",
    "region": "MD",
    "freight_score": 77,
    "population": 8108,
    "zip_zone": "Z2"
  },
  {
    "city": "South Kensington",
    "state": "MD",
    "zip": "20895",
    "lat": 39.0188,
    "lon": -77.0785,
    "kma": "Washington DC Market",
    "kma_name": "Washington DC Market",
    "region": "MD",
    "freight_score": 77,
    "population": 8057,
    "zip_zone": "Z2"
  },
  {
    "city": "Brunswick",
    "state": "MD",
    "zip": "21758",
    "lat": 39.318,
    "lon": -77.6253,
    "kma": "Winchester Market",
    "kma_name": "Winchester Market",
    "region": "MD",
    "freight_score": 77,
    "population": 7994,
    "zip_zone": "Z2"
  },
  {
    "city": "Robinwood",
    "state": "MD",
    "zip": "21742",
    "lat": 39.6265,
    "lon": -77.663,
    "kma": "Winchester Market",
    "kma_name": "Winchester Market",
    "region": "MD",
    "freight_score": 77,
    "population": 7822,
    "zip_zone": "Z2"
  },
  {
    "city": "Four Corners",
    "state": "MD",
    "zip": "20901",
    "lat": 39.0235,
    "lon": -77.0102,
    "kma": "Washington DC Market",
    "kma_name": "Washington DC Market",
    "region": "MD",
    "freight_score": 77,
    "population": 7785,
    "zip_zone": "Z2"
  },
  {
    "city": "Wildewood",
    "state": "MD",
    "zip": "20619",
    "lat": 38.3035,
    "lon": -76.547,
    "kma": "Washington DC Market",
    "kma_name": "Washington DC Market",
    "region": "MD",
    "freight_score": 77,
    "population": 7765,
    "zip_zone": "Z2"
  },
  {
    "city": "Taneytown",
    "state": "MD",
    "zip": "21787",
    "lat": 39.6569,
    "lon": -77.1683,
    "kma": "Baltimore Market",
    "kma_name": "Baltimore Market",
    "region": "MD",
    "freight_score": 77,
    "population": 7295,
    "zip_zone": "Z2"
  },
  {
    "city": "Riverdale Park",
    "state": "MD",
    "zip": "20737",
    "lat": 38.9643,
    "lon": -76.9266,
    "kma": "Washington DC Market",
    "kma_name": "Washington DC Market",
    "region": "MD",
    "freight_score": 77,
    "population": 7249,
    "zip_zone": "Z2"
  },
  {
    "city": "Frostburg",
    "state": "MD",
    "zip": "21532",
    "lat": 39.6506,
    "lon": -78.9269,
    "kma": "Winchester Market",
    "kma_name": "Winchester Market",
    "region": "MD",
    "freight_score": 77,
    "population": 7025,
    "zip_zone": "Z2"
  },
  {
    "city": "Ocean City",
    "state": "MD",
    "zip": "21842",
    "lat": 38.3998,
    "lon": -75.0715,
    "kma": "Baltimore Market",
    "kma_name": "Baltimore Market",
    "region": "MD",
    "freight_score": 77,
    "population": 6887,
    "zip_zone": "Z2"
  },
  {
    "city": "Darnestown",
    "state": "MD",
    "zip": "20878",
    "lat": 39.0969,
    "lon": -77.3033,
    "kma": "Washington DC Market",
    "kma_name": "Washington DC Market",
    "region": "MD",
    "freight_score": 77,
    "population": 6835,
    "zip_zone": "Z2"
  },
  {
    "city": "Bowleys Quarters",
    "state": "MD",
    "zip": "21220",
    "lat": 39.3198,
    "lon": -76.3856,
    "kma": "Baltimore Market",
    "kma_name": "Baltimore Market",
    "region": "MD",
    "freight_score": 77,
    "population": 6795,
    "zip_zone": "Z2"
  },
  {
    "city": "Lutherville",
    "state": "MD",
    "zip": "21093",
    "lat": 39.424,
    "lon": -76.6177,
    "kma": "Baltimore Market",
    "kma_name": "Baltimore Market",
    "region": "MD",
    "freight_score": 77,
    "population": 6670,
    "zip_zone": "Z2"
  },
  {
    "city": "Forest Glen",
    "state": "MD",
    "zip": "20910",
    "lat": 39.019,
    "lon": -77.0447,
    "kma": "Washington DC Market",
    "kma_name": "Washington DC Market",
    "region": "MD",
    "freight_score": 77,
    "population": 6650,
    "zip_zone": "Z2"
  },
  {
    "city": "Thurmont",
    "state": "MD",
    "zip": "21788",
    "lat": 39.621,
    "lon": -77.4076,
    "kma": "Baltimore Market",
    "kma_name": "Baltimore Market",
    "region": "MD",
    "freight_score": 77,
    "population": 6439,
    "zip_zone": "Z2"
  },
  {
    "city": "Chesapeake Beach",
    "state": "MD",
    "zip": "20732",
    "lat": 38.6881,
    "lon": -76.5448,
    "kma": "Washington DC Market",
    "kma_name": "Washington DC Market",
    "region": "MD",
    "freight_score": 77,
    "population": 6428,
    "zip_zone": "Z2"
  },
  {
    "city": "Fountainhead-Orchard Hills",
    "state": "MD",
    "zip": "21742",
    "lat": 39.6878,
    "lon": -77.7173,
    "kma": "Winchester Market",
    "kma_name": "Winchester Market",
    "region": "MD",
    "freight_score": 77,
    "population": 6364,
    "zip_zone": "Z2"
  },
  {
    "city": "Walkersville",
    "state": "MD",
    "zip": "21793",
    "lat": 39.4832,
    "lon": -77.3559,
    "kma": "Baltimore Market",
    "kma_name": "Baltimore Market",
    "region": "MD",
    "freight_score": 77,
    "population": 6352,
    "zip_zone": "Z2"
  },
  {
    "city": "Glenarden",
    "state": "MD",
    "zip": "20706",
    "lat": 38.9294,
    "lon": -76.8577,
    "kma": "Washington DC Market",
    "kma_name": "Washington DC Market",
    "region": "MD",
    "freight_score": 77,
    "population": 6320,
    "zip_zone": "Z2"
  },
  {
    "city": "Hampstead",
    "state": "MD",
    "zip": "21074",
    "lat": 39.6105,
    "lon": -76.8549,
    "kma": "Baltimore Market",
    "kma_name": "Baltimore Market",
    "region": "MD",
    "freight_score": 77,
    "population": 6311,
    "zip_zone": "Z2"
  },
  {
    "city": "Riverside",
    "state": "MD",
    "zip": "21001",
    "lat": 39.4784,
    "lon": -76.2398,
    "kma": "Baltimore Market",
    "kma_name": "Baltimore Market",
    "region": "MD",
    "freight_score": 77,
    "population": 6149,
    "zip_zone": "Z2"
  },
  {
    "city": "Marlow Heights",
    "state": "MD",
    "zip": "20748",
    "lat": 38.8237,
    "lon": -76.9484,
    "kma": "Washington DC Market",
    "kma_name": "Washington DC Market",
    "region": "MD",
    "freight_score": 77,
    "population": 6144,
    "zip_zone": "Z2"
  },
  {
    "city": "Cheverly",
    "state": "MD",
    "zip": "20785",
    "lat": 38.9254,
    "lon": -76.9141,
    "kma": "Washington DC Market",
    "kma_name": "Washington DC Market",
    "region": "MD",
    "freight_score": 77,
    "population": 6107,
    "zip_zone": "Z2"
  },
  {
    "city": "Fulton",
    "state": "MD",
    "zip": "20723",
    "lat": 39.1516,
    "lon": -76.9163,
    "kma": "Washington DC Market",
    "kma_name": "Washington DC Market",
    "region": "MD",
    "freight_score": 76,
    "population": 5946,
    "zip_zone": "Z2"
  },
  {
    "city": "District Heights",
    "state": "MD",
    "zip": "20747",
    "lat": 38.8588,
    "lon": -76.8885,
    "kma": "Washington DC Market",
    "kma_name": "Washington DC Market",
    "region": "MD",
    "freight_score": 76,
    "population": 5888,
    "zip_zone": "Z2"
  },
  {
    "city": "Abingdon",
    "state": "MD",
    "zip": "21009",
    "lat": 39.4629,
    "lon": -76.2754,
    "kma": "Baltimore Market",
    "kma_name": "Baltimore Market",
    "region": "MD",
    "freight_score": 76,
    "population": 5727,
    "zip_zone": "Z2"
  },
  {
    "city": "Spring Ridge",
    "state": "MD",
    "zip": "21701",
    "lat": 39.4043,
    "lon": -77.3405,
    "kma": "Washington DC Market",
    "kma_name": "Washington DC Market",
    "region": "MD",
    "freight_score": 76,
    "population": 5720,
    "zip_zone": "Z2"
  },
  {
    "city": "Poolesville",
    "state": "MD",
    "zip": "20837",
    "lat": 39.1423,
    "lon": -77.4102,
    "kma": "Washington DC Market",
    "kma_name": "Washington DC Market",
    "region": "MD",
    "freight_score": 76,
    "population": 5704,
    "zip_zone": "Z2"
  },
  {
    "city": "Fruitland",
    "state": "MD",
    "zip": "21826",
    "lat": 38.3214,
    "lon": -75.6246,
    "kma": "Baltimore Market",
    "kma_name": "Baltimore Market",
    "region": "MD",
    "freight_score": 76,
    "population": 5698,
    "zip_zone": "Z2"
  },
  {
    "city": "Chestertown",
    "state": "MD",
    "zip": "21620",
    "lat": 39.2182,
    "lon": -76.0714,
    "kma": "Baltimore Market",
    "kma_name": "Baltimore Market",
    "region": "MD",
    "freight_score": 76,
    "population": 5548,
    "zip_zone": "Z2"
  },
  {
    "city": "Manchester",
    "state": "MD",
    "zip": "21102",
    "lat": 39.6585,
    "lon": -76.8881,
    "kma": "Baltimore Market",
    "kma_name": "Baltimore Market",
    "region": "MD",
    "freight_score": 76,
    "population": 5446,
    "zip_zone": "Z2"
  },
  {
    "city": "Ashton-Sandy Spring",
    "state": "MD",
    "zip": "20861",
    "lat": 39.1515,
    "lon": -77.0065,
    "kma": "Washington DC Market",
    "kma_name": "Washington DC Market",
    "region": "MD",
    "freight_score": 76,
    "population": 5418,
    "zip_zone": "Z2"
  },
  {
    "city": "Layhill",
    "state": "MD",
    "zip": "20906",
    "lat": 39.0871,
    "lon": -77.0404,
    "kma": "Washington DC Market",
    "kma_name": "Washington DC Market",
    "region": "MD",
    "freight_score": 76,
    "population": 5392,
    "zip_zone": "Z2"
  },
  {
    "city": "Peppermill Village",
    "state": "MD",
    "zip": "20743",
    "lat": 38.8939,
    "lon": -76.8878,
    "kma": "Washington DC Market",
    "kma_name": "Washington DC Market",
    "region": "MD",
    "freight_score": 76,
    "population": 5268,
    "zip_zone": "Z2"
  },
  {
    "city": "Cresaptown",
    "state": "MD",
    "zip": "21502",
    "lat": 39.5944,
    "lon": -78.8356,
    "kma": "Winchester Market",
    "kma_name": "Winchester Market",
    "region": "MD",
    "freight_score": 76,
    "population": 5238,
    "zip_zone": "Z2"
  },
  {
    "city": "Deale",
    "state": "MD",
    "zip": "20751",
    "lat": 38.791,
    "lon": -76.5469,
    "kma": "Washington DC Market",
    "kma_name": "Washington DC Market",
    "region": "MD",
    "freight_score": 76,
    "population": 5182,
    "zip_zone": "Z2"
  },
  {
    "city": "Berlin",
    "state": "MD",
    "zip": "21811",
    "lat": 38.331,
    "lon": -75.2148,
    "kma": "Baltimore Market",
    "kma_name": "Baltimore Market",
    "region": "MD",
    "freight_score": 76,
    "population": 5161,
    "zip_zone": "Z2"
  },
  {
    "city": "Hampton",
    "state": "MD",
    "zip": "21286",
    "lat": 39.4237,
    "lon": -76.5685,
    "kma": "Baltimore Market",
    "kma_name": "Baltimore Market",
    "region": "MD",
    "freight_score": 76,
    "population": 5138,
    "zip_zone": "Z2"
  },
  {
    "city": "West Ocean City",
    "state": "MD",
    "zip": "21842",
    "lat": 38.3466,
    "lon": -75.1122,
    "kma": "Baltimore Market",
    "kma_name": "Baltimore Market",
    "region": "MD",
    "freight_score": 76,
    "population": 5124,
    "zip_zone": "Z2"
  },
  {
    "city": "Middletown",
    "state": "MD",
    "zip": "21769",
    "lat": 39.4415,
    "lon": -77.5347,
    "kma": "Winchester Market",
    "kma_name": "Winchester Market",
    "region": "MD",
    "freight_score": 76,
    "population": 5108,
    "zip_zone": "Z2"
  },
  {
    "city": "Silver Hill",
    "state": "MD",
    "zip": "20746",
    "lat": 38.8392,
    "lon": -76.9367,
    "kma": "Washington DC Market",
    "kma_name": "Washington DC Market",
    "region": "MD",
    "freight_score": 76,
    "population": 5068,
    "zip_zone": "Z2"
  },
  {
    "city": "Hillandale",
    "state": "MD",
    "zip": "20783",
    "lat": 39.0249,
    "lon": -76.9737,
    "kma": "Washington DC Market",
    "kma_name": "Washington DC Market",
    "region": "MD",
    "freight_score": 76,
    "population": 4901,
    "zip_zone": "Z2"
  },
  {
    "city": "Denton",
    "state": "MD",
    "zip": "21629",
    "lat": 38.877,
    "lon": -75.8264,
    "kma": "Baltimore Market",
    "kma_name": "Baltimore Market",
    "region": "MD",
    "freight_score": 76,
    "population": 4879,
    "zip_zone": "Z2"
  },
  {
    "city": "Riva",
    "state": "MD",
    "zip": "21035",
    "lat": 38.9448,
    "lon": -76.5876,
    "kma": "Baltimore Market",
    "kma_name": "Baltimore Market",
    "region": "MD",
    "freight_score": 76,
    "population": 4798,
    "zip_zone": "Z2"
  },
  {
    "city": "Kingsville",
    "state": "MD",
    "zip": "21156",
    "lat": 39.4496,
    "lon": -76.4205,
    "kma": "Baltimore Market",
    "kma_name": "Baltimore Market",
    "region": "MD",
    "freight_score": 76,
    "population": 4790,
    "zip_zone": "Z2"
  },
  {
    "city": "Centreville",
    "state": "MD",
    "zip": "21617",
    "lat": 39.042,
    "lon": -76.063,
    "kma": "Baltimore Market",
    "kma_name": "Baltimore Market",
    "region": "MD",
    "freight_score": 76,
    "population": 4725,
    "zip_zone": "Z2"
  },
  {
    "city": "Leonardtown",
    "state": "MD",
    "zip": "20650",
    "lat": 38.3039,
    "lon": -76.6395,
    "kma": "Washington DC Market",
    "kma_name": "Washington DC Market",
    "region": "MD",
    "freight_score": 76,
    "population": 4712,
    "zip_zone": "Z2"
  },
  {
    "city": "Woodmore",
    "state": "MD",
    "zip": "20721",
    "lat": 38.9222,
    "lon": -76.781,
    "kma": "Washington DC Market",
    "kma_name": "Washington DC Market",
    "region": "MD",
    "freight_score": 76,
    "population": 4710,
    "zip_zone": "Z2"
  },
  {
    "city": "St. James",
    "state": "MD",
    "zip": "21781",
    "lat": 39.5738,
    "lon": -77.7482,
    "kma": "Winchester Market",
    "kma_name": "Winchester Market",
    "region": "MD",
    "freight_score": 76,
    "population": 4581,
    "zip_zone": "Z2"
  },
  {
    "city": "Chester",
    "state": "MD",
    "zip": "21619",
    "lat": 38.9677,
    "lon": -76.2824,
    "kma": "Baltimore Market",
    "kma_name": "Baltimore Market",
    "region": "MD",
    "freight_score": 76,
    "population": 4539,
    "zip_zone": "Z2"
  },
  {
    "city": "Seat Pleasant",
    "state": "MD",
    "zip": "20743",
    "lat": 38.8952,
    "lon": -76.9016,
    "kma": "Washington DC Market",
    "kma_name": "Washington DC Market",
    "region": "MD",
    "freight_score": 76,
    "population": 4515,
    "zip_zone": "Z2"
  },
  {
    "city": "Springdale",
    "state": "MD",
    "zip": "20721",
    "lat": 38.9363,
    "lon": -76.8442,
    "kma": "Washington DC Market",
    "kma_name": "Washington DC Market",
    "region": "MD",
    "freight_score": 76,
    "population": 4476,
    "zip_zone": "Z2"
  },
  {
    "city": "Shady Side",
    "state": "MD",
    "zip": "20733",
    "lat": 38.8285,
    "lon": -76.5207,
    "kma": "Washington DC Market",
    "kma_name": "Washington DC Market",
    "region": "MD",
    "freight_score": 76,
    "population": 4460,
    "zip_zone": "Z2"
  },
  {
    "city": "Perryville",
    "state": "MD",
    "zip": "21903",
    "lat": 39.5737,
    "lon": -76.0668,
    "kma": "Baltimore Market",
    "kma_name": "Baltimore Market",
    "region": "MD",
    "freight_score": 76,
    "population": 4425,
    "zip_zone": "Z2"
  },
  {
    "city": "National Harbor",
    "state": "MD",
    "zip": "20745",
    "lat": 38.7876,
    "lon": -77.0113,
    "kma": "Washington DC Market",
    "kma_name": "Washington DC Market",
    "region": "MD",
    "freight_score": 76,
    "population": 4418,
    "zip_zone": "Z2"
  },
  {
    "city": "La Vale",
    "state": "MD",
    "zip": "21502",
    "lat": 39.6625,
    "lon": -78.8229,
    "kma": "Winchester Market",
    "kma_name": "Winchester Market",
    "region": "MD",
    "freight_score": 76,
    "population": 4388,
    "zip_zone": "Z2"
  },
  {
    "city": "Pocomoke City",
    "state": "MD",
    "zip": "21851",
    "lat": 38.0635,
    "lon": -75.5553,
    "kma": "Virginia Beach Market",
    "kma_name": "Virginia Beach Market",
    "region": "MD",
    "freight_score": 76,
    "population": 4360,
    "zip_zone": "Z2"
  },
  {
    "city": "Sykesville",
    "state": "MD",
    "zip": "21784",
    "lat": 39.3716,
    "lon": -76.9716,
    "kma": "Baltimore Market",
    "kma_name": "Baltimore Market",
    "region": "MD",
    "freight_score": 76,
    "population": 4346,
    "zip_zone": "Z2"
  },
  {
    "city": "West Laurel",
    "state": "MD",
    "zip": "20707",
    "lat": 39.1134,
    "lon": -76.8924,
    "kma": "Washington DC Market",
    "kma_name": "Washington DC Market",
    "region": "MD",
    "freight_score": 76,
    "population": 4231,
    "zip_zone": "Z2"
  },
  {
    "city": "Burnt Mills",
    "state": "MD",
    "zip": "20903",
    "lat": 39.034,
    "lon": -76.9983,
    "kma": "Washington DC Market",
    "kma_name": "Washington DC Market",
    "region": "MD",
    "freight_score": 76,
    "population": 4111,
    "zip_zone": "Z2"
  },
  {
    "city": "North East",
    "state": "MD",
    "zip": "21901",
    "lat": 39.6076,
    "lon": -75.9414,
    "kma": "Baltimore Market",
    "kma_name": "Baltimore Market",
    "region": "MD",
    "freight_score": 76,
    "population": 4095,
    "zip_zone": "Z2"
  },
  {
    "city": "Delmar",
    "state": "MD",
    "zip": "21875",
    "lat": 38.445,
    "lon": -75.5662,
    "kma": "Baltimore Market",
    "kma_name": "Baltimore Market",
    "region": "MD",
    "freight_score": 76,
    "population": 4058,
    "zip_zone": "Z2"
  },
  {
    "city": "Capitol Heights",
    "state": "MD",
    "zip": "20743",
    "lat": 38.8765,
    "lon": -76.9075,
    "kma": "Washington DC Market",
    "kma_name": "Washington DC Market",
    "region": "MD",
    "freight_score": 76,
    "population": 4014,
    "zip_zone": "Z2"
  },
  {
    "city": "Marlboro Meadows",
    "state": "MD",
    "zip": "20774",
    "lat": 38.8374,
    "lon": -76.7144,
    "kma": "Washington DC Market",
    "kma_name": "Washington DC Market",
    "region": "MD",
    "freight_score": 76,
    "population": 4003,
    "zip_zone": "Z2"
  },
  {
    "city": "Friendship Heights Village",
    "state": "MD",
    "zip": "20815",
    "lat": 38.9633,
    "lon": -77.0898,
    "kma": "Washington DC Market",
    "kma_name": "Washington DC Market",
    "region": "MD",
    "freight_score": 76,
    "population": 3991,
    "zip_zone": "Z2"
  },
  {
    "city": "Indian Head",
    "state": "MD",
    "zip": "20640",
    "lat": 38.5987,
    "lon": -77.1555,
    "kma": "Washington DC Market",
    "kma_name": "Washington DC Market",
    "region": "MD",
    "freight_score": 76,
    "population": 3982,
    "zip_zone": "Z2"
  },
  {
    "city": "Pleasant Hills",
    "state": "MD",
    "zip": "21085",
    "lat": 39.4861,
    "lon": -76.3908,
    "kma": "Baltimore Market",
    "kma_name": "Baltimore Market",
    "region": "MD",
    "freight_score": 76,
    "population": 3955,
    "zip_zone": "Z2"
  },
  {
    "city": "Golden Beach",
    "state": "MD",
    "zip": "20659",
    "lat": 38.49,
    "lon": -76.7019,
    "kma": "Washington DC Market",
    "kma_name": "Washington DC Market",
    "region": "MD",
    "freight_score": 76,
    "population": 3953,
    "zip_zone": "Z2"
  },
  {
    "city": "Brown Station",
    "state": "MD",
    "zip": "20774",
    "lat": 38.8539,
    "lon": -76.7978,
    "kma": "Washington DC Market",
    "kma_name": "Washington DC Market",
    "region": "MD",
    "freight_score": 76,
    "population": 3918,
    "zip_zone": "Z2"
  },
  {
    "city": "Brookmont",
    "state": "MD",
    "zip": "20812",
    "lat": 38.9546,
    "lon": -77.1292,
    "kma": "Washington DC Market",
    "kma_name": "Washington DC Market",
    "region": "MD",
    "freight_score": 76,
    "population": 3825,
    "zip_zone": "Z2"
  },
  {
    "city": "Boonsboro",
    "state": "MD",
    "zip": "21713",
    "lat": 39.5078,
    "lon": -77.6585,
    "kma": "Winchester Market",
    "kma_name": "Winchester Market",
    "region": "MD",
    "freight_score": 76,
    "population": 3799,
    "zip_zone": "Z2"
  },
  {
    "city": "Brentwood",
    "state": "MD",
    "zip": "20722",
    "lat": 38.9439,
    "lon": -76.9571,
    "kma": "Washington DC Market",
    "kma_name": "Washington DC Market",
    "region": "MD",
    "freight_score": 76,
    "population": 3753,
    "zip_zone": "Z2"
  },
  {
    "city": "Melwood",
    "state": "MD",
    "zip": "20772",
    "lat": 38.8024,
    "lon": -76.8419,
    "kma": "Washington DC Market",
    "kma_name": "Washington DC Market",
    "region": "MD",
    "freight_score": 76,
    "population": 3734,
    "zip_zone": "Z2"
  },
  {
    "city": "Princess Anne",
    "state": "MD",
    "zip": "21853",
    "lat": 38.2054,
    "lon": -75.697,
    "kma": "Washington DC Market",
    "kma_name": "Washington DC Market",
    "region": "MD",
    "freight_score": 76,
    "population": 3461,
    "zip_zone": "Z2"
  },
  {
    "city": "Grasonville",
    "state": "MD",
    "zip": "21638",
    "lat": 38.9559,
    "lon": -76.1947,
    "kma": "Baltimore Market",
    "kma_name": "Baltimore Market",
    "region": "MD",
    "freight_score": 76,
    "population": 3431,
    "zip_zone": "Z2"
  },
  {
    "city": "Berwyn Heights",
    "state": "MD",
    "zip": "20740",
    "lat": 38.9928,
    "lon": -76.9132,
    "kma": "Washington DC Market",
    "kma_name": "Washington DC Market",
    "region": "MD",
    "freight_score": 76,
    "population": 3306,
    "zip_zone": "Z2"
  },
  {
    "city": "Drum Point",
    "state": "MD",
    "zip": "20657",
    "lat": 38.3324,
    "lon": -76.4307,
    "kma": "Washington DC Market",
    "kma_name": "Washington DC Market",
    "region": "MD",
    "freight_score": 76,
    "population": 3219,
    "zip_zone": "Z2"
  },
  {
    "city": "Konterra",
    "state": "MD",
    "zip": "20705",
    "lat": 39.0774,
    "lon": -76.9023,
    "kma": "Washington DC Market",
    "kma_name": "Washington DC Market",
    "region": "MD",
    "freight_score": 76,
    "population": 3212,
    "zip_zone": "Z2"
  },
  {
    "city": "Andrews AFB",
    "state": "MD",
    "zip": "20735",
    "lat": 38.8054,
    "lon": -76.8744,
    "kma": "Washington DC Market",
    "kma_name": "Washington DC Market",
    "region": "MD",
    "freight_score": 76,
    "population": 3075,
    "zip_zone": "Z2"
  },
  {
    "city": "Smithsburg",
    "state": "MD",
    "zip": "21783",
    "lat": 39.6559,
    "lon": -77.575,
    "kma": "Winchester Market",
    "kma_name": "Winchester Market",
    "region": "MD",
    "freight_score": 76,
    "population": 3069,
    "zip_zone": "Z2"
  },
  {
    "city": "Maugansville",
    "state": "MD",
    "zip": "21767",
    "lat": 39.6937,
    "lon": -77.7472,
    "kma": "Winchester Market",
    "kma_name": "Winchester Market",
    "region": "MD",
    "freight_score": 76,
    "population": 3057,
    "zip_zone": "Z2"
  },
  {
    "city": "Monrovia",
    "state": "MD",
    "zip": "21770",
    "lat": 39.357,
    "lon": -77.2747,
    "kma": "Washington DC Market",
    "kma_name": "Washington DC Market",
    "region": "MD",
    "freight_score": 76,
    "population": 2924,
    "zip_zone": "Z2"
  },
  {
    "city": "Jefferson",
    "state": "MD",
    "zip": "21755",
    "lat": 39.3653,
    "lon": -77.5406,
    "kma": "Winchester Market",
    "kma_name": "Winchester Market",
    "region": "MD",
    "freight_score": 76,
    "population": 2891,
    "zip_zone": "Z2"
  },
  {
    "city": "Gambrills",
    "state": "MD",
    "zip": "21144",
    "lat": 39.0927,
    "lon": -76.6511,
    "kma": "Baltimore Market",
    "kma_name": "Baltimore Market",
    "region": "MD",
    "freight_score": 76,
    "population": 2862,
    "zip_zone": "Z2"
  },
  {
    "city": "Emmitsburg",
    "state": "MD",
    "zip": "21727",
    "lat": 39.7051,
    "lon": -77.3217,
    "kma": "Harrisburg Market",
    "kma_name": "Harrisburg Market",
    "region": "MD",
    "freight_score": 76,
    "population": 2855,
    "zip_zone": "Z2"
  },
  {
    "city": "Federalsburg",
    "state": "MD",
    "zip": "21632",
    "lat": 38.6929,
    "lon": -75.7727,
    "kma": "Baltimore Market",
    "kma_name": "Baltimore Market",
    "region": "MD",
    "freight_score": 76,
    "population": 2818,
    "zip_zone": "Z2"
  },
  {
    "city": "North Beach",
    "state": "MD",
    "zip": "20714",
    "lat": 38.708,
    "lon": -76.5346,
    "kma": "Washington DC Market",
    "kma_name": "Washington DC Market",
    "region": "MD",
    "freight_score": 76,
    "population": 2769,
    "zip_zone": "Z2"
  },
  {
    "city": "Bartonsville",
    "state": "MD",
    "zip": "21704",
    "lat": 39.3901,
    "lon": -77.3513,
    "kma": "Washington DC Market",
    "kma_name": "Washington DC Market",
    "region": "MD",
    "freight_score": 76,
    "population": 2760,
    "zip_zone": "Z2"
  },
  {
    "city": "Rising Sun",
    "state": "MD",
    "zip": "21911",
    "lat": 39.7003,
    "lon": -76.0587,
    "kma": "Baltimore Market",
    "kma_name": "Baltimore Market",
    "region": "MD",
    "freight_score": 76,
    "population": 2756,
    "zip_zone": "Z2"
  },
  {
    "city": "Paramount-Long Meadow",
    "state": "MD",
    "zip": "21742",
    "lat": 39.6798,
    "lon": -77.6921,
    "kma": "Winchester Market",
    "kma_name": "Winchester Market",
    "region": "MD",
    "freight_score": 76,
    "population": 2660,
    "zip_zone": "Z2"
  },
  {
    "city": "University Park",
    "state": "MD",
    "zip": "20782",
    "lat": 38.9719,
    "lon": -76.9445,
    "kma": "Washington DC Market",
    "kma_name": "Washington DC Market",
    "region": "MD",
    "freight_score": 76,
    "population": 2636,
    "zip_zone": "Z2"
  },
  {
    "city": "Huntingtown",
    "state": "MD",
    "zip": "20639",
    "lat": 38.6117,
    "lon": -76.6187,
    "kma": "Washington DC Market",
    "kma_name": "Washington DC Market",
    "region": "MD",
    "freight_score": 76,
    "population": 2634,
    "zip_zone": "Z2"
  },
  {
    "city": "Jarrettsville",
    "state": "MD",
    "zip": "21084",
    "lat": 39.6031,
    "lon": -76.4752,
    "kma": "Baltimore Market",
    "kma_name": "Baltimore Market",
    "region": "MD",
    "freight_score": 76,
    "population": 2629,
    "zip_zone": "Z2"
  },
  {
    "city": "Forest Heights",
    "state": "MD",
    "zip": "20745",
    "lat": 38.8052,
    "lon": -77.0055,
    "kma": "Washington DC Market",
    "kma_name": "Washington DC Market",
    "region": "MD",
    "freight_score": 76,
    "population": 2619,
    "zip_zone": "Z2"
  },
  {
    "city": "Braddock Heights",
    "state": "MD",
    "zip": "21703",
    "lat": 39.4117,
    "lon": -77.4991,
    "kma": "Winchester Market",
    "kma_name": "Winchester Market",
    "region": "MD",
    "freight_score": 76,
    "population": 2606,
    "zip_zone": "Z2"
  },
  {
    "city": "Greensboro",
    "state": "MD",
    "zip": "21639",
    "lat": 38.9764,
    "lon": -75.808,
    "kma": "Baltimore Market",
    "kma_name": "Baltimore Market",
    "region": "MD",
    "freight_score": 76,
    "population": 2563,
    "zip_zone": "Z2"
  },
  {
    "city": "Snow Hill",
    "state": "MD",
    "zip": "21863",
    "lat": 38.1729,
    "lon": -75.3903,
    "kma": "Virginia Beach Market",
    "kma_name": "Virginia Beach Market",
    "region": "MD",
    "freight_score": 76,
    "population": 2545,
    "zip_zone": "Z2"
  },
  {
    "city": "Croom",
    "state": "MD",
    "zip": "20613",
    "lat": 38.7458,
    "lon": -76.7555,
    "kma": "Washington DC Market",
    "kma_name": "Washington DC Market",
    "region": "MD",
    "freight_score": 76,
    "population": 2519,
    "zip_zone": "Z2"
  },
  {
    "city": "Herald Harbor",
    "state": "MD",
    "zip": "21032",
    "lat": 39.0516,
    "lon": -76.5746,
    "kma": "Baltimore Market",
    "kma_name": "Baltimore Market",
    "region": "MD",
    "freight_score": 76,
    "population": 2507,
    "zip_zone": "Z2"
  },
  {
    "city": "Owings",
    "state": "MD",
    "zip": "20736",
    "lat": 38.7117,
    "lon": -76.6055,
    "kma": "Washington DC Market",
    "kma_name": "Washington DC Market",
    "region": "MD",
    "freight_score": 76,
    "population": 2475,
    "zip_zone": "Z2"
  },
  {
    "city": "Crisfield",
    "state": "MD",
    "zip": "21817",
    "lat": 37.984,
    "lon": -75.8512,
    "kma": "Virginia Beach Market",
    "kma_name": "Virginia Beach Market",
    "region": "MD",
    "freight_score": 76,
    "population": 2468,
    "zip_zone": "Z2"
  },
  {
    "city": "Myersville",
    "state": "MD",
    "zip": "21773",
    "lat": 39.5062,
    "lon": -77.569,
    "kma": "Winchester Market",
    "kma_name": "Winchester Market",
    "region": "MD",
    "freight_score": 76,
    "population": 2464,
    "zip_zone": "Z2"
  },
  {
    "city": "Prince Frederick",
    "state": "MD",
    "zip": "20678",
    "lat": 38.544,
    "lon": -76.5879,
    "kma": "Washington DC Market",
    "kma_name": "Washington DC Market",
    "region": "MD",
    "freight_score": 76,
    "population": 2404,
    "zip_zone": "Z2"
  },
  {
    "city": "Adamstown",
    "state": "MD",
    "zip": "21710",
    "lat": 39.307,
    "lon": -77.4692,
    "kma": "Washington DC Market",
    "kma_name": "Washington DC Market",
    "region": "MD",
    "freight_score": 76,
    "population": 2381,
    "zip_zone": "Z2"
  },
  {
    "city": "Perryman",
    "state": "MD",
    "zip": "21001",
    "lat": 39.4632,
    "lon": -76.212,
    "kma": "Baltimore Market",
    "kma_name": "Baltimore Market",
    "region": "MD",
    "freight_score": 76,
    "population": 2366,
    "zip_zone": "Z2"
  },
  {
    "city": "Aberdeen Proving Ground",
    "state": "MD",
    "zip": "21005",
    "lat": 39.4672,
    "lon": -76.1308,
    "kma": "Baltimore Market",
    "kma_name": "Baltimore Market",
    "region": "MD",
    "freight_score": 76,
    "population": 2343,
    "zip_zone": "Z2"
  },
  {
    "city": "Point of Rocks",
    "state": "MD",
    "zip": "21777",
    "lat": 39.2782,
    "lon": -77.5291,
    "kma": "Winchester Market",
    "kma_name": "Winchester Market",
    "region": "MD",
    "freight_score": 76,
    "population": 2333,
    "zip_zone": "Z2"
  },
  {
    "city": "Dunkirk",
    "state": "MD",
    "zip": "20754",
    "lat": 38.7156,
    "lon": -76.673,
    "kma": "Washington DC Market",
    "kma_name": "Washington DC Market",
    "region": "MD",
    "freight_score": 76,
    "population": 2319,
    "zip_zone": "Z2"
  },
  {
    "city": "Hughesville",
    "state": "MD",
    "zip": "20637",
    "lat": 38.5376,
    "lon": -76.7748,
    "kma": "Washington DC Market",
    "kma_name": "Washington DC Market",
    "region": "MD",
    "freight_score": 76,
    "population": 2280,
    "zip_zone": "Z2"
  },
  {
    "city": "Kensington",
    "state": "MD",
    "zip": "20895",
    "lat": 39.0269,
    "lon": -77.0736,
    "kma": "Washington DC Market",
    "kma_name": "Washington DC Market",
    "region": "MD",
    "freight_score": 76,
    "population": 2248,
    "zip_zone": "Z2"
  },
  {
    "city": "Hurlock",
    "state": "MD",
    "zip": "21643",
    "lat": 38.6268,
    "lon": -75.864,
    "kma": "Baltimore Market",
    "kma_name": "Baltimore Market",
    "region": "MD",
    "freight_score": 76,
    "population": 2205,
    "zip_zone": "Z2"
  },
  {
    "city": "Solomons",
    "state": "MD",
    "zip": "20688",
    "lat": 38.337,
    "lon": -76.4604,
    "kma": "Washington DC Market",
    "kma_name": "Washington DC Market",
    "region": "MD",
    "freight_score": 76,
    "population": 2180,
    "zip_zone": "Z2"
  },
  {
    "city": "Lusby",
    "state": "MD",
    "zip": "20657",
    "lat": 38.362,
    "lon": -76.4372,
    "kma": "Washington DC Market",
    "kma_name": "Washington DC Market",
    "region": "MD",
    "freight_score": 76,
    "population": 2161,
    "zip_zone": "Z2"
  },
  {
    "city": "Williamsport",
    "state": "MD",
    "zip": "21795",
    "lat": 39.5973,
    "lon": -77.818,
    "kma": "Winchester Market",
    "kma_name": "Winchester Market",
    "region": "MD",
    "freight_score": 76,
    "population": 2133,
    "zip_zone": "Z2"
  },
  {
    "city": "Cabin John",
    "state": "MD",
    "zip": "20818",
    "lat": 38.9742,
    "lon": -77.1632,
    "kma": "Washington DC Market",
    "kma_name": "Washington DC Market",
    "region": "MD",
    "freight_score": 76,
    "population": 2096,
    "zip_zone": "Z2"
  },
  {
    "city": "Queensland",
    "state": "MD",
    "zip": "20772",
    "lat": 38.8019,
    "lon": -76.7855,
    "kma": "Washington DC Market",
    "kma_name": "Washington DC Market",
    "region": "MD",
    "freight_score": 76,
    "population": 2066,
    "zip_zone": "Z2"
  },
  {
    "city": "Oakland",
    "state": "MD",
    "zip": "21550",
    "lat": 39.4165,
    "lon": -79.4022,
    "kma": "Winchester Market",
    "kma_name": "Winchester Market",
    "region": "MD",
    "freight_score": 76,
    "population": 2043,
    "zip_zone": "Z2"
  },
  {
    "city": "Charlestown",
    "state": "MD",
    "zip": "21901",
    "lat": 39.5783,
    "lon": -75.9812,
    "kma": "Baltimore Market",
    "kma_name": "Baltimore Market",
    "region": "MD",
    "freight_score": 76,
    "population": 2037,
    "zip_zone": "Z2"
  },
  {
    "city": "Pittsville",
    "state": "MD",
    "zip": "21850",
    "lat": 38.3937,
    "lon": -75.4073,
    "kma": "Baltimore Market",
    "kma_name": "Baltimore Market",
    "region": "MD",
    "freight_score": 76,
    "population": 2034,
    "zip_zone": "Z2"
  },
  {
    "city": "Mountain Lake Park",
    "state": "MD",
    "zip": "21550",
    "lat": 39.4004,
    "lon": -79.3812,
    "kma": "Winchester Market",
    "kma_name": "Winchester Market",
    "region": "MD",
    "freight_score": 76,
    "population": 2033,
    "zip_zone": "Z2"
  },
  {
    "city": "Landover Hills",
    "state": "MD",
    "zip": "20784",
    "lat": 38.9425,
    "lon": -76.8945,
    "kma": "Washington DC Market",
    "kma_name": "Washington DC Market",
    "region": "MD",
    "freight_score": 75,
    "population": 1996,
    "zip_zone": "Z2"
  },
  {
    "city": "Long Beach",
    "state": "MD",
    "zip": "20685",
    "lat": 38.4568,
    "lon": -76.4737,
    "kma": "Washington DC Market",
    "kma_name": "Washington DC Market",
    "region": "MD",
    "freight_score": 75,
    "population": 1981,
    "zip_zone": "Z2"
  },
  {
    "city": "Baden",
    "state": "MD",
    "zip": "20613",
    "lat": 38.672,
    "lon": -76.7428,
    "kma": "Washington DC Market",
    "kma_name": "Washington DC Market",
    "region": "MD",
    "freight_score": 75,
    "population": 1968,
    "zip_zone": "Z2"
  },
  {
    "city": "Westernport",
    "state": "MD",
    "zip": "21562",
    "lat": 39.488,
    "lon": -79.0429,
    "kma": "Winchester Market",
    "kma_name": "Winchester Market",
    "region": "MD",
    "freight_score": 75,
    "population": 1864,
    "zip_zone": "Z2"
  },
  {
    "city": "Chevy Chase Village",
    "state": "MD",
    "zip": "20815",
    "lat": 38.9698,
    "lon": -77.0793,
    "kma": "Washington DC Market",
    "kma_name": "Washington DC Market",
    "region": "MD",
    "freight_score": 75,
    "population": 1860,
    "zip_zone": "Z2"
  },
  {
    "city": "Kingstown",
    "state": "MD",
    "zip": "21620",
    "lat": 39.2036,
    "lon": -76.0465,
    "kma": "Baltimore Market",
    "kma_name": "Baltimore Market",
    "region": "MD",
    "freight_score": 75,
    "population": 1836,
    "zip_zone": "Z2"
  },
  {
    "city": "Derwood",
    "state": "MD",
    "zip": "20855",
    "lat": 39.1136,
    "lon": -77.151,
    "kma": "Washington DC Market",
    "kma_name": "Washington DC Market",
    "region": "MD",
    "freight_score": 75,
    "population": 1830,
    "zip_zone": "Z2"
  },
  {
    "city": "Cedar Heights",
    "state": "MD",
    "zip": "20743",
    "lat": 38.9037,
    "lon": -76.9059,
    "kma": "Washington DC Market",
    "kma_name": "Washington DC Market",
    "region": "MD",
    "freight_score": 75,
    "population": 1748,
    "zip_zone": "Z2"
  },
  {
    "city": "Hancock",
    "state": "MD",
    "zip": "21750",
    "lat": 39.7054,
    "lon": -78.1749,
    "kma": "Winchester Market",
    "kma_name": "Winchester Market",
    "region": "MD",
    "freight_score": 75,
    "population": 1715,
    "zip_zone": "Z2"
  },
  {
    "city": "Romancoke",
    "state": "MD",
    "zip": "21666",
    "lat": 38.8872,
    "lon": -76.3476,
    "kma": "Baltimore Market",
    "kma_name": "Baltimore Market",
    "region": "MD",
    "freight_score": 75,
    "population": 1705,
    "zip_zone": "Z2"
  },
  {
    "city": "Crownsville",
    "state": "MD",
    "zip": "21401",
    "lat": 39.0224,
    "lon": -76.5904,
    "kma": "Baltimore Market",
    "kma_name": "Baltimore Market",
    "region": "MD",
    "freight_score": 75,
    "population": 1701,
    "zip_zone": "Z2"
  },
  {
    "city": "Arden on the Severn",
    "state": "MD",
    "zip": "21032",
    "lat": 39.0677,
    "lon": -76.5964,
    "kma": "Baltimore Market",
    "kma_name": "Baltimore Market",
    "region": "MD",
    "freight_score": 75,
    "population": 1691,
    "zip_zone": "Z2"
  },
  {
    "city": "Ridgely",
    "state": "MD",
    "zip": "21660",
    "lat": 38.9528,
    "lon": -75.8828,
    "kma": "Baltimore Market",
    "kma_name": "Baltimore Market",
    "region": "MD",
    "freight_score": 75,
    "population": 1685,
    "zip_zone": "Z2"
  },
  {
    "city": "Wilson-Conococheague",
    "state": "MD",
    "zip": "21722",
    "lat": 39.653,
    "lon": -77.8306,
    "kma": "Winchester Market",
    "kma_name": "Winchester Market",
    "region": "MD",
    "freight_score": 75,
    "population": 1614,
    "zip_zone": "Z2"
  },
  {
    "city": "Naval Academy",
    "state": "MD",
    "zip": "21402",
    "lat": 38.9858,
    "lon": -76.488,
    "kma": "Baltimore Market",
    "kma_name": "Baltimore Market",
    "region": "MD",
    "freight_score": 75,
    "population": 1592,
    "zip_zone": "Z2"
  },
  {
    "city": "New Market",
    "state": "MD",
    "zip": "21774",
    "lat": 39.3889,
    "lon": -77.2789,
    "kma": "Washington DC Market",
    "kma_name": "Washington DC Market",
    "region": "MD",
    "freight_score": 75,
    "population": 1588,
    "zip_zone": "Z2"
  },
  {
    "city": "Colmar Manor",
    "state": "MD",
    "zip": "20722",
    "lat": 38.9301,
    "lon": -76.9437,
    "kma": "Washington DC Market",
    "kma_name": "Washington DC Market",
    "region": "MD",
    "freight_score": 75,
    "population": 1579,
    "zip_zone": "Z2"
  },
  {
    "city": "Mechanicsville",
    "state": "MD",
    "zip": "20659",
    "lat": 38.4355,
    "lon": -76.7424,
    "kma": "Washington DC Market",
    "kma_name": "Washington DC Market",
    "region": "MD",
    "freight_score": 75,
    "population": 1521,
    "zip_zone": "Z2"
  },
  {
    "city": "Charlotte Hall",
    "state": "MD",
    "zip": "20622",
    "lat": 38.4667,
    "lon": -76.7848,
    "kma": "Washington DC Market",
    "kma_name": "Washington DC Market",
    "region": "MD",
    "freight_score": 75,
    "population": 1448,
    "zip_zone": "Z2"
  },
  {
    "city": "Spencerville",
    "state": "MD",
    "zip": "20868",
    "lat": 39.119,
    "lon": -76.9828,
    "kma": "Washington DC Market",
    "kma_name": "Washington DC Market",
    "region": "MD",
    "freight_score": 75,
    "population": 1433,
    "zip_zone": "Z2"
  },
  {
    "city": "Fairmount Heights",
    "state": "MD",
    "zip": "20743",
    "lat": 38.9016,
    "lon": -76.9153,
    "kma": "Washington DC Market",
    "kma_name": "Washington DC Market",
    "region": "MD",
    "freight_score": 75,
    "population": 1429,
    "zip_zone": "Z2"
  },
  {
    "city": "Woodsboro",
    "state": "MD",
    "zip": "21798",
    "lat": 39.5328,
    "lon": -77.3097,
    "kma": "Baltimore Market",
    "kma_name": "Baltimore Market",
    "region": "MD",
    "freight_score": 75,
    "population": 1394,
    "zip_zone": "Z2"
  },
  {
    "city": "St. Michaels",
    "state": "MD",
    "zip": "21663",
    "lat": 38.7883,
    "lon": -76.2244,
    "kma": "Baltimore Market",
    "kma_name": "Baltimore Market",
    "region": "MD",
    "freight_score": 75,
    "population": 1381,
    "zip_zone": "Z2"
  },
  {
    "city": "Queen Anne",
    "state": "MD",
    "zip": "20716",
    "lat": 38.9021,
    "lon": -76.6973,
    "kma": "Washington DC Market",
    "kma_name": "Washington DC Market",
    "region": "MD",
    "freight_score": 75,
    "population": 1374,
    "zip_zone": "Z2"
  },
  {
    "city": "Libertytown",
    "state": "MD",
    "zip": "21701",
    "lat": 39.4859,
    "lon": -77.2482,
    "kma": "Baltimore Market",
    "kma_name": "Baltimore Market",
    "region": "MD",
    "freight_score": 75,
    "population": 1368,
    "zip_zone": "Z2"
  },
  {
    "city": "New Windsor",
    "state": "MD",
    "zip": "21776",
    "lat": 39.5443,
    "lon": -77.1012,
    "kma": "Baltimore Market",
    "kma_name": "Baltimore Market",
    "region": "MD",
    "freight_score": 75,
    "population": 1338,
    "zip_zone": "Z2"
  },
  {
    "city": "Edmonston",
    "state": "MD",
    "zip": "20781",
    "lat": 38.9502,
    "lon": -76.9332,
    "kma": "Washington DC Market",
    "kma_name": "Washington DC Market",
    "region": "MD",
    "freight_score": 75,
    "population": 1332,
    "zip_zone": "Z2"
  },
  {
    "city": "Buckeystown",
    "state": "MD",
    "zip": "21710",
    "lat": 39.3264,
    "lon": -77.4279,
    "kma": "Washington DC Market",
    "kma_name": "Washington DC Market",
    "region": "MD",
    "freight_score": 75,
    "population": 1317,
    "zip_zone": "Z2"
  },
  {
    "city": "Hebron",
    "state": "MD",
    "zip": "21830",
    "lat": 38.4242,
    "lon": -75.6871,
    "kma": "Baltimore Market",
    "kma_name": "Baltimore Market",
    "region": "MD",
    "freight_score": 75,
    "population": 1297,
    "zip_zone": "Z2"
  },
  {
    "city": "Rock Hall",
    "state": "MD",
    "zip": "21661",
    "lat": 39.139,
    "lon": -76.243,
    "kma": "Baltimore Market",
    "kma_name": "Baltimore Market",
    "region": "MD",
    "freight_score": 75,
    "population": 1286,
    "zip_zone": "Z2"
  },
  {
    "city": "Willards",
    "state": "MD",
    "zip": "21874",
    "lat": 38.3922,
    "lon": -75.3494,
    "kma": "Baltimore Market",
    "kma_name": "Baltimore Market",
    "region": "MD",
    "freight_score": 75,
    "population": 1273,
    "zip_zone": "Z2"
  },
  {
    "city": "Keedysville",
    "state": "MD",
    "zip": "21756",
    "lat": 39.4867,
    "lon": -77.698,
    "kma": "Winchester Market",
    "kma_name": "Winchester Market",
    "region": "MD",
    "freight_score": 75,
    "population": 1243,
    "zip_zone": "Z2"
  },
  {
    "city": "Galesville",
    "state": "MD",
    "zip": "20765",
    "lat": 38.8379,
    "lon": -76.5514,
    "kma": "Washington DC Market",
    "kma_name": "Washington DC Market",
    "region": "MD",
    "freight_score": 75,
    "population": 1206,
    "zip_zone": "Z2"
  },
  {
    "city": "Ten Mile Creek",
    "state": "MD",
    "zip": "20841",
    "lat": 39.2267,
    "lon": -77.3101,
    "kma": "Washington DC Market",
    "kma_name": "Washington DC Market",
    "region": "MD",
    "freight_score": 75,
    "population": 1180,
    "zip_zone": "Z2"
  },
  {
    "city": "Piney Point",
    "state": "MD",
    "zip": "20674",
    "lat": 38.1483,
    "lon": -76.5201,
    "kma": "Washington DC Market",
    "kma_name": "Washington DC Market",
    "region": "MD",
    "freight_score": 75,
    "population": 1171,
    "zip_zone": "Z2"
  },
  {
    "city": "Cottage City",
    "state": "MD",
    "zip": "20722",
    "lat": 38.9384,
    "lon": -76.9492,
    "kma": "Washington DC Market",
    "kma_name": "Washington DC Market",
    "region": "MD",
    "freight_score": 75,
    "population": 1162,
    "zip_zone": "Z2"
  },
  {
    "city": "Cobb Island",
    "state": "MD",
    "zip": "20625",
    "lat": 38.2647,
    "lon": -76.8496,
    "kma": "Washington DC Market",
    "kma_name": "Washington DC Market",
    "region": "MD",
    "freight_score": 75,
    "population": 1162,
    "zip_zone": "Z2"
  },
  {
    "city": "Bowmans Addition",
    "state": "MD",
    "zip": "21502",
    "lat": 39.6863,
    "lon": -78.7551,
    "kma": "Winchester Market",
    "kma_name": "Winchester Market",
    "region": "MD",
    "freight_score": 75,
    "population": 1149,
    "zip_zone": "Z2"
  },
  {
    "city": "Trappe",
    "state": "MD",
    "zip": "21673",
    "lat": 38.6634,
    "lon": -76.0518,
    "kma": "Baltimore Market",
    "kma_name": "Baltimore Market",
    "region": "MD",
    "freight_score": 75,
    "population": 1112,
    "zip_zone": "Z2"
  },
  {
    "city": "Potomac Heights",
    "state": "MD",
    "zip": "20640",
    "lat": 38.5988,
    "lon": -77.1371,
    "kma": "Washington DC Market",
    "kma_name": "Washington DC Market",
    "region": "MD",
    "freight_score": 75,
    "population": 1102,
    "zip_zone": "Z2"
  },
  {
    "city": "Bowling Green",
    "state": "MD",
    "zip": "21502",
    "lat": 39.6272,
    "lon": -78.805,
    "kma": "Winchester Market",
    "kma_name": "Winchester Market",
    "region": "MD",
    "freight_score": 75,
    "population": 1096,
    "zip_zone": "Z2"
  },
  {
    "city": "Lonaconing",
    "state": "MD",
    "zip": "21539",
    "lat": 39.566,
    "lon": -78.979,
    "kma": "Winchester Market",
    "kma_name": "Winchester Market",
    "region": "MD",
    "freight_score": 75,
    "population": 1093,
    "zip_zone": "Z2"
  },
  {
    "city": "Chevy Chase View",
    "state": "MD",
    "zip": "20895",
    "lat": 39.0192,
    "lon": -77.081,
    "kma": "Washington DC Market",
    "kma_name": "Washington DC Market",
    "region": "MD",
    "freight_score": 75,
    "population": 1092,
    "zip_zone": "Z2"
  },
  {
    "city": "Callaway",
    "state": "MD",
    "zip": "20620",
    "lat": 38.2324,
    "lon": -76.5231,
    "kma": "Washington DC Market",
    "kma_name": "Washington DC Market",
    "region": "MD",
    "freight_score": 75,
    "population": 1087,
    "zip_zone": "Z2"
  },
  {
    "city": "Highfield-Cascade",
    "state": "MD",
    "zip": "21719",
    "lat": 39.7136,
    "lon": -77.4946,
    "kma": "Harrisburg Market",
    "kma_name": "Harrisburg Market",
    "region": "MD",
    "freight_score": 75,
    "population": 1079,
    "zip_zone": "Z2"
  },
  {
    "city": "Church Hill",
    "state": "MD",
    "zip": "21623",
    "lat": 39.1452,
    "lon": -75.9808,
    "kma": "Baltimore Market",
    "kma_name": "Baltimore Market",
    "region": "MD",
    "freight_score": 75,
    "population": 1052,
    "zip_zone": "Z2"
  },
  {
    "city": "Morningside",
    "state": "MD",
    "zip": "20746",
    "lat": 38.8266,
    "lon": -76.8897,
    "kma": "Washington DC Market",
    "kma_name": "Washington DC Market",
    "region": "MD",
    "freight_score": 75,
    "population": 1031,
    "zip_zone": "Z2"
  },
  {
    "city": "Algonquin",
    "state": "MD",
    "zip": "21613",
    "lat": 38.5843,
    "lon": -76.0965,
    "kma": "Washington DC Market",
    "kma_name": "Washington DC Market",
    "region": "MD",
    "freight_score": 75,
    "population": 1027,
    "zip_zone": "Z2"
  },
  {
    "city": "Somerset",
    "state": "MD",
    "zip": "20815",
    "lat": 38.9666,
    "lon": -77.0963,
    "kma": "Washington DC Market",
    "kma_name": "Washington DC Market",
    "region": "MD",
    "freight_score": 75,
    "population": 1020,
    "zip_zone": "Z2"
  },
  {
    "city": "Martin's Additions",
    "state": "MD",
    "zip": "20815",
    "lat": 38.9796,
    "lon": -77.0693,
    "kma": "Washington DC Market",
    "kma_name": "Washington DC Market",
    "region": "MD",
    "freight_score": 75,
    "population": 1019,
    "zip_zone": "Z2"
  },
  {
    "city": "Queenstown",
    "state": "MD",
    "zip": "21658",
    "lat": 38.9868,
    "lon": -76.1633,
    "kma": "Baltimore Market",
    "kma_name": "Baltimore Market",
    "region": "MD",
    "freight_score": 75,
    "population": 990,
    "zip_zone": "Z2"
  },
  {
    "city": "Chevy Chase Section Three",
    "state": "MD",
    "zip": "20815",
    "lat": 38.9793,
    "lon": -77.0742,
    "kma": "Washington DC Market",
    "kma_name": "Washington DC Market",
    "region": "MD",
    "freight_score": 75,
    "population": 985,
    "zip_zone": "Z2"
  },
  {
    "city": "Potomac Park",
    "state": "MD",
    "zip": "21502",
    "lat": 39.6124,
    "lon": -78.8082,
    "kma": "Winchester Market",
    "kma_name": "Winchester Market",
    "region": "MD",
    "freight_score": 75,
    "population": 974,
    "zip_zone": "Z2"
  },
  {
    "city": "Grantsville",
    "state": "MD",
    "zip": "21536",
    "lat": 39.6969,
    "lon": -79.1528,
    "kma": "Winchester Market",
    "kma_name": "Winchester Market",
    "region": "MD",
    "freight_score": 75,
    "population": 970,
    "zip_zone": "Z2"
  },
  {
    "city": "Union Bridge",
    "state": "MD",
    "zip": "21791",
    "lat": 39.5731,
    "lon": -77.1744,
    "kma": "Baltimore Market",
    "kma_name": "Baltimore Market",
    "region": "MD",
    "freight_score": 75,
    "population": 941,
    "zip_zone": "Z2"
  },
  {
    "city": "Calvert Beach",
    "state": "MD",
    "zip": "20685",
    "lat": 38.4728,
    "lon": -76.4895,
    "kma": "Washington DC Market",
    "kma_name": "Washington DC Market",
    "region": "MD",
    "freight_score": 75,
    "population": 911,
    "zip_zone": "Z2"
  },
  {
    "city": "Cavetown",
    "state": "MD",
    "zip": "21783",
    "lat": 39.6426,
    "lon": -77.5933,
    "kma": "Winchester Market",
    "kma_name": "Winchester Market",
    "region": "MD",
    "freight_score": 75,
    "population": 909,
    "zip_zone": "Z2"
  },
  {
    "city": "Maryland Park",
    "state": "MD",
    "zip": "20743",
    "lat": 38.8889,
    "lon": -76.9077,
    "kma": "Washington DC Market",
    "kma_name": "Washington DC Market",
    "region": "MD",
    "freight_score": 75,
    "population": 888,
    "zip_zone": "Z2"
  },
  {
    "city": "Mount Vernon",
    "state": "MD",
    "zip": "21853",
    "lat": 38.2447,
    "lon": -75.7828,
    "kma": "Washington DC Market",
    "kma_name": "Washington DC Market",
    "region": "MD",
    "freight_score": 75,
    "population": 885,
    "zip_zone": "Z2"
  },
  {
    "city": "Tilghman Island",
    "state": "MD",
    "zip": "21665",
    "lat": 38.7008,
    "lon": -76.3353,
    "kma": "Washington DC Market",
    "kma_name": "Washington DC Market",
    "region": "MD",
    "freight_score": 75,
    "population": 874,
    "zip_zone": "Z2"
  },
  {
    "city": "Garrett Park",
    "state": "MD",
    "zip": "20896",
    "lat": 39.036,
    "lon": -77.0934,
    "kma": "Washington DC Market",
    "kma_name": "Washington DC Market",
    "region": "MD",
    "freight_score": 75,
    "population": 872,
    "zip_zone": "Z2"
  },
  {
    "city": "Finzel",
    "state": "MD",
    "zip": "21532",
    "lat": 39.7018,
    "lon": -78.952,
    "kma": "Winchester Market",
    "kma_name": "Winchester Market",
    "region": "MD",
    "freight_score": 75,
    "population": 871,
    "zip_zone": "Z2"
  },
  {
    "city": "Cecilton",
    "state": "MD",
    "zip": "21913",
    "lat": 39.4047,
    "lon": -75.8675,
    "kma": "Baltimore Market",
    "kma_name": "Baltimore Market",
    "region": "MD",
    "freight_score": 75,
    "population": 863,
    "zip_zone": "Z2"
  },
  {
    "city": "Funkstown",
    "state": "MD",
    "zip": "21734",
    "lat": 39.6068,
    "lon": -77.7053,
    "kma": "Winchester Market",
    "kma_name": "Winchester Market",
    "region": "MD",
    "freight_score": 75,
    "population": 826,
    "zip_zone": "Z2"
  },