[
  {
    "city": "Minneapolis",
    "state": "MN",
    "zip": "55404",
    "lat": 44.9635,
    "lon": -93.2678,
    "kma": "Minneapolis Market",
    "kma_name": "Minneapolis Market",
    "region": "MN",
    "freight_score": 100,
    "population": 2906807,
    "zip_zone": "Z5"
  },
  {
    "city": "St. Paul",
    "state": "MN",
    "zip": "55114",
    "lat": 44.9478,
    "lon": -93.1039,
    "kma": "Minneapolis Market",
    "kma_name": "Minneapolis Market",
    "region": "MN",
    "freight_score": 100,
    "population": 307762,
    "zip_zone": "Z5"
  },
  {
    "city": "Rochester",
    "state": "MN",
    "zip": "55902",
    "lat": 44.0154,
    "lon": -92.478,
    "kma": "Minneapolis Market",
    "kma_name": "Minneapolis Market",
    "region": "MN",
    "freight_score": 100,
    "population": 123252,
    "zip_zone": "Z5"
  },
  {
    "city": "Duluth",
    "state": "MN",
    "zip": "55803",
    "lat": 46.7756,
    "lon": -92.1393,
    "kma": "Duluth Market",
    "kma_name": "Duluth Market",
    "region": "MN",
    "freight_score": 100,
    "population": 120443,
    "zip_zone": "Z5"
  },
  {
    "city": "St. Cloud",
    "state": "MN",
    "zip": "56304",
    "lat": 45.534,
    "lon": -94.1718,
    "kma": "St. Cloud Market",
    "kma_name": "St. Cloud Market",
    "region": "MN",
    "freight_score": 100,
    "population": 116347,
    "zip_zone": "Z5"
  },
  {
    "city": "Bloomington",
    "state": "MN",
    "zip": "55420",
    "lat": 44.8306,
    "lon": -93.3151,
    "kma": "Minneapolis Market",
    "kma_name": "Minneapolis Market",
    "region": "MN",
    "freight_score": 97,
    "population": 88838,
    "zip_zone": "Z5"
  },
  {
    "city": "Brooklyn Park",
    "state": "MN",
    "zip": "55429",
    "lat": 45.1112,
    "lon": -93.3505,
    "kma": "Minneapolis Market",
    "kma_name": "Minneapolis Market",
    "region": "MN",
    "freight_score": 96,
    "population": 84349,
    "zip_zone": "Z5"
  },
  {
    "city": "Plymouth",
    "state": "MN",
    "zip": "55442",
    "lat": 45.0225,
    "lon": -93.4617,
    "kma": "Minneapolis Market",
    "kma_name": "Minneapolis Market",
    "region": "MN",
    "freight_score": 95,
    "population": 79526,
    "zip_zone": "Z5"
  },
  {
    "city": "Woodbury",
    "state": "MN",
    "zip": "55129",
    "lat": 44.9057,
    "lon": -92.923,
    "kma": "Minneapolis Market",
    "kma_name": "Minneapolis Market",
    "region": "MN",
    "freight_score": 94,
    "population": 76945,
    "zip_zone": "Z5"
  },
  {
    "city": "Lakeville",
    "state": "MN",
    "zip": "55044",
    "lat": 44.6774,
    "lon": -93.252,
    "kma": "Minneapolis Market",
    "kma_name": "Minneapolis Market",
    "region": "MN",
    "freight_score": 93,
    "population": 72480,
    "zip_zone": "Z5"
  },
  {
    "city": "Blaine",
    "state": "MN",
    "zip": "55014",
    "lat": 45.1696,
    "lon": -93.2077,
    "kma": "Minneapolis Market",
    "kma_name": "Minneapolis Market",
    "region": "MN",
    "freight_score": 93,
    "population": 71261,
    "zip_zone": "Z5"
  },
  {
    "city": "Maple Grove",
    "state": "MN",
    "zip": "55369",
    "lat": 45.1089,
    "lon": -93.4626,
    "kma": "Minneapolis Market",
    "kma_name": "Minneapolis Market",
    "region": "MN",
    "freight_score": 93,
    "population": 70539,
    "zip_zone": "Z5"
  },
  {
    "city": "Eagan",
    "state": "MN",
    "zip": "55121",
    "lat": 44.817,
    "lon": -93.1638,
    "kma": "Minneapolis Market",
    "kma_name": "Minneapolis Market",
    "region": "MN",
    "freight_score": 92,
    "population": 68158,
    "zip_zone": "Z5"
  },
  {
    "city": "Burnsville",
    "state": "MN",
    "zip": "55306",
    "lat": 44.7648,
    "lon": -93.2793,
    "kma": "Minneapolis Market",
    "kma_name": "Minneapolis Market",
    "region": "MN",
    "freight_score": 91,
    "population": 64295,
    "zip_zone": "Z5"
  },
  {
    "city": "Coon Rapids",
    "state": "MN",
    "zip": "55433",
    "lat": 45.1755,
    "lon": -93.3094,
    "kma": "Minneapolis Market",
    "kma_name": "Minneapolis Market",
    "region": "MN",
    "freight_score": 91,
    "population": 63348,
    "zip_zone": "Z5"
  },
  {
    "city": "Eden Prairie",
    "state": "MN",
    "zip": "55344",
    "lat": 44.8488,
    "lon": -93.4595,
    "kma": "Minneapolis Market",
    "kma_name": "Minneapolis Market",
    "region": "MN",
    "freight_score": 91,
    "population": 63249,
    "zip_zone": "Z5"
  },
  {
    "city": "Apple Valley",
    "state": "MN",
    "zip": "55124",
    "lat": 44.7457,
    "lon": -93.2004,
    "kma": "Minneapolis Market",
    "kma_name": "Minneapolis Market",
    "region": "MN",
    "freight_score": 89,
    "population": 55696,
    "zip_zone": "Z5"
  },
  {
    "city": "Minnetonka",
    "state": "MN",
    "zip": "55345",
    "lat": 44.9322,
    "lon": -93.4598,
    "kma": "Minneapolis Market",
    "kma_name": "Minneapolis Market",
    "region": "MN",
    "freight_score": 88,
    "population": 53256,
    "zip_zone": "Z5"
  },
  {
    "city": "Edina",
    "state": "MN",
    "zip": "55424",
    "lat": 44.8914,
    "lon": -93.3602,
    "kma": "Minneapolis Market",
    "kma_name": "Minneapolis Market",
    "region": "MN",
    "freight_score": 88,
    "population": 53125,
    "zip_zone": "Z5"
  },
  {
    "city": "St. Louis Park",
    "state": "MN",
    "zip": "55426",
    "lat": 44.9488,
    "lon": -93.3649,
    "kma": "Minneapolis Market",
    "kma_name": "Minneapolis Market",
    "region": "MN",
    "freight_score": 87,
    "population": 49541,
    "zip_zone": "Z5"
  },
  {
    "city": "Shakopee",
    "state": "MN",
    "zip": "55379",
    "lat": 44.7745,
    "lon": -93.4772,
    "kma": "Minneapolis Market",
    "kma_name": "Minneapolis Market",
    "region": "MN",
    "freight_score": 86,
    "population": 45002,
    "zip_zone": "Z5"
  },
  {
    "city": "Mankato",
    "state": "MN",
    "zip": "56001",
    "lat": 44.1715,
    "lon": -93.9772,
    "kma": "Minneapolis Market",
    "kma_name": "Minneapolis Market",
    "region": "MN",
    "freight_score": 86,
    "population": 44882,
    "zip_zone": "Z5"
  },
  {
    "city": "Moorhead",
    "state": "MN",
    "zip": "56560",
    "lat": 46.8673,
    "lon": -96.7461,
    "kma": "Fargo Market",
    "kma_name": "Fargo Market",
    "region": "MN",
    "freight_score": 86,
    "population": 44706,
    "zip_zone": "Z5"
  },
  {
    "city": "Maplewood",
    "state": "MN",
    "zip": "55117",
    "lat": 44.9842,
    "lon": -93.0247,
    "kma": "Minneapolis Market",
    "kma_name": "Minneapolis Market",
    "region": "MN",
    "freight_score": 85,
    "population": 40981,
    "zip_zone": "Z5"
  },
  {
    "city": "Cottage Grove",
    "state": "MN",
    "zip": "55016",
    "lat": 44.8161,
    "lon": -92.9274,
    "kma": "Minneapolis Market",
    "kma_name": "Minneapolis Market",
    "region": "MN",
    "freight_score": 85,
    "population": 40124,
    "zip_zone": "Z5"
  },
  {
    "city": "Richfield",
    "state": "MN",
    "zip": "55423",
    "lat": 44.8763,
    "lon": -93.2829,
    "kma": "Minneapolis Market",
    "kma_name": "Minneapolis Market",
    "region": "MN",
    "freight_score": 84,
    "population": 36725,
    "zip_zone": "Z5"
  },
  {
    "city": "Roseville",
    "state": "MN",
    "zip": "55113",
    "lat": 45.0155,
    "lon": -93.1545,
    "kma": "Minneapolis Market",
    "kma_name": "Minneapolis Market",
    "region": "MN",
    "freight_score": 84,
    "population": 35905,
    "zip_zone": "Z5"
  },
  {
    "city": "Inver Grove Heights",
    "state": "MN",
    "zip": "55077",
    "lat": 44.8247,
    "lon": -93.0596,
    "kma": "Minneapolis Market",
    "kma_name": "Minneapolis Market",
    "region": "MN",
    "freight_score": 84,
    "population": 35772,
    "zip_zone": "Z5"
  },
  {
    "city": "Andover",
    "state": "MN",
    "zip": "55304",
    "lat": 45.2571,
    "lon": -93.3265,
    "kma": "Minneapolis Market",
    "kma_name": "Minneapolis Market",
    "region": "MN",
    "freight_score": 83,
    "population": 32825,
    "zip_zone": "Z5"
  },
  {
    "city": "Brooklyn Center",
    "state": "MN",
    "zip": "55429",
    "lat": 45.0681,
    "lon": -93.3162,
    "kma": "Minneapolis Market",
    "kma_name": "Minneapolis Market",
    "region": "MN",
    "freight_score": 83,
    "population": 32811,
    "zip_zone": "Z5"
  },
  {
    "city": "Savage",
    "state": "MN",
    "zip": "55378",
    "lat": 44.7545,
    "lon": -93.3632,
    "kma": "Minneapolis Market",
    "kma_name": "Minneapolis Market",
    "region": "MN",
    "freight_score": 83,
    "population": 32706,
    "zip_zone": "Z5"
  },
  {
    "city": "Fridley",
    "state": "MN",
    "zip": "55421",
    "lat": 45.0841,
    "lon": -93.2595,
    "kma": "Minneapolis Market",
    "kma_name": "Minneapolis Market",
    "region": "MN",
    "freight_score": 82,
    "population": 29944,
    "zip_zone": "Z5"
  },
  {
    "city": "Chaska",
    "state": "MN",
    "zip": "55318",
    "lat": 44.8164,
    "lon": -93.6091,
    "kma": "Minneapolis Market",
    "kma_name": "Minneapolis Market",
    "region": "MN",
    "freight_score": 82,
    "population": 28146,
    "zip_zone": "Z5"
  },
  {
    "city": "Oakdale",
    "state": "MN",
    "zip": "55128",
    "lat": 44.9876,
    "lon": -92.9641,
    "kma": "Minneapolis Market",
    "kma_name": "Minneapolis Market",
    "region": "MN",
    "freight_score": 82,
    "population": 28109,
    "zip_zone": "Z5"
  },
  {
    "city": "Ramsey",
    "state": "MN",
    "zip": "55303",
    "lat": 45.2617,
    "lon": -93.4494,
    "kma": "Minneapolis Market",
    "kma_name": "Minneapolis Market",
    "region": "MN",
    "freight_score": 82,
    "population": 28070,
    "zip_zone": "Z5"
  },
  {
    "city": "Prior Lake",
    "state": "MN",
    "zip": "55372",
    "lat": 44.7246,
    "lon": -93.4419,
    "kma": "Minneapolis Market",
    "kma_name": "Minneapolis Market",
    "region": "MN",
    "freight_score": 82,
    "population": 27832,
    "zip_zone": "Z5"
  },
  {
    "city": "Shoreview",
    "state": "MN",
    "zip": "55126",
    "lat": 45.0842,
    "lon": -93.1358,
    "kma": "Minneapolis Market",
    "kma_name": "Minneapolis Market",
    "region": "MN",
    "freight_score": 82,
    "population": 26724,
    "zip_zone": "Z5"
  },
  {
    "city": "Rosemount",
    "state": "MN",
    "zip": "55068",
    "lat": 44.7466,
    "lon": -93.0661,
    "kma": "Minneapolis Market",
    "kma_name": "Minneapolis Market",
    "region": "MN",
    "freight_score": 82,
    "population": 26509,
    "zip_zone": "Z5"
  },
  {
    "city": "Owatonna",
    "state": "MN",
    "zip": "55060",
    "lat": 44.0912,
    "lon": -93.2312,
    "kma": "Minneapolis Market",
    "kma_name": "Minneapolis Market",
    "region": "MN",
    "freight_score": 82,
    "population": 26462,
    "zip_zone": "Z5"
  },
  {
    "city": "Elk River",
    "state": "MN",
    "zip": "55330",
    "lat": 45.3314,
    "lon": -93.567,
    "kma": "Minneapolis Market",
    "kma_name": "Minneapolis Market",
    "region": "MN",
    "freight_score": 82,
    "population": 26367,
    "zip_zone": "Z5"
  },
  {
    "city": "Austin",
    "state": "MN",
    "zip": "55912",
    "lat": 43.6721,
    "lon": -92.9784,
    "kma": "Minneapolis Market",
    "kma_name": "Minneapolis Market",
    "region": "MN",
    "freight_score": 82,
    "population": 26167,
    "zip_zone": "Z5"
  },
  {
    "city": "Chanhassen",
    "state": "MN",
    "zip": "55331",
    "lat": 44.8546,
    "lon": -93.5621,
    "kma": "Minneapolis Market",
    "kma_name": "Minneapolis Market",
    "region": "MN",
    "freight_score": 82,
    "population": 26001,
    "zip_zone": "Z5"
  },
  {
    "city": "Winona",
    "state": "MN",
    "zip": "55959",
    "lat": 44.0505,
    "lon": -91.6684,
    "kma": "Minneapolis Market",
    "kma_name": "Minneapolis Market",
    "region": "MN",
    "freight_score": 81,
    "population": 25998,
    "zip_zone": "Z5"
  },
  {
    "city": "Faribault",
    "state": "MN",
    "zip": "55021",
    "lat": 44.2996,
    "lon": -93.2789,
    "kma": "Minneapolis Market",
    "kma_name": "Minneapolis Market",
    "region": "MN",
    "freight_score": 81,
    "population": 24458,
    "zip_zone": "Z5"
  },
  {
    "city": "White Bear Lake",
    "state": "MN",
    "zip": "55110",
    "lat": 45.0656,
    "lon": -93.015,
    "kma": "Minneapolis Market",
    "kma_name": "Minneapolis Market",
    "region": "MN",
    "freight_score": 81,
    "population": 24026,
    "zip_zone": "Z5"
  },
  {
    "city": "Farmington",
    "state": "MN",
    "zip": "55024",
    "lat": 44.6572,
    "lon": -93.1687,
    "kma": "Minneapolis Market",
    "kma_name": "Minneapolis Market",
    "region": "MN",
    "freight_score": 81,
    "population": 23675,
    "zip_zone": "Z5"
  },
  {
    "city": "Champlin",
    "state": "MN",
    "zip": "55316",
    "lat": 45.1702,
    "lon": -93.3903,
    "kma": "Minneapolis Market",
    "kma_name": "Minneapolis Market",
    "region": "MN",
    "freight_score": 81,
    "population": 23450,
    "zip_zone": "Z5"
  },
  {
    "city": "New Brighton",
    "state": "MN",
    "zip": "55112",
    "lat": 45.0658,
    "lon": -93.206,
    "kma": "Minneapolis Market",
    "kma_name": "Minneapolis Market",
    "region": "MN",
    "freight_score": 81,
    "population": 22900,
    "zip_zone": "Z5"
  },
  {
    "city": "Crystal",
    "state": "MN",
    "zip": "55422",
    "lat": 45.0377,
    "lon": -93.3599,
    "kma": "Minneapolis Market",
    "kma_name": "Minneapolis Market",
    "region": "MN",
    "freight_score": 81,
    "population": 22685,
    "zip_zone": "Z5"
  },
  {
    "city": "Hastings",
    "state": "MN",
    "zip": "55033",
    "lat": 44.7318,
    "lon": -92.8538,
    "kma": "Minneapolis Market",
    "kma_name": "Minneapolis Market",
    "region": "MN",
    "freight_score": 81,
    "population": 22050,
    "zip_zone": "Z5"
  },
  {
    "city": "Columbia Heights",
    "state": "MN",
    "zip": "55421",
    "lat": 45.0484,
    "lon": -93.2472,
    "kma": "Minneapolis Market",
    "kma_name": "Minneapolis Market",
    "region": "MN",
    "freight_score": 81,
    "population": 22016,
    "zip_zone": "Z5"
  },
  {
    "city": "Golden Valley",
    "state": "MN",
    "zip": "55422",
    "lat": 44.9901,
    "lon": -93.3591,
    "kma": "Minneapolis Market",
    "kma_name": "Minneapolis Market",
    "region": "MN",
    "freight_score": 80,
    "population": 21927,
    "zip_zone": "Z5"
  },
  {
    "city": "Lino Lakes",
    "state": "MN",
    "zip": "55014",
    "lat": 45.1679,
    "lon": -93.083,
    "kma": "Minneapolis Market",
    "kma_name": "Minneapolis Market",
    "region": "MN",
    "freight_score": 80,
    "population": 21847,
    "zip_zone": "Z5"
  },
  {
    "city": "New Hope",
    "state": "MN",
    "zip": "55427",
    "lat": 45.0375,
    "lon": -93.3869,
    "kma": "Minneapolis Market",
    "kma_name": "Minneapolis Market",
    "region": "MN",
    "freight_score": 80,
    "population": 21402,
    "zip_zone": "Z5"
  },
  {
    "city": "Otsego",
    "state": "MN",
    "zip": "55301",
    "lat": 45.266,
    "lon": -93.6201,
    "kma": "Minneapolis Market",
    "kma_name": "Minneapolis Market",
    "region": "MN",
    "freight_score": 80,
    "population": 21358,
    "zip_zone": "Z5"
  },
  {
    "city": "Willmar",
    "state": "MN",
    "zip": "56201",
    "lat": 45.1216,
    "lon": -95.0569,
    "kma": "St. Cloud Market",
    "kma_name": "St. Cloud Market",
    "region": "MN",
    "freight_score": 80,
    "population": 21136,
    "zip_zone": "Z5"
  },
  {
    "city": "West St. Paul",
    "state": "MN",
    "zip": "55118",
    "lat": 44.9018,
    "lon": -93.0858,
    "kma": "Minneapolis Market",
    "kma_name": "Minneapolis Market",
    "region": "MN",
    "freight_score": 80,
    "population": 21076,
    "zip_zone": "Z5"
  },
  {
    "city": "Northfield",
    "state": "MN",
    "zip": "55057",
    "lat": 44.455,
    "lon": -93.1698,
    "kma": "Minneapolis Market",
    "kma_name": "Minneapolis Market",
    "region": "MN",
    "freight_score": 80,
    "population": 20678,
    "zip_zone": "Z5"
  },
  {
    "city": "Forest Lake",
    "state": "MN",
    "zip": "55025",
    "lat": 45.2536,
    "lon": -92.9582,
    "kma": "Minneapolis Market",
    "kma_name": "Minneapolis Market",
    "region": "MN",
    "freight_score": 80,
    "population": 20678,
    "zip_zone": "Z5"
  },
  {
    "city": "South St. Paul",
    "state": "MN",
    "zip": "55075",
    "lat": 44.8877,
    "lon": -93.0411,
    "kma": "Minneapolis Market",
    "kma_name": "Minneapolis Market",
    "region": "MN",
    "freight_score": 80,
    "population": 20633,
    "zip_zone": "Z5"
  },
  {
    "city": "Sartell",
    "state": "MN",
    "zip": "56377",
    "lat": 45.6188,
    "lon": -94.2206,
    "kma": "St. Cloud Market",
    "kma_name": "St. Cloud Market",
    "region": "MN",
    "freight_score": 80,
    "population": 19620,
    "zip_zone": "Z5"
  },
  {
    "city": "Stillwater",
    "state": "MN",
    "zip": "55082",
    "lat": 45.0573,
    "lon": -92.8313,
    "kma": "Minneapolis Market",
    "kma_name": "Minneapolis Market",
    "region": "MN",
    "freight_score": 80,
    "population": 19323,
    "zip_zone": "Z5"
  },
  {
    "city": "St. Michael",
    "state": "MN",
    "zip": "55313",
    "lat": 45.2014,
    "lon": -93.692,
    "kma": "Minneapolis Market",
    "kma_name": "Minneapolis Market",
    "region": "MN",
    "freight_score": 80,
    "population": 19267,
    "zip_zone": "Z5"
  },
  {
    "city": "Hopkins",
    "state": "MN",
    "zip": "55343",
    "lat": 44.9259,
    "lon": -93.4056,
    "kma": "Minneapolis Market",
    "kma_name": "Minneapolis Market",
    "region": "MN",
    "freight_score": 80,
    "population": 18696,
    "zip_zone": "Z5"
  },
  {
    "city": "Albert Lea",
    "state": "MN",
    "zip": "56007",
    "lat": 43.6548,
    "lon": -93.3643,
    "kma": "Minneapolis Market",
    "kma_name": "Minneapolis Market",
    "region": "MN",
    "freight_score": 80,
    "population": 18379,
    "zip_zone": "Z5"
  },
  {
    "city": "Anoka",
    "state": "MN",
    "zip": "55303",
    "lat": 45.2099,
    "lon": -93.3893,
    "kma": "Minneapolis Market",
    "kma_name": "Minneapolis Market",
    "region": "MN",
    "freight_score": 79,
    "population": 17941,
    "zip_zone": "Z5"
  },
  {
    "city": "Red Wing",
    "state": "MN",
    "zip": "55089",
    "lat": 44.5817,
    "lon": -92.6036,
    "kma": "Minneapolis Market",
    "kma_name": "Minneapolis Market",
    "region": "MN",
    "freight_score": 79,
    "population": 16660,
    "zip_zone": "Z5"
  },
  {
    "city": "Ham Lake",
    "state": "MN",
    "zip": "55304",
    "lat": 45.2545,
    "lon": -93.2039,
    "kma": "Minneapolis Market",
    "kma_name": "Minneapolis Market",
    "region": "MN",
    "freight_score": 79,
    "population": 16575,
    "zip_zone": "Z5"
  },
  {
    "city": "Buffalo",
    "state": "MN",
    "zip": "55313",
    "lat": 45.1794,
    "lon": -93.8644,
    "kma": "St. Cloud Market",
    "kma_name": "St. Cloud Market",
    "region": "MN",
    "freight_score": 79,
    "population": 16388,
    "zip_zone": "Z5"
  },
  {
    "city": "Hibbing",
    "state": "MN",
    "zip": "55746",
    "lat": 47.398,
    "lon": -92.9486,
    "kma": "Duluth Market",
    "kma_name": "Duluth Market",
    "region": "MN",
    "freight_score": 79,
    "population": 16100,
    "zip_zone": "Z5"
  },
  {
    "city": "Hugo",
    "state": "MN",
    "zip": "55038",
    "lat": 45.1671,
    "lon": -92.9588,
    "kma": "Minneapolis Market",
    "kma_name": "Minneapolis Market",
    "region": "MN",
    "freight_score": 79,
    "population": 16076,
    "zip_zone": "Z5"
  },
  {
    "city": "Bemidji",
    "state": "MN",
    "zip": "56601",
    "lat": 47.4828,
    "lon": -94.8797,
    "kma": "Fargo Market",
    "kma_name": "Fargo Market",
    "region": "MN",
    "freight_score": 79,
    "population": 15490,
    "zip_zone": "Z5"
  },
  {
    "city": "Hutchinson",
    "state": "MN",
    "zip": "55350",
    "lat": 44.8855,
    "lon": -94.3768,
    "kma": "St. Cloud Market",
    "kma_name": "St. Cloud Market",
    "region": "MN",
    "freight_score": 79,
    "population": 14629,
    "zip_zone": "Z5"
  },
  {
    "city": "Monticello",
    "state": "MN",
    "zip": "55362",
    "lat": 45.2991,
    "lon": -93.7996,
    "kma": "St. Cloud Market",
    "kma_name": "St. Cloud Market",
    "region": "MN",
    "freight_score": 79,
    "population": 14607,
    "zip_zone": "Z5"
  },
  {
    "city": "Alexandria",
    "state": "MN",
    "zip": "56308",
    "lat": 45.8776,
    "lon": -95.3767,
    "kma": "St. Cloud Market",
    "kma_name": "St. Cloud Market",
    "region": "MN",
    "freight_score": 79,
    "population": 14579,
    "zip_zone": "Z5"
  },
  {
    "city": "Brainerd",
    "state": "MN",
    "zip": "56401",
    "lat": 46.3553,
    "lon": -94.1983,
    "kma": "St. Cloud Market",
    "kma_name": "St. Cloud Market",
    "region": "MN",
    "freight_score": 79,
    "population": 14474,
    "zip_zone": "Z5"
  },
  {
    "city": "Robbinsdale",
    "state": "MN",
    "zip": "55422",
    "lat": 45.0261,
    "lon": -93.3332,
    "kma": "Minneapolis Market",
    "kma_name": "Minneapolis Market",
    "region": "MN",
    "freight_score": 79,
    "population": 14318,
    "zip_zone": "Z5"
  },
  {
    "city": "North Mankato",
    "state": "MN",
    "zip": "56003",
    "lat": 44.181,
    "lon": -94.0391,
    "kma": "Minneapolis Market",
    "kma_name": "Minneapolis Market",
    "region": "MN",
    "freight_score": 79,
    "population": 14212,
    "zip_zone": "Z5"
  },
  {
    "city": "Fergus Falls",
    "state": "MN",
    "zip": "56537",
    "lat": 46.2854,
    "lon": -96.0758,
    "kma": "Fargo Market",
    "kma_name": "Fargo Market",
    "region": "MN",
    "freight_score": 79,
    "population": 14138,
    "zip_zone": "Z5"
  },
  {
    "city": "New Ulm",
    "state": "MN",
    "zip": "56073",
    "lat": 44.312,
    "lon": -94.4685,
    "kma": "Minneapolis Market",
    "kma_name": "Minneapolis Market",
    "region": "MN",
    "freight_score": 79,
    "population": 14066,
    "zip_zone": "Z5"
  },
  {
    "city": "Marshall",
    "state": "MN",
    "zip": "56258",
    "lat": 44.4488,
    "lon": -95.7897,
    "kma": "Sioux Falls Market",
    "kma_name": "Sioux Falls Market",
    "region": "MN",
    "freight_score": 78,
    "population": 13880,
    "zip_zone": "Z5"
  },
  {
    "city": "Sauk Rapids",
    "state": "MN",
    "zip": "56379",
    "lat": 45.5981,
    "lon": -94.1538,
    "kma": "St. Cloud Market",
    "kma_name": "St. Cloud Market",
    "region": "MN",
    "freight_score": 78,
    "population": 13851,
    "zip_zone": "Z5"
  },
  {
    "city": "Worthington",
    "state": "MN",
    "zip": "56187",
    "lat": 43.6281,
    "lon": -95.599,
    "kma": "Sioux Falls Market",
    "kma_name": "Sioux Falls Market",
    "region": "MN",
    "freight_score": 78,
    "population": 13792,
    "zip_zone": "Z5"
  },
  {
    "city": "Rogers",
    "state": "MN",
    "zip": "55374",
    "lat": 45.1865,
    "lon": -93.5783,
    "kma": "Minneapolis Market",
    "kma_name": "Minneapolis Market",
    "region": "MN",
    "freight_score": 78,
    "population": 13405,
    "zip_zone": "Z5"
  },
  {
    "city": "Waconia",
    "state": "MN",
    "zip": "55387",
    "lat": 44.8422,
    "lon": -93.7896,
    "kma": "Minneapolis Market",
    "kma_name": "Minneapolis Market",
    "region": "MN",
    "freight_score": 78,
    "population": 13223,
    "zip_zone": "Z5"
  },
  {
    "city": "Mounds View",
    "state": "MN",
    "zip": "55112",
    "lat": 45.1071,
    "lon": -93.2076,
    "kma": "Minneapolis Market",
    "kma_name": "Minneapolis Market",
    "region": "MN",
    "freight_score": 78,
    "population": 12992,
    "zip_zone": "Z5"
  },
  {
    "city": "Vadnais Heights",
    "state": "MN",
    "zip": "55127",
    "lat": 45.057,
    "lon": -93.0748,
    "kma": "Minneapolis Market",
    "kma_name": "Minneapolis Market",
    "region": "MN",
    "freight_score": 78,
    "population": 12789,
    "zip_zone": "Z5"
  },
  {
    "city": "Cloquet",
    "state": "MN",
    "zip": "55720",
    "lat": 46.7221,
    "lon": -92.4923,
    "kma": "Duluth Market",
    "kma_name": "Duluth Market",
    "region": "MN",
    "freight_score": 78,
    "population": 12582,
    "zip_zone": "Z5"
  },
  {
    "city": "North St. Paul",
    "state": "MN",
    "zip": "55109",
    "lat": 45.0137,
    "lon": -92.9995,
    "kma": "Minneapolis Market",
    "kma_name": "Minneapolis Market",
    "region": "MN",
    "freight_score": 78,
    "population": 12511,
    "zip_zone": "Z5"
  },
  {
    "city": "Lake Elmo",
    "state": "MN",
    "zip": "55042",
    "lat": 44.9944,
    "lon": -92.9031,
    "kma": "Minneapolis Market",
    "kma_name": "Minneapolis Market",
    "region": "MN",
    "freight_score": 78,
    "population": 12504,
    "zip_zone": "Z5"
  },
  {
    "city": "Big Lake",
    "state": "MN",
    "zip": "55309",
    "lat": 45.3417,
    "lon": -93.7434,
    "kma": "St. Cloud Market",
    "kma_name": "St. Cloud Market",
    "region": "MN",
    "freight_score": 78,
    "population": 12115,
    "zip_zone": "Z5"
  },
  {
    "city": "St. Peter",
    "state": "MN",
    "zip": "56082",
    "lat": 44.3295,
    "lon": -93.9658,
    "kma": "Minneapolis Market",
    "kma_name": "Minneapolis Market",
    "region": "MN",
    "freight_score": 78,
    "population": 12085,
    "zip_zone": "Z5"
  },
  {
    "city": "East Bethel",
    "state": "MN",
    "zip": "55092",
    "lat": 45.3557,
    "lon": -93.2038,
    "kma": "Minneapolis Market",
    "kma_name": "Minneapolis Market",
    "region": "MN",
    "freight_score": 78,
    "population": 11995,
    "zip_zone": "Z5"
  },
  {
    "city": "Mendota Heights",
    "state": "MN",
    "zip": "55120",
    "lat": 44.8815,
    "lon": -93.14,
    "kma": "Minneapolis Market",
    "kma_name": "Minneapolis Market",
    "region": "MN",
    "freight_score": 78,
    "population": 11644,
    "zip_zone": "Z5"
  },
  {
    "city": "Grand Rapids",
    "state": "MN",
    "zip": "55744",
    "lat": 47.238,
    "lon": -93.5327,
    "kma": "Duluth Market",
    "kma_name": "Duluth Market",
    "region": "MN",
    "freight_score": 78,
    "population": 11186,
    "zip_zone": "Z5"
  },
  {
    "city": "North Branch",
    "state": "MN",
    "zip": "55056",
    "lat": 45.5137,
    "lon": -92.9601,
    "kma": "Minneapolis Market",
    "kma_name": "Minneapolis Market",
    "region": "MN",
    "freight_score": 78,
    "population": 11182,
    "zip_zone": "Z5"
  },
  {
    "city": "Victoria",
    "state": "MN",
    "zip": "55386",
    "lat": 44.8634,
    "lon": -93.6585,
    "kma": "Minneapolis Market",
    "kma_name": "Minneapolis Market",
    "region": "MN",
    "freight_score": 78,
    "population": 10972,
    "zip_zone": "Z5"
  },
  {
    "city": "Little Canada",
    "state": "MN",
    "zip": "55117",
    "lat": 45.0244,
    "lon": -93.0863,
    "kma": "Minneapolis Market",
    "kma_name": "Minneapolis Market",
    "region": "MN",
    "freight_score": 78,
    "population": 10546,
    "zip_zone": "Z5"
  },
  {
    "city": "Fairmont",
    "state": "MN",
    "zip": "56031",
    "lat": 43.6441,
    "lon": -94.4621,
    "kma": "Minneapolis Market",
    "kma_name": "Minneapolis Market",
    "region": "MN",
    "freight_score": 78,
    "population": 10348,
    "zip_zone": "Z5"
  },
  {
    "city": "Hermantown",
    "state": "MN",
    "zip": "55814",
    "lat": 46.8057,
    "lon": -92.2407,
    "kma": "Duluth Market",
    "kma_name": "Duluth Market",
    "region": "MN",
    "freight_score": 78,
    "population": 10192,
    "zip_zone": "Z5"
  },
  {
    "city": "Detroit Lakes",
    "state": "MN",
    "zip": "56501",
    "lat": 46.806,
    "lon": -95.8449,
    "kma": "Fargo Market",
    "kma_name": "Fargo Market",
    "region": "MN",
    "freight_score": 78,
    "population": 10002,
    "zip_zone": "Z5"
  },
  {
    "city": "Cambridge",
    "state": "MN",
    "zip": "55008",
    "lat": 45.5612,
    "lon": -93.2283,
    "kma": "Minneapolis Market",
    "kma_name": "Minneapolis Market",
    "region": "MN",
    "freight_score": 77,
    "population": 9992,
    "zip_zone": "Z5"
  },
  {
    "city": "Arden Hills",
    "state": "MN",
    "zip": "55126",
    "lat": 45.0721,
    "lon": -93.167,
    "kma": "Minneapolis Market",
    "kma_name": "Minneapolis Market",
    "region": "MN",
    "freight_score": 77,
    "population": 9737,
    "zip_zone": "Z5"
  },
  {
    "city": "St. Anthony",
    "state": "MN",
    "zip": "55421",
    "lat": 45.0278,
    "lon": -93.2174,
    "kma": "Minneapolis Market",
    "kma_name": "Minneapolis Market",
    "region": "MN",
    "freight_score": 77,
    "population": 9516,
    "zip_zone": "Z5"
  },
  {
    "city": "Waseca",
    "state": "MN",
    "zip": "56093",
    "lat": 44.0827,
    "lon": -93.5029,
    "kma": "Minneapolis Market",
    "kma_name": "Minneapolis Market",
    "region": "MN",
    "freight_score": 77,
    "population": 9209,
    "zip_zone": "Z5"
  },
  {
    "city": "Mound",
    "state": "MN",
    "zip": "55364",
    "lat": 44.9328,
    "lon": -93.6591,
    "kma": "Minneapolis Market",
    "kma_name": "Minneapolis Market",
    "region": "MN",
    "freight_score": 77,
    "population": 9176,
    "zip_zone": "Z5"
  },
  {
    "city": "Little Falls",
    "state": "MN",
    "zip": "56345",
    "lat": 45.9862,
    "lon": -94.3586,
    "kma": "St. Cloud Market",
    "kma_name": "St. Cloud Market",
    "region": "MN",
    "freight_score": 77,
    "population": 9094,
    "zip_zone": "Z5"
  },
  {
    "city": "East Grand Forks",
    "state": "MN",
    "zip": "56721",
    "lat": 47.9286,
    "lon": -97.0138,
    "kma": "Fargo Market",
    "kma_name": "Fargo Market",
    "region": "MN",
    "freight_score": 77,
    "population": 9067,
    "zip_zone": "Z5"
  },
  {
    "city": "Oak Grove",
    "state": "MN",
    "zip": "55011",
    "lat": 45.3409,
    "lon": -93.3264,
    "kma": "Minneapolis Market",
    "kma_name": "Minneapolis Market",
    "region": "MN",
    "freight_score": 77,
    "population": 9031,
    "zip_zone": "Z5"
  },
  {
    "city": "Thief River Falls",
    "state": "MN",
    "zip": "56701",
    "lat": 48.1108,
    "lon": -96.1778,
    "kma": "Fargo Market",
    "kma_name": "Fargo Market",
    "region": "MN",
    "freight_score": 77,
    "population": 8841,
    "zip_zone": "Z5"
  },
  {
    "city": "Baxter",
    "state": "MN",
    "zip": "56425",
    "lat": 46.3426,
    "lon": -94.2793,
    "kma": "St. Cloud Market",
    "kma_name": "St. Cloud Market",
    "region": "MN",
    "freight_score": 77,
    "population": 8804,
    "zip_zone": "Z5"
  },
  {
    "city": "Minnetrista",
    "state": "MN",
    "zip": "55331",
    "lat": 44.9356,
    "lon": -93.7107,
    "kma": "Minneapolis Market",
    "kma_name": "Minneapolis Market",
    "region": "MN",
    "freight_score": 77,
    "population": 8509,
    "zip_zone": "Z5"
  },
  {
    "city": "Dayton",
    "state": "MN",
    "zip": "55369",
    "lat": 45.1906,
    "lon": -93.4758,
    "kma": "Minneapolis Market",
    "kma_name": "Minneapolis Market",
    "region": "MN",
    "freight_score": 77,
    "population": 8381,
    "zip_zone": "Z5"
  },
  {
    "city": "Virginia",
    "state": "MN",
    "zip": "55792",
    "lat": 47.5168,
    "lon": -92.5127,
    "kma": "Duluth Market",
    "kma_name": "Duluth Market",
    "region": "MN",
    "freight_score": 77,
    "population": 8362,
    "zip_zone": "Z5"
  },
  {
    "city": "Waite Park",
    "state": "MN",
    "zip": "56387",
    "lat": 45.5313,
    "lon": -94.2528,
    "kma": "St. Cloud Market",
    "kma_name": "St. Cloud Market",
    "region": "MN",
    "freight_score": 77,
    "population": 8341,
    "zip_zone": "Z5"
  },
  {
    "city": "St. Francis",
    "state": "MN",
    "zip": "55330",
    "lat": 45.3991,
    "lon": -93.3901,
    "kma": "Minneapolis Market",
    "kma_name": "Minneapolis Market",
    "region": "MN",
    "freight_score": 77,
    "population": 8279,
    "zip_zone": "Z5"
  },
  {
    "city": "Orono",
    "state": "MN",
    "zip": "55391",
    "lat": 44.9657,
    "lon": -93.5908,
    "kma": "Minneapolis Market",
    "kma_name": "Minneapolis Market",
    "region": "MN",
    "freight_score": 77,
    "population": 8205,
    "zip_zone": "Z5"
  },
  {
    "city": "New Prague",
    "state": "MN",
    "zip": "56071",
    "lat": 44.5459,
    "lon": -93.5755,
    "kma": "Minneapolis Market",
    "kma_name": "Minneapolis Market",
    "region": "MN",
    "freight_score": 77,
    "population": 8195,
    "zip_zone": "Z5"
  },
  {
    "city": "Mahtomedi",
    "state": "MN",
    "zip": "55110",
    "lat": 45.0619,
    "lon": -92.966,
    "kma": "Minneapolis Market",
    "kma_name": "Minneapolis Market",
    "region": "MN",
    "freight_score": 77,
    "population": 8108,
    "zip_zone": "Z5"
  },
  {
    "city": "Albertville",
    "state": "MN",
    "zip": "55301",
    "lat": 45.2364,
    "lon": -93.6618,
    "kma": "Minneapolis Market",
    "kma_name": "Minneapolis Market",
    "region": "MN",
    "freight_score": 77,
    "population": 8066,
    "zip_zone": "Z5"
  },
  {
    "city": "Wyoming",
    "state": "MN",
    "zip": "55092",
    "lat": 45.3365,
    "lon": -92.9766,
    "kma": "Minneapolis Market",
    "kma_name": "Minneapolis Market",
    "region": "MN",
    "freight_score": 77,
    "population": 8063,
    "zip_zone": "Z5"
  },
  {
    "city": "Shorewood",
    "state": "MN",
    "zip": "55331",
    "lat": 44.9034,
    "lon": -93.5905,
    "kma": "Minneapolis Market",
    "kma_name": "Minneapolis Market",
    "region": "MN",
    "freight_score": 77,
    "population": 7679,
    "zip_zone": "Z5"
  },
  {
    "city": "Belle Plaine",
    "state": "MN",
    "zip": "56011",
    "lat": 44.6196,
    "lon": -93.7606,
    "kma": "Minneapolis Market",
    "kma_name": "Minneapolis Market",
    "region": "MN",
    "freight_score": 77,
    "population": 7401,
    "zip_zone": "Z5"
  },
  {
    "city": "Crookston",
    "state": "MN",
    "zip": "56716",
    "lat": 47.7747,
    "lon": -96.6062,
    "kma": "Fargo Market",
    "kma_name": "Fargo Market",
    "region": "MN",
    "freight_score": 77,
    "population": 7388,
    "zip_zone": "Z5"
  },
  {
    "city": "St. Joseph",
    "state": "MN",
    "zip": "56374",
    "lat": 45.5655,
    "lon": -94.3035,
    "kma": "St. Cloud Market",
    "kma_name": "St. Cloud Market",
    "region": "MN",
    "freight_score": 77,
    "population": 7024,
    "zip_zone": "Z5"
  },
  {
    "city": "Isanti",
    "state": "MN",
    "zip": "55040",
    "lat": 45.4925,
    "lon": -93.2408,
    "kma": "Minneapolis Market",
    "kma_name": "Minneapolis Market",
    "region": "MN",
    "freight_score": 77,
    "population": 7023,
    "zip_zone": "Z5"
  },
  {
    "city": "Spring Lake Park",
    "state": "MN",
    "zip": "55432",
    "lat": 45.1161,
    "lon": -93.2451,
    "kma": "Minneapolis Market",
    "kma_name": "Minneapolis Market",
    "region": "MN",
    "freight_score": 77,
    "population": 6997,
    "zip_zone": "Z5"
  },
  {
    "city": "Kasson",
    "state": "MN",
    "zip": "55944",
    "lat": 44.0333,
    "lon": -92.7479,
    "kma": "Minneapolis Market",
    "kma_name": "Minneapolis Market",
    "region": "MN",
    "freight_score": 77,
    "population": 6964,
    "zip_zone": "Z5"
  },
  {
    "city": "Medina",
    "state": "MN",
    "zip": "55340",
    "lat": 45.0326,
    "lon": -93.5834,
    "kma": "Minneapolis Market",
    "kma_name": "Minneapolis Market",
    "region": "MN",
    "freight_score": 77,
    "population": 6858,
    "zip_zone": "Z5"
  },
  {
    "city": "Corcoran",
    "state": "MN",
    "zip": "55340",
    "lat": 45.1089,
    "lon": -93.5837,
    "kma": "Minneapolis Market",
    "kma_name": "Minneapolis Market",
    "region": "MN",
    "freight_score": 77,
    "population": 6854,
    "zip_zone": "Z5"
  },
  {
    "city": "Stewartville",
    "state": "MN",
    "zip": "55976",
    "lat": 43.8606,
    "lon": -92.4896,
    "kma": "Minneapolis Market",
    "kma_name": "Minneapolis Market",
    "region": "MN",
    "freight_score": 77,
    "population": 6754,
    "zip_zone": "Z5"
  },
  {
    "city": "Delano",
    "state": "MN",
    "zip": "55328",
    "lat": 45.0384,
    "lon": -93.793,
    "kma": "Minneapolis Market",
    "kma_name": "Minneapolis Market",
    "region": "MN",
    "freight_score": 77,
    "population": 6712,
    "zip_zone": "Z5"
  },
  {
    "city": "Jordan",
    "state": "MN",
    "zip": "55352",
    "lat": 44.6648,
    "lon": -93.6351,
    "kma": "Minneapolis Market",
    "kma_name": "Minneapolis Market",
    "region": "MN",
    "freight_score": 77,
    "population": 6704,
    "zip_zone": "Z5"
  },
  {
    "city": "Litchfield",
    "state": "MN",
    "zip": "55355",
    "lat": 45.1221,
    "lon": -94.5253,
    "kma": "St. Cloud Market",
    "kma_name": "St. Cloud Market",
    "region": "MN",
    "freight_score": 77,
    "population": 6599,
    "zip_zone": "Z5"
  },
  {
    "city": "Byron",
    "state": "MN",
    "zip": "55920",
    "lat": 44.0378,
    "lon": -92.6409,
    "kma": "Minneapolis Market",
    "kma_name": "Minneapolis Market",
    "region": "MN",
    "freight_score": 77,
    "population": 6510,
    "zip_zone": "Z5"
  },
  {
    "city": "Zimmerman",
    "state": "MN",
    "zip": "55398",
    "lat": 45.4416,
    "lon": -93.598,
    "kma": "St. Cloud Market",
    "kma_name": "St. Cloud Market",
    "region": "MN",
    "freight_score": 77,
    "population": 6410,
    "zip_zone": "Z5"
  },
  {
    "city": "Carver",
    "state": "MN",
    "zip": "55315",
    "lat": 44.7648,
    "lon": -93.6537,
    "kma": "Minneapolis Market",
    "kma_name": "Minneapolis Market",
    "region": "MN",
    "freight_score": 76,
    "population": 5935,
    "zip_zone": "Z5"
  },
  {
    "city": "International Falls",
    "state": "MN",
    "zip": "56649",
    "lat": 48.5884,
    "lon": -93.4084,
    "kma": "Duluth Market",
    "kma_name": "Duluth Market",
    "region": "MN",
    "freight_score": 76,
    "population": 5728,
    "zip_zone": "Z5"
  },
  {
    "city": "Glencoe",
    "state": "MN",
    "zip": "55336",
    "lat": 44.7699,
    "lon": -94.151,
    "kma": "Minneapolis Market",
    "kma_name": "Minneapolis Market",
    "region": "MN",
    "freight_score": 76,
    "population": 5702,
    "zip_zone": "Z5"
  },
  {
    "city": "Chisago City",
    "state": "MN",
    "zip": "55013",
    "lat": 45.3473,
    "lon": -92.9116,
    "kma": "Minneapolis Market",
    "kma_name": "Minneapolis Market",
    "region": "MN",
    "freight_score": 76,
    "population": 5629,
    "zip_zone": "Z5"
  },
  {
    "city": "Credit River",
    "state": "MN",
    "zip": "55372",
    "lat": 44.6744,
    "lon": -93.3791,
    "kma": "Minneapolis Market",
    "kma_name": "Minneapolis Market",
    "region": "MN",
    "freight_score": 76,
    "population": 5531,
    "zip_zone": "Z5"
  },
  {
    "city": "St. Paul Park",
    "state": "MN",
    "zip": "55071",
    "lat": 44.8359,
    "lon": -92.9949,
    "kma": "Minneapolis Market",
    "kma_name": "Minneapolis Market",
    "region": "MN",
    "freight_score": 76,
    "population": 5464,
    "zip_zone": "Z5"
  },
  {
    "city": "Montevideo",
    "state": "MN",
    "zip": "56265",
    "lat": 44.9505,
    "lon": -95.7153,
    "kma": "St. Cloud Market",
    "kma_name": "St. Cloud Market",
    "region": "MN",
    "freight_score": 76,
    "population": 5303,
    "zip_zone": "Z5"
  },
  {
    "city": "La Crescent",
    "state": "MN",
    "zip": "55947",
    "lat": 43.83,
    "lon": -91.3042,
    "kma": "Dubuque Market",
    "kma_name": "Dubuque Market",
    "region": "MN",
    "freight_score": 76,
    "population": 5266,
    "zip_zone": "Z5"
  },
  {
    "city": "North Oaks",
    "state": "MN",
    "zip": "55127",
    "lat": 45.1002,
    "lon": -93.0882,
    "kma": "Minneapolis Market",
    "kma_name": "Minneapolis Market",
    "region": "MN",
    "freight_score": 76,
    "population": 5175,
    "zip_zone": "Z5"
  },
  {
    "city": "Falcon Heights",
    "state": "MN",
    "zip": "55113",
    "lat": 44.9899,
    "lon": -93.177,
    "kma": "Minneapolis Market",
    "kma_name": "Minneapolis Market",
    "region": "MN",
    "freight_score": 76,
    "population": 5145,
    "zip_zone": "Z5"
  },
  {
    "city": "Morris",
    "state": "MN",
    "zip": "56267",
    "lat": 45.5857,
    "lon": -95.9046,
    "kma": "St. Cloud Market",
    "kma_name": "St. Cloud Market",
    "region": "MN",
    "freight_score": 76,
    "population": 5092,
    "zip_zone": "Z5"
  },
  {
    "city": "Redwood Falls",
    "state": "MN",
    "zip": "56283",
    "lat": 44.547,
    "lon": -95.1031,
    "kma": "St. Cloud Market",
    "kma_name": "St. Cloud Market",
    "region": "MN",
    "freight_score": 76,
    "population": 5075,
    "zip_zone": "Z5"
  },
  {
    "city": "Lake City",
    "state": "MN",
    "zip": "55041",
    "lat": 44.4453,
    "lon": -92.2796,
    "kma": "Minneapolis Market",
    "kma_name": "Minneapolis Market",
    "region": "MN",
    "freight_score": 76,
    "population": 5021,
    "zip_zone": "Z5"
  },
  {
    "city": "Princeton",
    "state": "MN",
    "zip": "55371",
    "lat": 45.5688,
    "lon": -93.5899,
    "kma": "St. Cloud Market",
    "kma_name": "St. Cloud Market",
    "region": "MN",
    "freight_score": 76,
    "population": 4988,
    "zip_zone": "Z5"
  },
  {
    "city": "Circle Pines",
    "state": "MN",
    "zip": "55014",
    "lat": 45.1409,
    "lon": -93.1505,
    "kma": "Minneapolis Market",
    "kma_name": "Minneapolis Market",
    "region": "MN",
    "freight_score": 76,
    "population": 4980,
    "zip_zone": "Z5"
  },
  {
    "city": "Becker",
    "state": "MN",
    "zip": "55308",
    "lat": 45.3824,
    "lon": -93.8772,
    "kma": "St. Cloud Market",
    "kma_name": "St. Cloud Market",
    "region": "MN",
    "freight_score": 76,
    "population": 4958,
    "zip_zone": "Z5"
  },
  {
    "city": "Lindstrom",
    "state": "MN",
    "zip": "55045",
    "lat": 45.387,
    "lon": -92.8477,
    "kma": "Minneapolis Market",
    "kma_name": "Minneapolis Market",
    "region": "MN",
    "freight_score": 76,
    "population": 4933,
    "zip_zone": "Z5"
  },
  {
    "city": "Elko New Market",
    "state": "MN",
    "zip": "55020",
    "lat": 44.5665,
    "lon": -93.338,
    "kma": "Minneapolis Market",
    "kma_name": "Minneapolis Market",
    "region": "MN",
    "freight_score": 76,
    "population": 4915,
    "zip_zone": "Z5"
  },
  {
    "city": "Luverne",
    "state": "MN",
    "zip": "56156",
    "lat": 43.6531,
    "lon": -96.2148,
    "kma": "Sioux Falls Market",
    "kma_name": "Sioux Falls Market",
    "region": "MN",
    "freight_score": 76,
    "population": 4907,
    "zip_zone": "Z5"
  },
  {
    "city": "Lonsdale",
    "state": "MN",
    "zip": "55046",
    "lat": 44.4778,
    "lon": -93.4225,
    "kma": "Minneapolis Market",
    "kma_name": "Minneapolis Market",
    "region": "MN",
    "freight_score": 76,
    "population": 4789,
    "zip_zone": "Z5"
  },
  {
    "city": "Windom",
    "state": "MN",
    "zip": "56101",
    "lat": 43.8736,
    "lon": -95.1201,
    "kma": "Sioux Falls Market",
    "kma_name": "Sioux Falls Market",
    "region": "MN",
    "freight_score": 76,
    "population": 4786,
    "zip_zone": "Z5"
  },
  {
    "city": "Oak Park Heights",
    "state": "MN",
    "zip": "55082",
    "lat": 45.0324,
    "lon": -92.8098,
    "kma": "Minneapolis Market",
    "kma_name": "Minneapolis Market",
    "region": "MN",
    "freight_score": 76,
    "population": 4782,
    "zip_zone": "Z5"
  },
  {
    "city": "Watertown",
    "state": "MN",
    "zip": "55388",
    "lat": 44.9604,
    "lon": -93.8431,
    "kma": "Minneapolis Market",
    "kma_name": "Minneapolis Market",
    "region": "MN",
    "freight_score": 76,
    "population": 4747,
    "zip_zone": "Z5"
  },
  {
    "city": "St. James",
    "state": "MN",
    "zip": "56081",
    "lat": 43.9833,
    "lon": -94.6249,
    "kma": "Minneapolis Market",
    "kma_name": "Minneapolis Market",
    "region": "MN",
    "freight_score": 76,
    "population": 4740,
    "zip_zone": "Z5"
  },
  {
    "city": "Chisholm",
    "state": "MN",
    "zip": "55719",
    "lat": 47.4877,
    "lon": -92.8786,
    "kma": "Duluth Market",
    "kma_name": "Duluth Market",
    "region": "MN",
    "freight_score": 76,
    "population": 4731,
    "zip_zone": "Z5"
  },
  {
    "city": "Dilworth",
    "state": "MN",
    "zip": "56529",
    "lat": 46.8795,
    "lon": -96.6985,
    "kma": "Fargo Market",
    "kma_name": "Fargo Market",
    "region": "MN",
    "freight_score": 76,
    "population": 4664,
    "zip_zone": "Z5"
  },
  {
    "city": "Sauk Centre",
    "state": "MN",
    "zip": "56378",
    "lat": 45.736,
    "lon": -94.9523,
    "kma": "St. Cloud Market",
    "kma_name": "St. Cloud Market",
    "region": "MN",
    "freight_score": 76,
    "population": 4589,
    "zip_zone": "Z5"
  },
  {
    "city": "Nowthen",
    "state": "MN",
    "zip": "55303",
    "lat": 45.3421,
    "lon": -93.4495,
    "kma": "Minneapolis Market",
    "kma_name": "Minneapolis Market",
    "region": "MN",
    "freight_score": 76,
    "population": 4539,
    "zip_zone": "Z5"
  },
  {
    "city": "Rockford",
    "state": "MN",
    "zip": "55373",
    "lat": 45.092,
    "lon": -93.7453,
    "kma": "Minneapolis Market",
    "kma_name": "Minneapolis Market",
    "region": "MN",
    "freight_score": 76,
    "population": 4521,
    "zip_zone": "Z5"
  },
  {
    "city": "Newport",
    "state": "MN",
    "zip": "55055",
    "lat": 44.8743,
    "lon": -92.9975,
    "kma": "Minneapolis Market",
    "kma_name": "Minneapolis Market",
    "region": "MN",
    "freight_score": 76,
    "population": 4460,
    "zip_zone": "Z5"
  },
  {
    "city": "Wayzata",
    "state": "MN",
    "zip": "55391",
    "lat": 44.967,
    "lon": -93.516,
    "kma": "Minneapolis Market",
    "kma_name": "Minneapolis Market",
    "region": "MN",
    "freight_score": 76,
    "population": 4363,
    "zip_zone": "Z5"
  },
  {
    "city": "Wadena",
    "state": "MN",
    "zip": "56482",
    "lat": 46.445,
    "lon": -95.1285,
    "kma": "St. Cloud Market",
    "kma_name": "St. Cloud Market",
    "region": "MN",
    "freight_score": 76,
    "population": 4361,
    "zip_zone": "Z5"
  },
  {
    "city": "Park Rapids",
    "state": "MN",
    "zip": "56470",
    "lat": 46.9169,
    "lon": -95.0576,
    "kma": "Fargo Market",
    "kma_name": "Fargo Market",
    "region": "MN",
    "freight_score": 76,
    "population": 4226,
    "zip_zone": "Z5"
  },
  {
    "city": "Cannon Falls",
    "state": "MN",
    "zip": "55009",
    "lat": 44.5122,
    "lon": -92.9034,
    "kma": "Minneapolis Market",
    "kma_name": "Minneapolis Market",
    "region": "MN",
    "freight_score": 76,
    "population": 4216,
    "zip_zone": "Z5"
  },
  {
    "city": "Columbus",
    "state": "MN",
    "zip": "55025",
    "lat": 45.2685,
    "lon": -93.0809,
    "kma": "Minneapolis Market",
    "kma_name": "Minneapolis Market",
    "region": "MN",
    "freight_score": 76,
    "population": 4211,
    "zip_zone": "Z5"
  },
  {
    "city": "Le Sueur",
    "state": "MN",
    "zip": "56058",
    "lat": 44.4702,
    "lon": -93.9026,
    "kma": "Minneapolis Market",
    "kma_name": "Minneapolis Market",
    "region": "MN",
    "freight_score": 76,
    "population": 4204,
    "zip_zone": "Z5"
  },
  {
    "city": "Cold Spring",
    "state": "MN",
    "zip": "56320",
    "lat": 45.457,
    "lon": -94.4297,
    "kma": "St. Cloud Market",
    "kma_name": "St. Cloud Market",
    "region": "MN",
    "freight_score": 76,
    "population": 4201,
    "zip_zone": "Z5"
  },
  {
    "city": "Pipestone",
    "state": "MN",
    "zip": "56164",
    "lat": 43.9958,
    "lon": -96.3117,
    "kma": "Sioux Falls Market",
    "kma_name": "Sioux Falls Market",
    "region": "MN",
    "freight_score": 76,
    "population": 4165,
    "zip_zone": "Z5"
  },
  {
    "city": "Rice Lake",
    "state": "MN",
    "zip": "55803",
    "lat": 46.8977,
    "lon": -92.1137,
    "kma": "Duluth Market",
    "kma_name": "Duluth Market",
    "region": "MN",
    "freight_score": 76,
    "population": 4120,
    "zip_zone": "Z5"
  },
  {
    "city": "Goodview",
    "state": "MN",
    "zip": "55959",
    "lat": 44.0692,
    "lon": -91.7166,
    "kma": "Minneapolis Market",
    "kma_name": "Minneapolis Market",
    "region": "MN",
    "freight_score": 76,
    "population": 4104,
    "zip_zone": "Z5"
  },
  {
    "city": "St. Charles",
    "state": "MN",
    "zip": "55972",
    "lat": 43.9687,
    "lon": -92.0593,
    "kma": "Minneapolis Market",
    "kma_name": "Minneapolis Market",
    "region": "MN",
    "freight_score": 76,
    "population": 4021,
    "zip_zone": "Z5"
  },
  {
    "city": "Scandia",
    "state": "MN",
    "zip": "55073",
    "lat": 45.254,
    "lon": -92.8278,
    "kma": "Minneapolis Market",
    "kma_name": "Minneapolis Market",
    "region": "MN",
    "freight_score": 76,
    "population": 3966,
    "zip_zone": "Z5"
  },
  {
    "city": "Grant",
    "state": "MN",
    "zip": "55115",
    "lat": 45.0825,
    "lon": -92.909,
    "kma": "Minneapolis Market",
    "kma_name": "Minneapolis Market",
    "region": "MN",
    "freight_score": 76,
    "population": 3959,
    "zip_zone": "Z5"
  },
  {
    "city": "Bayport",
    "state": "MN",
    "zip": "55003",
    "lat": 45.0152,
    "lon": -92.7789,
    "kma": "Minneapolis Market",
    "kma_name": "Minneapolis Market",
    "region": "MN",
    "freight_score": 76,
    "population": 3948,
    "zip_zone": "Z5"
  },
  {
    "city": "Centerville",
    "state": "MN",
    "zip": "55038",
    "lat": 45.164,
    "lon": -93.054,
    "kma": "Minneapolis Market",
    "kma_name": "Minneapolis Market",
    "region": "MN",
    "freight_score": 76,
    "population": 3915,
    "zip_zone": "Z5"
  },
  {
    "city": "Norwood Young America",
    "state": "MN",
    "zip": "55397",
    "lat": 44.7721,
    "lon": -93.9192,
    "kma": "Minneapolis Market",
    "kma_name": "Minneapolis Market",
    "region": "MN",
    "freight_score": 76,
    "population": 3866,
    "zip_zone": "Z5"
  },
  {
    "city": "Zumbrota",
    "state": "MN",
    "zip": "55992",
    "lat": 44.295,
    "lon": -92.6736,
    "kma": "Minneapolis Market",
    "kma_name": "Minneapolis Market",
    "region": "MN",
    "freight_score": 76,
    "population": 3843,
    "zip_zone": "Z5"
  },
  {
    "city": "Montrose",
    "state": "MN",
    "zip": "55363",
    "lat": 45.0669,
    "lon": -93.9203,
    "kma": "Minneapolis Market",
    "kma_name": "Minneapolis Market",
    "region": "MN",
    "freight_score": 76,
    "population": 3840,
    "zip_zone": "Z5"
  },
  {
    "city": "Deephaven",
    "state": "MN",
    "zip": "55331",
    "lat": 44.9318,
    "lon": -93.5293,
    "kma": "Minneapolis Market",
    "kma_name": "Minneapolis Market",
    "region": "MN",
    "freight_score": 76,
    "population": 3835,
    "zip_zone": "Z5"
  },
  {
    "city": "Mora",
    "state": "MN",
    "zip": "55051",
    "lat": 45.8768,
    "lon": -93.2914,
    "kma": "St. Cloud Market",
    "kma_name": "St. Cloud Market",
    "region": "MN",
    "freight_score": 76,
    "population": 3708,
    "zip_zone": "Z5"
  },
  {
    "city": "Independence",
    "state": "MN",
    "zip": "55359",
    "lat": 45.0219,
    "lon": -93.7076,
    "kma": "Minneapolis Market",
    "kma_name": "Minneapolis Market",
    "region": "MN",
    "freight_score": 76,
    "population": 3695,
    "zip_zone": "Z5"
  },
  {
    "city": "Pine Island",
    "state": "MN",
    "zip": "55963",
    "lat": 44.1968,
    "lon": -92.6166,
    "kma": "Minneapolis Market",
    "kma_name": "Minneapolis Market",
    "region": "MN",
    "freight_score": 76,
    "population": 3693,
    "zip_zone": "Z5"
  },
  {
    "city": "Long Prairie",
    "state": "MN",
    "zip": "56347",
    "lat": 45.9775,
    "lon": -94.863,
    "kma": "St. Cloud Market",
    "kma_name": "St. Cloud Market",
    "region": "MN",
    "freight_score": 76,
    "population": 3683,
    "zip_zone": "Z5"
  },
  {
    "city": "Melrose",
    "state": "MN",
    "zip": "56352",
    "lat": 45.6757,
    "lon": -94.8128,
    "kma": "St. Cloud Market",
    "kma_name": "St. Cloud Market",
    "region": "MN",
    "freight_score": 76,
    "population": 3608,
    "zip_zone": "Z5"
  },
  {
    "city": "Two Harbors",
    "state": "MN",
    "zip": "55616",
    "lat": 47.0302,
    "lon": -91.6752,
    "kma": "Duluth Market",
    "kma_name": "Duluth Market",
    "region": "MN",
    "freight_score": 76,
    "population": 3598,
    "zip_zone": "Z5"
  },
  {
    "city": "Perham",
    "state": "MN",
    "zip": "56573",
    "lat": 46.5999,
    "lon": -95.5771,
    "kma": "Fargo Market",
    "kma_name": "Fargo Market",
    "region": "MN",
    "freight_score": 76,
    "population": 3577,
    "zip_zone": "Z5"
  },
  {
    "city": "St. Augusta",
    "state": "MN",
    "zip": "55320",
    "lat": 45.4498,
    "lon": -94.1995,
    "kma": "St. Cloud Market",
    "kma_name": "St. Cloud Market",
    "region": "MN",
    "freight_score": 76,
    "population": 3576,
    "zip_zone": "Z5"
  },
  {
    "city": "Plainview",
    "state": "MN",
    "zip": "55964",
    "lat": 44.1648,
    "lon": -92.1697,
    "kma": "Minneapolis Market",
    "kma_name": "Minneapolis Market",
    "region": "MN",
    "freight_score": 76,
    "population": 3501,
    "zip_zone": "Z5"
  },
  {
    "city": "Hanover",
    "state": "MN",
    "zip": "55341",
    "lat": 45.1579,
    "lon": -93.6634,
    "kma": "Minneapolis Market",
    "kma_name": "Minneapolis Market",
    "region": "MN",
    "freight_score": 76,
    "population": 3495,
    "zip_zone": "Z5"
  },
  {
    "city": "Eveleth",
    "state": "MN",
    "zip": "55734",
    "lat": 47.4637,
    "lon": -92.5444,
    "kma": "Duluth Market",
    "kma_name": "Duluth Market",
    "region": "MN",
    "freight_score": 76,
    "population": 3470,
    "zip_zone": "Z5"
  },
  {
    "city": "Benson",
    "state": "MN",
    "zip": "56215",
    "lat": 45.3152,
    "lon": -95.6058,
    "kma": "St. Cloud Market",
    "kma_name": "St. Cloud Market",
    "region": "MN",
    "freight_score": 76,
    "population": 3449,
    "zip_zone": "Z5"
  },
  {
    "city": "Sleepy Eye",
    "state": "MN",
    "zip": "56085",
    "lat": 44.299,
    "lon": -94.7234,
    "kma": "Minneapolis Market",
    "kma_name": "Minneapolis Market",
    "region": "MN",
    "freight_score": 76,
    "population": 3438,
    "zip_zone": "Z5"
  },
  {
    "city": "Breckenridge",
    "state": "MN",
    "zip": "56520",
    "lat": 46.2662,
    "lon": -96.585,
    "kma": "Fargo Market",
    "kma_name": "Fargo Market",
    "region": "MN",
    "freight_score": 76,
    "population": 3369,
    "zip_zone": "Z5"
  },
  {
    "city": "Montgomery",
    "state": "MN",
    "zip": "56069",
    "lat": 44.445,
    "lon": -93.5797,
    "kma": "Minneapolis Market",
    "kma_name": "Minneapolis Market",
    "region": "MN",
    "freight_score": 76,
    "population": 3366,
    "zip_zone": "Z5"
  },
  {
    "city": "Annandale",
    "state": "MN",
    "zip": "55302",
    "lat": 45.2599,
    "lon": -94.1205,
    "kma": "St. Cloud Market",
    "kma_name": "St. Cloud Market",
    "region": "MN",
    "freight_score": 76,
    "population": 3365,
    "zip_zone": "Z5"
  },
  {
    "city": "Pine City",
    "state": "MN",
    "zip": "55063",
    "lat": 45.8368,
    "lon": -92.9682,
    "kma": "St. Cloud Market",
    "kma_name": "St. Cloud Market",
    "region": "MN",
    "freight_score": 76,
    "population": 3339,
    "zip_zone": "Z5"
  },
  {
    "city": "Jackson",
    "state": "MN",
    "zip": "56143",
    "lat": 43.6265,
    "lon": -94.9891,
    "kma": "Sioux Falls Market",
    "kma_name": "Sioux Falls Market",
    "region": "MN",
    "freight_score": 76,
    "population": 3298,
    "zip_zone": "Z5"
  },
  {
    "city": "Moose Lake",
    "state": "MN",
    "zip": "55767",
    "lat": 46.4442,
    "lon": -92.7654,
    "kma": "Duluth Market",
    "kma_name": "Duluth Market",
    "region": "MN",
    "freight_score": 76,
    "population": 3297,
    "zip_zone": "Z5"
  },
  {
    "city": "Eagle Lake",
    "state": "MN",
    "zip": "56024",
    "lat": 44.1636,
    "lon": -93.8823,
    "kma": "Minneapolis Market",
    "kma_name": "Minneapolis Market",
    "region": "MN",
    "freight_score": 76,
    "population": 3268,
    "zip_zone": "Z5"
  },
  {
    "city": "Rush City",
    "state": "MN",
    "zip": "55069",
    "lat": 45.6875,
    "lon": -92.9655,
    "kma": "Minneapolis Market",
    "kma_name": "Minneapolis Market",
    "region": "MN",
    "freight_score": 76,
    "population": 3262,
    "zip_zone": "Z5"
  },
  {
    "city": "Ely",
    "state": "MN",
    "zip": "55731",
    "lat": 47.9054,
    "lon": -91.8517,
    "kma": "Duluth Market",
    "kma_name": "Duluth Market",
    "region": "MN",
    "freight_score": 76,
    "population": 3239,
    "zip_zone": "Z5"
  },
  {
    "city": "Blue Earth",
    "state": "MN",
    "zip": "56013",
    "lat": 43.6409,
    "lon": -94.1005,
    "kma": "Minneapolis Market",
    "kma_name": "Minneapolis Market",
    "region": "MN",
    "freight_score": 76,
    "population": 3170,
    "zip_zone": "Z5"
  },
  {
    "city": "Proctor",
    "state": "MN",
    "zip": "55810",
    "lat": 46.7407,
    "lon": -92.2282,
    "kma": "Duluth Market",
    "kma_name": "Duluth Market",
    "region": "MN",
    "freight_score": 76,
    "population": 3102,
    "zip_zone": "Z5"
  },
  {
    "city": "Milaca",
    "state": "MN",
    "zip": "56353",
    "lat": 45.7574,
    "lon": -93.6513,
    "kma": "St. Cloud Market",
    "kma_name": "St. Cloud Market",
    "region": "MN",
    "freight_score": 76,
    "population": 3033,
    "zip_zone": "Z5"
  },
  {
    "city": "Afton",
    "state": "MN",
    "zip": "55001",
    "lat": 44.9041,
    "lon": -92.8174,
    "kma": "Minneapolis Market",
    "kma_name": "Minneapolis Market",
    "region": "MN",
    "freight_score": 76,
    "population": 2944,
    "zip_zone": "Z5"
  },
  {
    "city": "Greenfield",
    "state": "MN",
    "zip": "55373",
    "lat": 45.0997,
    "lon": -93.6884,
    "kma": "Minneapolis Market",
    "kma_name": "Minneapolis Market",
    "region": "MN",
    "freight_score": 76,
    "population": 2897,
    "zip_zone": "Z5"
  },
  {
    "city": "Mountain Iron",
    "state": "MN",
    "zip": "55768",
    "lat": 47.5474,
    "lon": -92.6255,
    "kma": "Duluth Market",
    "kma_name": "Duluth Market",
    "region": "MN",
    "freight_score": 76,
    "population": 2865,
    "zip_zone": "Z5"
  },
  {
    "city": "Dodge Center",
    "state": "MN",
    "zip": "55927",
    "lat": 44.0284,
    "lon": -92.8518,
    "kma": "Minneapolis Market",
    "kma_name": "Minneapolis Market",
    "region": "MN",
    "freight_score": 76,
    "population": 2864,
    "zip_zone": "Z5"
  },
  {
    "city": "Caledonia",
    "state": "MN",
    "zip": "55921",
    "lat": 43.6344,
    "lon": -91.5009,
    "kma": "Dubuque Market",
    "kma_name": "Dubuque Market",
    "region": "MN",
    "freight_score": 76,
    "population": 2825,
    "zip_zone": "Z5"
  },
  {
    "city": "Albany",
    "state": "MN",
    "zip": "56307",
    "lat": 45.6284,
    "lon": -94.5675,
    "kma": "St. Cloud Market",
    "kma_name": "St. Cloud Market",
    "region": "MN",
    "freight_score": 76,
    "population": 2800,
    "zip_zone": "Z5"
  },
  {
    "city": "Cokato",
    "state": "MN",
    "zip": "55321",
    "lat": 45.077,
    "lon": -94.1877,
    "kma": "St. Cloud Market",
    "kma_name": "St. Cloud Market",
    "region": "MN",
    "freight_score": 76,
    "population": 2780,
    "zip_zone": "Z5"
  },
  {
    "city": "Barnesville",
    "state": "MN",
    "zip": "56514",
    "lat": 46.6501,
    "lon": -96.4164,
    "kma": "Fargo Market",
    "kma_name": "Fargo Market",
    "region": "MN",
    "freight_score": 76,
    "population": 2757,
    "zip_zone": "Z5"
  },
  {
    "city": "Roseau",
    "state": "MN",
    "zip": "56751",
    "lat": 48.8445,
    "lon": -95.7625,
    "kma": "Winnipeg Market",
    "kma_name": "Winnipeg Market",
    "region": "MN",
    "freight_score": 76,
    "population": 2728,
    "zip_zone": "Z5"
  },
  {
    "city": "Cohasset",
    "state": "MN",
    "zip": "55721",
    "lat": 47.2389,
    "lon": -93.6396,
    "kma": "Duluth Market",
    "kma_name": "Duluth Market",
    "region": "MN",
    "freight_score": 76,
    "population": 2700,
    "zip_zone": "Z5"
  },
  {
    "city": "Chatfield",
    "state": "MN",
    "zip": "55923",
    "lat": 43.8445,
    "lon": -92.1829,
    "kma": "Minneapolis Market",
    "kma_name": "Minneapolis Market",
    "region": "MN",
    "freight_score": 76,
    "population": 2693,
    "zip_zone": "Z5"
  },
  {
    "city": "Foley",
    "state": "MN",
    "zip": "56329",
    "lat": 45.6636,
    "lon": -93.9096,
    "kma": "St. Cloud Market",
    "kma_name": "St. Cloud Market",
    "region": "MN",
    "freight_score": 76,
    "population": 2685,
    "zip_zone": "Z5"
  },
  {
    "city": "Glenwood",
    "state": "MN",
    "zip": "56334",
    "lat": 45.6521,
    "lon": -95.3649,
    "kma": "St. Cloud Market",
    "kma_name": "St. Cloud Market",
    "region": "MN",
    "freight_score": 76,
    "population": 2648,
    "zip_zone": "Z5"
  },
  {
    "city": "Breezy Point",
    "state": "MN",
    "zip": "56472",
    "lat": 46.6081,
    "lon": -94.218,
    "kma": "St. Cloud Market",
    "kma_name": "St. Cloud Market",
    "region": "MN",
    "freight_score": 76,
    "population": 2647,
    "zip_zone": "Z5"
  },
  {
    "city": "Lexington",
    "state": "MN",
    "zip": "55014",
    "lat": 45.1381,
    "lon": -93.1714,
    "kma": "Minneapolis Market",
    "kma_name": "Minneapolis Market",
    "region": "MN",
    "freight_score": 76,
    "population": 2616,
    "zip_zone": "Z5"
  },
  {
    "city": "Granite Falls",
    "state": "MN",
    "zip": "56241",
    "lat": 44.8107,
    "lon": -95.5376,
    "kma": "St. Cloud Market",
    "kma_name": "St. Cloud Market",
    "region": "MN",
    "freight_score": 76,
    "population": 2612,
    "zip_zone": "Z5"
  },
  {
    "city": "Osseo",
    "state": "MN",
    "zip": "55369",
    "lat": 45.1179,
    "lon": -93.3991,
    "kma": "Minneapolis Market",
    "kma_name": "Minneapolis Market",
    "region": "MN",
    "freight_score": 76,
    "population": 2601,
    "zip_zone": "Z5"
  },
  {
    "city": "Pelican Rapids",
    "state": "MN",
    "zip": "56572",
    "lat": 46.57,
    "lon": -96.0861,
    "kma": "Fargo Market",
    "kma_name": "Fargo Market",
    "region": "MN",
    "freight_score": 76,
    "population": 2589,
    "zip_zone": "Z5"
  },
  {
    "city": "Wabasha",
    "state": "MN",
    "zip": "55981",
    "lat": 44.3706,
    "lon": -92.042,
    "kma": "Minneapolis Market",
    "kma_name": "Minneapolis Market",
    "region": "MN",
    "freight_score": 76,
    "population": 2569,
    "zip_zone": "Z5"
  },
  {
    "city": "Sandstone",
    "state": "MN",
    "zip": "55072",
    "lat": 46.1292,
    "lon": -92.8646,
    "kma": "Duluth Market",
    "kma_name": "Duluth Market",
    "region": "MN",
    "freight_score": 76,
    "population": 2538,
    "zip_zone": "Z5"
  },
  {
    "city": "Lake Crystal",
    "state": "MN",
    "zip": "56055",
    "lat": 44.1053,
    "lon": -94.2188,
    "kma": "Minneapolis Market",
    "kma_name": "Minneapolis Market",
    "region": "MN",
    "freight_score": 76,
    "population": 2530,
    "zip_zone": "Z5"
  },
  {
    "city": "Rockville",
    "state": "MN",
    "zip": "56320",
    "lat": 45.4654,
    "lon": -94.3218,
    "kma": "St. Cloud Market",
    "kma_name": "St. Cloud Market",
    "region": "MN",
    "freight_score": 76,
    "population": 2521,
    "zip_zone": "Z5"
  },
  {
    "city": "Le Center",
    "state": "MN",
    "zip": "56057",
    "lat": 44.3866,
    "lon": -93.7311,
    "kma": "Minneapolis Market",
    "kma_name": "Minneapolis Market",
    "region": "MN",
    "freight_score": 76,
    "population": 2514,
    "zip_zone": "Z5"
  },
  {
    "city": "Mayer",
    "state": "MN",
    "zip": "55360",
    "lat": 44.8868,
    "lon": -93.8904,
    "kma": "Minneapolis Market",
    "kma_name": "Minneapolis Market",
    "region": "MN",
    "freight_score": 76,
    "population": 2501,
    "zip_zone": "Z5"
  },
  {
    "city": "Paynesville",
    "state": "MN",
    "zip": "56362",
    "lat": 45.3785,
    "lon": -94.7216,
    "kma": "St. Cloud Market",
    "kma_name": "St. Cloud Market",
    "region": "MN",
    "freight_score": 76,
    "population": 2476,
    "zip_zone": "Z5"
  },
  {
    "city": "Janesville",
    "state": "MN",
    "zip": "56048",
    "lat": 44.1198,
    "lon": -93.7096,
    "kma": "Minneapolis Market",
    "kma_name": "Minneapolis Market",
    "region": "MN",
    "freight_score": 76,
    "population": 2449,
    "zip_zone": "Z5"
  },
  {
    "city": "Lauderdale",
    "state": "MN",
    "zip": "55113",
    "lat": 44.9942,
    "lon": -93.2026,
    "kma": "Minneapolis Market",
    "kma_name": "Minneapolis Market",
    "region": "MN",
    "freight_score": 76,
    "population": 2386,
    "zip_zone": "Z5"
  },
  {
    "city": "Madelia",
    "state": "MN",
    "zip": "56062",
    "lat": 44.0482,
    "lon": -94.4199,
    "kma": "Minneapolis Market",
    "kma_name": "Minneapolis Market",
    "region": "MN",
    "freight_score": 76,
    "population": 2380,
    "zip_zone": "Z5"
  },
  {
    "city": "Staples",
    "state": "MN",
    "zip": "56479",
    "lat": 46.369,
    "lon": -94.8019,
    "kma": "St. Cloud Market",
    "kma_name": "St. Cloud Market",
    "region": "MN",
    "freight_score": 76,
    "population": 2359,
    "zip_zone": "Z5"
  },
  {
    "city": "Excelsior",
    "state": "MN",
    "zip": "55331",
    "lat": 44.9025,
    "lon": -93.5663,
    "kma": "Minneapolis Market",
    "kma_name": "Minneapolis Market",
    "region": "MN",
    "freight_score": 76,
    "population": 2359,
    "zip_zone": "Z5"
  },
  {
    "city": "Spring Valley",
    "state": "MN",
    "zip": "55975",
    "lat": 43.6888,
    "lon": -92.3897,
    "kma": "Minneapolis Market",
    "kma_name": "Minneapolis Market",
    "region": "MN",
    "freight_score": 76,
    "population": 2357,
    "zip_zone": "Z5"
  },
  {
    "city": "Wells",
    "state": "MN",
    "zip": "56097",
    "lat": 43.7427,
    "lon": -93.7281,
    "kma": "Minneapolis Market",
    "kma_name": "Minneapolis Market",
    "region": "MN",
    "freight_score": 76,
    "population": 2317,
    "zip_zone": "Z5"
  },
  {
    "city": "Arlington",
    "state": "MN",
    "zip": "55307",
    "lat": 44.6083,
    "lon": -94.0768,
    "kma": "Minneapolis Market",
    "kma_name": "Minneapolis Market",
    "region": "MN",
    "freight_score": 76,
    "population": 2298,
    "zip_zone": "Z5"
  },
  {
    "city": "Crosby",
    "state": "MN",
    "zip": "56441",
    "lat": 46.4892,
    "lon": -93.9573,
    "kma": "St. Cloud Market",
    "kma_name": "St. Cloud Market",
    "region": "MN",
    "freight_score": 76,
    "population": 2253,
    "zip_zone": "Z5"
  },
  {
    "city": "Olivia",
    "state": "MN",
    "zip": "56277",
    "lat": 44.777,
    "lon": -94.9971,
    "kma": "St. Cloud Market",
    "kma_name": "St. Cloud Market",
    "region": "MN",
    "freight_score": 76,
    "population": 2243,
    "zip_zone": "Z5"
  },
  {
    "city": "Pequot Lakes",
    "state": "MN",
    "zip": "56472",
    "lat": 46.5875,
    "lon": -94.2983,
    "kma": "St. Cloud Market",
    "kma_name": "St. Cloud Market",
    "region": "MN",
    "freight_score": 76,
    "population": 2236,
    "zip_zone": "Z5"
  },
  {
    "city": "Aitkin",
    "state": "MN",
    "zip": "56431",
    "lat": 46.5262,
    "lon": -93.7056,
    "kma": "St. Cloud Market",
    "kma_name": "St. Cloud Market",
    "region": "MN",
    "freight_score": 76,
    "population": 2217,
    "zip_zone": "Z5"
  },
  {
    "city": "Springfield",
    "state": "MN",
    "zip": "56087",
    "lat": 44.2372,
    "lon": -94.9819,
    "kma": "Minneapolis Market",
    "kma_name": "Minneapolis Market",
    "region": "MN",
    "freight_score": 76,
    "population": 2209,
    "zip_zone": "Z5"
  },
  {
    "city": "Cologne",
    "state": "MN",
    "zip": "55322",
    "lat": 44.7696,
    "lon": -93.7931,
    "kma": "Minneapolis Market",
    "kma_name": "Minneapolis Market",
    "region": "MN",
    "freight_score": 76,
    "population": 2146,
    "zip_zone": "Z5"
  },
  {
    "city": "Maple Lake",
    "state": "MN",
    "zip": "55358",
    "lat": 45.2334,
    "lon": -94.0063,
    "kma": "St. Cloud Market",
    "kma_name": "St. Cloud Market",
    "region": "MN",
    "freight_score": 76,
    "population": 2104,
    "zip_zone": "Z5"
  },
  {
    "city": "Eyota",
    "state": "MN",
    "zip": "55934",
    "lat": 43.9883,
    "lon": -92.2321,
    "kma": "Minneapolis Market",
    "kma_name": "Minneapolis Market",
    "region": "MN",
    "freight_score": 76,
    "population": 2090,
    "zip_zone": "Z5"
  },
  {
    "city": "Slayton",
    "state": "MN",
    "zip": "56172",
    "lat": 43.9901,
    "lon": -95.7576,
    "kma": "Sioux Falls Market",
    "kma_name": "Sioux Falls Market",
    "region": "MN",
    "freight_score": 76,
    "population": 2089,
    "zip_zone": "Z5"
  },
  {
    "city": "Hawley",
    "state": "MN",
    "zip": "56549",
    "lat": 46.877,
    "lon": -96.318,
    "kma": "Fargo Market",
    "kma_name": "Fargo Market",
    "region": "MN",
    "freight_score": 76,
    "population": 2086,
    "zip_zone": "Z5"
  },
  {
    "city": "Hoyt Lakes",
    "state": "MN",
    "zip": "55750",
    "lat": 47.5601,
    "lon": -92.1163,
    "kma": "Duluth Market",
    "kma_name": "Duluth Market",
    "region": "MN",
    "freight_score": 76,
    "population": 2074,
    "zip_zone": "Z5"
  },
  {
    "city": "Gaylord",
    "state": "MN",
    "zip": "55334",
    "lat": 44.5559,
    "lon": -94.2133,
    "kma": "Minneapolis Market",
    "kma_name": "Minneapolis Market",
    "region": "MN",
    "freight_score": 76,
    "population": 2074,
    "zip_zone": "Z5"
  },
  {
    "city": "Warroad",
    "state": "MN",
    "zip": "56763",
    "lat": 48.9168,
    "lon": -95.3271,
    "kma": "Winnipeg Market",
    "kma_name": "Winnipeg Market",
    "region": "MN",
    "freight_score": 76,
    "population": 2067,
    "zip_zone": "Z5"
  },
  {
    "city": "Esko",
    "state": "MN",
    "zip": "55733",
    "lat": 46.71,
    "lon": -92.3721,
    "kma": "Duluth Market",
    "kma_name": "Duluth Market",
    "region": "MN",
    "freight_score": 76,
    "population": 2063,
    "zip_zone": "Z5"
  },
  {
    "city": "Winsted",
    "state": "MN",
    "zip": "55395",
    "lat": 44.9574,
    "lon": -94.0498,
    "kma": "Minneapolis Market",
    "kma_name": "Minneapolis Market",
    "region": "MN",
    "freight_score": 76,
    "population": 2023,
    "zip_zone": "Z5"
  },
  {
    "city": "Rice",
    "state": "MN",
    "zip": "56367",
    "lat": 45.7525,
    "lon": -94.2317,
    "kma": "St. Cloud Market",
    "kma_name": "St. Cloud Market",
    "region": "MN",
    "freight_score": 75,
    "population": 1998,
    "zip_zone": "Z5"
  },
  {
    "city": "Stacy",
    "state": "MN",
    "zip": "55056",
    "lat": 45.3841,
    "lon": -92.9938,
    "kma": "Minneapolis Market",
    "kma_name": "Minneapolis Market",
    "region": "MN",
    "freight_score": 75,
    "population": 1992,
    "zip_zone": "Z5"
  },
  {
    "city": "St. Bonifacius",
    "state": "MN",
    "zip": "55375",
    "lat": 44.9054,
    "lon": -93.7477,
    "kma": "Minneapolis Market",
    "kma_name": "Minneapolis Market",
    "region": "MN",
    "freight_score": 75,
    "population": 1982,
    "zip_zone": "Z5"
  },
  {
    "city": "Blooming Prairie",
    "state": "MN",
    "zip": "55917",
    "lat": 43.8684,
    "lon": -93.0552,
    "kma": "Minneapolis Market",
    "kma_name": "Minneapolis Market",
    "region": "MN",
    "freight_score": 75,
    "population": 1977,
    "zip_zone": "Z5"
  },
  {
    "city": "Ortonville",
    "state": "MN",
    "zip": "56278",
    "lat": 45.3018,
    "lon": -96.4415,
    "kma": "Fargo Market",
    "kma_name": "Fargo Market",
    "region": "MN",
    "freight_score": 75,
    "population": 1968,
    "zip_zone": "Z5"
  },
  {
    "city": "Waverly",
    "state": "MN",
    "zip": "55390",
    "lat": 45.065,
    "lon": -93.967,
    "kma": "Minneapolis Market",
    "kma_name": "Minneapolis Market",
    "region": "MN",
    "freight_score": 75,
    "population": 1947,
    "zip_zone": "Z5"
  },
  {
    "city": "Clearwater",
    "state": "MN",
    "zip": "55320",
    "lat": 45.4102,
    "lon": -94.0447,
    "kma": "St. Cloud Market",
    "kma_name": "St. Cloud Market",
    "region": "MN",
    "freight_score": 75,
    "population": 1904,
    "zip_zone": "Z5"
  },
  {
    "city": "Aurora",
    "state": "MN",
    "zip": "55705",
    "lat": 47.5312,
    "lon": -92.24,
    "kma": "Duluth Market",
    "kma_name": "Duluth Market",
    "region": "MN",
    "freight_score": 75,
    "population": 1897,
    "zip_zone": "Z5"
  },
  {
    "city": "Maple Plain",
    "state": "MN",
    "zip": "55359",
    "lat": 45.0088,
    "lon": -93.6618,
    "kma": "Minneapolis Market",
    "kma_name": "Minneapolis Market",
    "region": "MN",
    "freight_score": 75,
    "population": 1889,
    "zip_zone": "Z5"
  },
  {
    "city": "Coleraine",
    "state": "MN",
    "zip": "55709",
    "lat": 47.2639,
    "lon": -93.4524,
    "kma": "Duluth Market",
    "kma_name": "Duluth Market",
    "region": "MN",
    "freight_score": 75,
    "population": 1888,
    "zip_zone": "Z5"
  },
  {
    "city": "Dundas",
    "state": "MN",
    "zip": "55019",
    "lat": 44.4276,
    "lon": -93.2039,
    "kma": "Minneapolis Market",
    "kma_name": "Minneapolis Market",
    "region": "MN",
    "freight_score": 75,
    "population": 1882,
    "zip_zone": "Z5"
  },
  {
    "city": "Tracy",
    "state": "MN",
    "zip": "56175",
    "lat": 44.239,
    "lon": -95.6153,
    "kma": "Sioux Falls Market",
    "kma_name": "Sioux Falls Market",
    "region": "MN",
    "freight_score": 75,
    "population": 1869,
    "zip_zone": "Z5"
  },
  {
    "city": "Spring Park",
    "state": "MN",
    "zip": "55384",
    "lat": 44.9364,
    "lon": -93.632,
    "kma": "Minneapolis Market",
    "kma_name": "Minneapolis Market",
    "region": "MN",
    "freight_score": 75,
    "population": 1869,
    "zip_zone": "Z5"
  },
  {
    "city": "Howard Lake",
    "state": "MN",
    "zip": "55349",
    "lat": 45.0606,
    "lon": -94.067,
    "kma": "St. Cloud Market",
    "kma_name": "St. Cloud Market",
    "region": "MN",
    "freight_score": 75,
    "population": 1864,
    "zip_zone": "Z5"
  },
  {
    "city": "Lester Prairie",
    "state": "MN",
    "zip": "55354",
    "lat": 44.8829,
    "lon": -94.0375,
    "kma": "Minneapolis Market",
    "kma_name": "Minneapolis Market",
    "region": "MN",
    "freight_score": 75,
    "population": 1848,
    "zip_zone": "Z5"
  },
  {
    "city": "Ada",
    "state": "MN",
    "zip": "56510",
    "lat": 47.2989,
    "lon": -96.5165,
    "kma": "Fargo Market",
    "kma_name": "Fargo Market",
    "region": "MN",
    "freight_score": 75,
    "population": 1834,
    "zip_zone": "Z5"
  },
  {
    "city": "Mountain Lake",
    "state": "MN",
    "zip": "56159",
    "lat": 43.9407,
    "lon": -94.9277,
    "kma": "Sioux Falls Market",
    "kma_name": "Sioux Falls Market",
    "region": "MN",
    "freight_score": 75,
    "population": 1833,
    "zip_zone": "Z5"
  },
  {
    "city": "Kenyon",
    "state": "MN",
    "zip": "55946",
    "lat": 44.2726,
    "lon": -92.9858,
    "kma": "Minneapolis Market",
    "kma_name": "Minneapolis Market",
    "region": "MN",
    "freight_score": 75,
    "population": 1811,
    "zip_zone": "Z5"
  },
  {
    "city": "Silver Bay",
    "state": "MN",
    "zip": "55614",
    "lat": 47.2941,
    "lon": -91.278,
    "kma": "Duluth Market",
    "kma_name": "Duluth Market",
    "region": "MN",
    "freight_score": 75,
    "population": 1790,
    "zip_zone": "Z5"
  },
  {
    "city": "Rushford",
    "state": "MN",
    "zip": "55971",
    "lat": 43.8132,
    "lon": -91.7538,
    "kma": "Dubuque Market",
    "kma_name": "Dubuque Market",
    "region": "MN",
    "freight_score": 75,
    "population": 1790,
    "zip_zone": "Z5"
  },
  {
    "city": "Waterville",
    "state": "MN",
    "zip": "56096",
    "lat": 44.2235,
    "lon": -93.5746,
    "kma": "Minneapolis Market",
    "kma_name": "Minneapolis Market",
    "region": "MN",
    "freight_score": 75,
    "population": 1778,
    "zip_zone": "Z5"
  },
  {
    "city": "Mapleton",
    "state": "MN",
    "zip": "56065",
    "lat": 43.9266,
    "lon": -93.9546,
    "kma": "Minneapolis Market",
    "kma_name": "Minneapolis Market",
    "region": "MN",
    "freight_score": 75,
    "population": 1745,
    "zip_zone": "Z5"
  },
  {
    "city": "Nisswa",
    "state": "MN",
    "zip": "56468",
    "lat": 46.5003,
    "lon": -94.2977,
    "kma": "St. Cloud Market",
    "kma_name": "St. Cloud Market",
    "region": "MN",
    "freight_score": 75,
    "population": 1744,
    "zip_zone": "Z5"
  },
  {
    "city": "Rock Creek",
    "state": "MN",
    "zip": "55063",
    "lat": 45.7604,
    "lon": -92.9088,
    "kma": "Minneapolis Market",
    "kma_name": "Minneapolis Market",
    "region": "MN",
    "freight_score": 75,
    "population": 1711,
    "zip_zone": "Z5"
  },
  {
    "city": "Long Lake",
    "state": "MN",
    "zip": "55356",
    "lat": 44.984,
    "lon": -93.5689,
    "kma": "Minneapolis Market",
    "kma_name": "Minneapolis Market",
    "region": "MN",
    "freight_score": 75,
    "population": 1710,
    "zip_zone": "Z5"
  },
  {
    "city": "Grand Marais",
    "state": "MN",
    "zip": "55604",
    "lat": 47.7588,
    "lon": -90.3445,
    "kma": "Duluth Market",
    "kma_name": "Duluth Market",
    "region": "MN",
    "freight_score": 75,
    "population": 1700,
    "zip_zone": "Z5"
  },
  {
    "city": "Gilbert",
    "state": "MN",
    "zip": "55741",
    "lat": 47.4912,
    "lon": -92.4612,
    "kma": "Duluth Market",
    "kma_name": "Duluth Market",
    "region": "MN",
    "freight_score": 75,
    "population": 1693,
    "zip_zone": "Z5"
  },
  {
    "city": "Lewiston",
    "state": "MN",
    "zip": "55952",
    "lat": 43.9824,
    "lon": -91.8694,
    "kma": "Minneapolis Market",
    "kma_name": "Minneapolis Market",
    "region": "MN",
    "freight_score": 75,
    "population": 1680,
    "zip_zone": "Z5"
  },
  {
    "city": "Braham",
    "state": "MN",
    "zip": "55006",
    "lat": 45.7223,
    "lon": -93.1717,
    "kma": "St. Cloud Market",
    "kma_name": "St. Cloud Market",
    "region": "MN",
    "freight_score": 75,
    "population": 1674,
    "zip_zone": "Z5"
  },
  {
    "city": "Osakis",
    "state": "MN",
    "zip": "56360",
    "lat": 45.8649,
    "lon": -95.1524,
    "kma": "St. Cloud Market",
    "kma_name": "St. Cloud Market",
    "region": "MN",
    "freight_score": 75,
    "population": 1667,
    "zip_zone": "Z5"
  },
  {
    "city": "Hinckley",
    "state": "MN",
    "zip": "55037",
    "lat": 46.0122,
    "lon": -92.9256,
    "kma": "Duluth Market",
    "kma_name": "Duluth Market",
    "region": "MN",
    "freight_score": 75,
    "population": 1665,
    "zip_zone": "Z5"
  },
  {
    "city": "Oronoco",
    "state": "MN",
    "zip": "55960",
    "lat": 44.1598,
    "lon": -92.5401,
    "kma": "Minneapolis Market",
    "kma_name": "Minneapolis Market",
    "region": "MN",
    "freight_score": 75,
    "population": 1665,
    "zip_zone": "Z5"
  },
  {
    "city": "Lakefield",
    "state": "MN",
    "zip": "56150",
    "lat": 43.678,
    "lon": -95.1695,
    "kma": "Sioux Falls Market",
    "kma_name": "Sioux Falls Market",
    "region": "MN",
    "freight_score": 75,
    "population": 1652,
    "zip_zone": "Z5"
  },
  {
    "city": "Warren",
    "state": "MN",
    "zip": "56762",
    "lat": 48.194,
    "lon": -96.7688,
    "kma": "Fargo Market",
    "kma_name": "Fargo Market",
    "region": "MN",
    "freight_score": 75,
    "population": 1637,
    "zip_zone": "Z5"
  },
  {
    "city": "Saint John's University",
    "state": "MN",
    "zip": "56321",
    "lat": 45.5798,
    "lon": -94.3931,
    "kma": "St. Cloud Market",
    "kma_name": "St. Cloud Market",
    "region": "MN",
    "freight_score": 75,
    "population": 1615,
    "zip_zone": "Z5"
  },
  {
    "city": "Frazee",
    "state": "MN",
    "zip": "56544",
    "lat": 46.7282,
    "lon": -95.7026,
    "kma": "Fargo Market",
    "kma_name": "Fargo Market",
    "region": "MN",
    "freight_score": 75,
    "population": 1595,
    "zip_zone": "Z5"
  },
  {
    "city": "Pierz",
    "state": "MN",
    "zip": "56364",
    "lat": 45.9772,
    "lon": -94.1008,
    "kma": "St. Cloud Market",
    "kma_name": "St. Cloud Market",
    "region": "MN",
    "freight_score": 75,
    "population": 1581,
    "zip_zone": "Z5"
  },
  {
    "city": "Canby",
    "state": "MN",
    "zip": "56220",
    "lat": 44.7158,
    "lon": -96.269,
    "kma": "Sioux Falls Market",
    "kma_name": "Sioux Falls Market",
    "region": "MN",
    "freight_score": 75,
    "population": 1563,
    "zip_zone": "Z5"
  },
  {
    "city": "Minneota",
    "state": "MN",
    "zip": "56264",
    "lat": 44.5625,
    "lon": -95.9827,
    "kma": "Sioux Falls Market",
    "kma_name": "Sioux Falls Market",
    "region": "MN",
    "freight_score": 75,
    "population": 1531,
    "zip_zone": "Z5"
  },
  {
    "city": "Lakeland",
    "state": "MN",
    "zip": "55043",
    "lat": 44.9503,
    "lon": -92.77,
    "kma": "Minneapolis Market",
    "kma_name": "Minneapolis Market",
    "region": "MN",
    "freight_score": 75,
    "population": 1510,
    "zip_zone": "Z5"
  },
  {
    "city": "Madison",
    "state": "MN",
    "zip": "56256",
    "lat": 45.0127,
    "lon": -96.189,
    "kma": "Sioux Falls Market",
    "kma_name": "Sioux Falls Market",
    "region": "MN",
    "freight_score": 75,
    "population": 1507,
    "zip_zone": "Z5"
  },
  {
    "city": "Red Lake",
    "state": "MN",
    "zip": "56671",
    "lat": 47.8701,
    "lon": -95.0059,
    "kma": "Fargo Market",
    "kma_name": "Fargo Market",
    "region": "MN",
    "freight_score": 75,
    "population": 1506,
    "zip_zone": "Z5"
  },
  {
    "city": "Clara City",
    "state": "MN",
    "zip": "56222",
    "lat": 44.9576,
    "lon": -95.3671,
    "kma": "St. Cloud Market",
    "kma_name": "St. Cloud Market",
    "region": "MN",
    "freight_score": 75,
    "population": 1497,
    "zip_zone": "Z5"
  },
  {
    "city": "Avon",
    "state": "MN",
    "zip": "56310",
    "lat": 45.61,
    "lon": -94.4618,
    "kma": "St. Cloud Market",
    "kma_name": "St. Cloud Market",
    "region": "MN",
    "freight_score": 75,
    "population": 1493,
    "zip_zone": "Z5"
  },
  {
    "city": "Dawson",
    "state": "MN",
    "zip": "56232",
    "lat": 44.929,
    "lon": -96.0504,
    "kma": "Sioux Falls Market",
    "kma_name": "Sioux Falls Market",
    "region": "MN",
    "freight_score": 75,
    "population": 1441,
    "zip_zone": "Z5"
  },
  {
    "city": "Babbitt",
    "state": "MN",
    "zip": "55706",
    "lat": 47.6443,
    "lon": -91.9461,
    "kma": "Duluth Market",
    "kma_name": "Duluth Market",
    "region": "MN",
    "freight_score": 75,
    "population": 1420,
    "zip_zone": "Z5"
  },
  {
    "city": "Renville",
    "state": "MN",
    "zip": "56284",
    "lat": 44.7908,
    "lon": -95.2048,
    "kma": "St. Cloud Market",
    "kma_name": "St. Cloud Market",
    "region": "MN",
    "freight_score": 75,
    "population": 1397,
    "zip_zone": "Z5"
  },
  {
    "city": "Hayfield",
    "state": "MN",
    "zip": "55940",
    "lat": 43.8902,
    "lon": -92.8471,
    "kma": "Minneapolis Market",
    "kma_name": "Minneapolis Market",
    "region": "MN",
    "freight_score": 75,
    "population": 1382,
    "zip_zone": "Z5"
  },
  {
    "city": "Tonka Bay",
    "state": "MN",
    "zip": "55331",
    "lat": 44.9167,
    "lon": -93.5885,
    "kma": "Minneapolis Market",
    "kma_name": "Minneapolis Market",
    "region": "MN",
    "freight_score": 75,
    "population": 1361,
    "zip_zone": "Z5"
  },
  {
    "city": "Appleton",
    "state": "MN",
    "zip": "56208",
    "lat": 45.1998,
    "lon": -96.0225,
    "kma": "St. Cloud Market",
    "kma_name": "St. Cloud Market",
    "region": "MN",
    "freight_score": 75,
    "population": 1360,
    "zip_zone": "Z5"
  },
  {
    "city": "Fulda",
    "state": "MN",
    "zip": "56131",
    "lat": 43.8691,
    "lon": -95.6023,
    "kma": "Sioux Falls Market",
    "kma_name": "Sioux Falls Market",
    "region": "MN",
    "freight_score": 75,
    "population": 1348,
    "zip_zone": "Z5"
  },
  {
    "city": "Richmond",
    "state": "MN",
    "zip": "56368",
    "lat": 45.4547,
    "lon": -94.5135,
    "kma": "St. Cloud Market",
    "kma_name": "St. Cloud Market",
    "region": "MN",
    "freight_score": 75,
    "population": 1336,
    "zip_zone": "Z5"
  },
  {
    "city": "Wheaton",
    "state": "MN",
    "zip": "56296",
    "lat": 45.8059,
    "lon": -96.498,
    "kma": "Fargo Market",
    "kma_name": "Fargo Market",
    "region": "MN",
    "freight_score": 75,
    "population": 1334,
    "zip_zone": "Z5"
  },
  {
    "city": "Dassel",
    "state": "MN",
    "zip": "55325",
    "lat": 45.0831,
    "lon": -94.315,
    "kma": "St. Cloud Market",
    "kma_name": "St. Cloud Market",
    "region": "MN",
    "freight_score": 75,
    "population": 1332,
    "zip_zone": "Z5"
  },
  {
    "city": "New York Mills",
    "state": "MN",
    "zip": "56567",
    "lat": 46.5198,
    "lon": -95.3732,
    "kma": "Fargo Market",
    "kma_name": "Fargo Market",
    "region": "MN",
    "freight_score": 75,
    "population": 1319,
    "zip_zone": "Z5"
  },
  {
    "city": "Preston",
    "state": "MN",
    "zip": "55965",
    "lat": 43.6726,
    "lon": -92.0828,
    "kma": "Minneapolis Market",
    "kma_name": "Minneapolis Market",
    "region": "MN",
    "freight_score": 75,
    "population": 1315,
    "zip_zone": "Z5"
  },
  {
    "city": "Starbuck",
    "state": "MN",
    "zip": "56381",
    "lat": 45.6116,
    "lon": -95.5322,
    "kma": "St. Cloud Market",
    "kma_name": "St. Cloud Market",
    "region": "MN",
    "freight_score": 75,
    "population": 1307,
    "zip_zone": "Z5"
  },
  {
    "city": "Menahga",
    "state": "MN",
    "zip": "56464",
    "lat": 46.7471,
    "lon": -95.1012,
    "kma": "Fargo Market",
    "kma_name": "Fargo Market",
    "region": "MN",
    "freight_score": 75,
    "population": 1292,
    "zip_zone": "Z5"
  },
  {
    "city": "Adrian",
    "state": "MN",
    "zip": "56110",
    "lat": 43.6332,
    "lon": -95.9329,
    "kma": "Sioux Falls Market",
    "kma_name": "Sioux Falls Market",
    "region": "MN",
    "freight_score": 75,
    "population": 1288,
    "zip_zone": "Z5"
  },
  {
    "city": "Glyndon",
    "state": "MN",
    "zip": "56547",
    "lat": 46.8709,
    "lon": -96.5784,
    "kma": "Fargo Market",
    "kma_name": "Fargo Market",
    "region": "MN",
    "freight_score": 75,
    "population": 1286,
    "zip_zone": "Z5"
  },
  {
    "city": "Fosston",
    "state": "MN",
    "zip": "56542",
    "lat": 47.5856,
    "lon": -95.7577,
    "kma": "Fargo Market",
    "kma_name": "Fargo Market",
    "region": "MN",
    "freight_score": 75,
    "population": 1283,
    "zip_zone": "Z5"
  },
  {
    "city": "Winthrop",
    "state": "MN",
    "zip": "55396",
    "lat": 44.5424,
    "lon": -94.3598,
    "kma": "Minneapolis Market",
    "kma_name": "Minneapolis Market",
    "region": "MN",
    "freight_score": 75,
    "population": 1275,
    "zip_zone": "Z5"
  },
  {
    "city": "Red Lake Falls",
    "state": "MN",
    "zip": "56750",
    "lat": 47.8837,
    "lon": -96.2727,
    "kma": "Fargo Market",
    "kma_name": "Fargo Market",
    "region": "MN",
    "freight_score": 75,
    "population": 1267,
    "zip_zone": "Z5"
  },
  {
    "city": "Goodhue",
    "state": "MN",
    "zip": "55027",
    "lat": 44.3994,
    "lon": -92.6255,
    "kma": "Minneapolis Market",
    "kma_name": "Minneapolis Market",
    "region": "MN",
    "freight_score": 75,
    "population": 1261,
    "zip_zone": "Z5"
  },
  {
    "city": "Winnebago",
    "state": "MN",
    "zip": "56098",
    "lat": 43.7645,
    "lon": -94.1702,
    "kma": "Minneapolis Market",
    "kma_name": "Minneapolis Market",
    "region": "MN",
    "freight_score": 75,
    "population": 1247,
    "zip_zone": "Z5"
  },
  {
    "city": "Keewatin",
    "state": "MN",
    "zip": "55769",
    "lat": 47.4005,
    "lon": -93.0828,
    "kma": "Duluth Market",
    "kma_name": "Duluth Market",
    "region": "MN",
    "freight_score": 75,
    "population": 1229,
    "zip_zone": "Z5"
  },
  {
    "city": "Truman",
    "state": "MN",
    "zip": "56088",
    "lat": 43.8279,
    "lon": -94.4366,
    "kma": "Minneapolis Market",
    "kma_name": "Minneapolis Market",
    "region": "MN",
    "freight_score": 75,
    "population": 1223,
    "zip_zone": "Z5"
  },
  {
    "city": "Spring Grove",
    "state": "MN",
    "zip": "55974",
    "lat": 43.5607,
    "lon": -91.6373,
    "kma": "Dubuque Market",
    "kma_name": "Dubuque Market",
    "region": "MN",
    "freight_score": 75,
    "population": 1223,
    "zip_zone": "Z5"
  },
  {
    "city": "Spicer",
    "state": "MN",
    "zip": "56288",
    "lat": 45.2331,
    "lon": -94.9401,
    "kma": "St. Cloud Market",
    "kma_name": "St. Cloud Market",
    "region": "MN",
    "freight_score": 75,
    "population": 1222,
    "zip_zone": "Z5"
  },
  {
    "city": "Bagley",
    "state": "MN",
    "zip": "56621",
    "lat": 47.5244,
    "lon": -95.4031,
    "kma": "Fargo Market",
    "kma_name": "Fargo Market",
    "region": "MN",
    "freight_score": 75,
    "population": 1218,
    "zip_zone": "Z5"
  },
  {
    "city": "Atwater",
    "state": "MN",
    "zip": "56209",
    "lat": 45.1356,
    "lon": -94.7769,
    "kma": "St. Cloud Market",
    "kma_name": "St. Cloud Market",
    "region": "MN",
    "freight_score": 75,
    "population": 1217,
    "zip_zone": "Z5"
  },
  {
    "city": "Taylors Falls",
    "state": "MN",
    "zip": "55084",
    "lat": 45.4121,
    "lon": -92.6644,
    "kma": "Minneapolis Market",
    "kma_name": "Minneapolis Market",
    "region": "MN",
    "freight_score": 75,
    "population": 1208,
    "zip_zone": "Z5"
  },
  {
    "city": "Edgerton",
    "state": "MN",
    "zip": "56128",
    "lat": 43.8753,
    "lon": -96.1305,
    "kma": "Sioux Falls Market",
    "kma_name": "Sioux Falls Market",
    "region": "MN",
    "freight_score": 75,
    "population": 1207,
    "zip_zone": "Z5"
  },
  {
    "city": "Martin Lake",
    "state": "MN",
    "zip": "55079",
    "lat": 45.3824,
    "lon": -93.0885,
    "kma": "Minneapolis Market",
    "kma_name": "Minneapolis Market",
    "region": "MN",
    "freight_score": 75,
    "population": 1203,
    "zip_zone": "Z5"
  },
  {
    "city": "Medford",
    "state": "MN",
    "zip": "55049",
    "lat": 44.1685,
    "lon": -93.2472,
    "kma": "Minneapolis Market",
    "kma_name": "Minneapolis Market",
    "region": "MN",
    "freight_score": 75,
    "population": 1194,
    "zip_zone": "Z5"
  },
  {
    "city": "Wanamingo",
    "state": "MN",
    "zip": "55983",
    "lat": 44.3026,
    "lon": -92.7872,
    "kma": "Minneapolis Market",
    "kma_name": "Minneapolis Market",
    "region": "MN",
    "freight_score": 75,
    "population": 1185,
    "zip_zone": "Z5"
  },
  {
    "city": "Madison Lake",
    "state": "MN",
    "zip": "56063",
    "lat": 44.2074,
    "lon": -93.8175,
    "kma": "Minneapolis Market",
    "kma_name": "Minneapolis Market",
    "region": "MN",
    "freight_score": 75,
    "population": 1178,
    "zip_zone": "Z5"
  },
  {
    "city": "Redby",
    "state": "MN",
    "zip": "56670",
    "lat": 47.8715,
    "lon": -94.9052,
    "kma": "Fargo Market",
    "kma_name": "Fargo Market",
    "region": "MN",
    "freight_score": 75,
    "population": 1175,
    "zip_zone": "Z5"
  },
  {
    "city": "East Gull Lake",
    "state": "MN",
    "zip": "56401",
    "lat": 46.3948,
    "lon": -94.3548,
    "kma": "St. Cloud Market",
    "kma_name": "St. Cloud Market",
    "region": "MN",
    "freight_score": 75,
    "population": 1173,
    "zip_zone": "Z5"
  },
  {
    "city": "Elbow Lake",
    "state": "MN",
    "zip": "56531",
    "lat": 45.9902,
    "lon": -95.9791,
    "kma": "Fargo Market",
    "kma_name": "Fargo Market",
    "region": "MN",
    "freight_score": 75,
    "population": 1158,
    "zip_zone": "Z5"
  },
  {
    "city": "New London",
    "state": "MN",
    "zip": "56273",
    "lat": 45.2974,
    "lon": -94.9478,
    "kma": "St. Cloud Market",
    "kma_name": "St. Cloud Market",
    "region": "MN",
    "freight_score": 75,
    "population": 1156,
    "zip_zone": "Z5"
  },
  {
    "city": "Shafer",
    "state": "MN",
    "zip": "55074",
    "lat": 45.3901,
    "lon": -92.7531,
    "kma": "Minneapolis Market",
    "kma_name": "Minneapolis Market",
    "region": "MN",
    "freight_score": 75,
    "population": 1151,
    "zip_zone": "Z5"
  },
  {
    "city": "Elgin",
    "state": "MN",
    "zip": "55932",
    "lat": 44.1258,
    "lon": -92.2478,
    "kma": "Minneapolis Market",
    "kma_name": "Minneapolis Market",
    "region": "MN",
    "freight_score": 75,
    "population": 1147,
    "zip_zone": "Z5"
  },
  {
    "city": "Dellwood",
    "state": "MN",
    "zip": "55110",
    "lat": 45.0985,
    "lon": -92.9672,
    "kma": "Minneapolis Market",
    "kma_name": "Minneapolis Market",
    "region": "MN",
    "freight_score": 75,
    "population": 1145,
    "zip_zone": "Z5"
  },
  {
    "city": "Fairfax",
    "state": "MN",
    "zip": "55332",
    "lat": 44.5283,
    "lon": -94.7231,
    "kma": "St. Cloud Market",
    "kma_name": "St. Cloud Market",
    "region": "MN",
    "freight_score": 75,
    "population": 1134,
    "zip_zone": "Z5"
  },
  {
    "city": "Cottonwood",
    "state": "MN",
    "zip": "56229",
    "lat": 44.6105,
    "lon": -95.6721,
    "kma": "Sioux Falls Market",
    "kma_name": "Sioux Falls Market",
    "region": "MN",
    "freight_score": 75,
    "population": 1120,
    "zip_zone": "Z5"
  },
  {
    "city": "Lake Shore",
    "state": "MN",
    "zip": "56468",
    "lat": 46.504,
    "lon": -94.3635,
    "kma": "St. Cloud Market",
    "kma_name": "St. Cloud Market",
    "region": "MN",
    "freight_score": 75,
    "population": 1117,
    "zip_zone": "Z5"
  },
  {
    "city": "Baudette",
    "state": "MN",
    "zip": "56623",
    "lat": 48.7119,
    "lon": -94.5924,
    "kma": "Winnipeg Market",
    "kma_name": "Winnipeg Market",
    "region": "MN",
    "freight_score": 75,
    "population": 1117,
    "zip_zone": "Z5"
  },
  {
    "city": "Mahnomen",
    "state": "MN",
    "zip": "56557",
    "lat": 47.3147,
    "lon": -95.9673,
    "kma": "Fargo Market",
    "kma_name": "Fargo Market",
    "region": "MN",
    "freight_score": 75,
    "population": 1116,
    "zip_zone": "Z5"
  },
  {
    "city": "Hector",
    "state": "MN",
    "zip": "55342",
    "lat": 44.7412,
    "lon": -94.712,
    "kma": "St. Cloud Market",
    "kma_name": "St. Cloud Market",
    "region": "MN",
    "freight_score": 75,
    "population": 1111,
    "zip_zone": "Z5"
  },
  {
    "city": "Lake St. Croix Beach",
    "state": "MN",
    "zip": "55043",
    "lat": 44.9245,
    "lon": -92.7657,
    "kma": "Minneapolis Market",
    "kma_name": "Minneapolis Market",
    "region": "MN",
    "freight_score": 75,
    "population": 1106,
    "zip_zone": "Z5"
  },
  {
    "city": "Royalton",
    "state": "MN",
    "zip": "56373",
    "lat": 45.8302,
    "lon": -94.2931,
    "kma": "St. Cloud Market",
    "kma_name": "St. Cloud Market",
    "region": "MN",
    "freight_score": 75,
    "population": 1092,
    "zip_zone": "Z5"
  },