[
  {
    "city": "Burlington",
    "state": "VT",
    "zip": "05405",
    "lat": 44.4876,
    "lon": -73.2316,
    "kma": "Albany Market",
    "kma_name": "Albany Market",
    "region": "VT",
    "freight_score": 100,
    "population": 118409,
    "zip_zone": "Z0"
  },
  {
    "city": "South Burlington",
    "state": "VT",
    "zip": "05403",
    "lat": 44.4622,
    "lon": -73.2202,
    "kma": "Albany Market",
    "kma_name": "Albany Market",
    "region": "VT",
    "freight_score": 80,
    "population": 20488,
    "zip_zone": "Z0"
  },
  {
    "city": "Rutland",
    "state": "VT",
    "zip": "05701",
    "lat": 43.6092,
    "lon": -72.9783,
    "kma": "Albany Market",
    "kma_name": "Albany Market",
    "region": "VT",
    "freight_score": 79,
    "population": 15747,
    "zip_zone": "Z0"
  },
  {
    "city": "Essex Junction",
    "state": "VT",
    "zip": "05452",
    "lat": 44.4902,
    "lon": -73.1141,
    "kma": "Albany Market",
    "kma_name": "Albany Market",
    "region": "VT",
    "freight_score": 78,
    "population": 10720,
    "zip_zone": "Z0"
  },
  {
    "city": "Barre",
    "state": "VT",
    "zip": "05641",
    "lat": 44.1998,
    "lon": -72.5085,
    "kma": "Albany Market",
    "kma_name": "Albany Market",
    "region": "VT",
    "freight_score": 77,
    "population": 8461,
    "zip_zone": "Z0"
  },
  {
    "city": "Winooski",
    "state": "VT",
    "zip": "05404",
    "lat": 44.4948,
    "lon": -73.1846,
    "kma": "Albany Market",
    "kma_name": "Albany Market",
    "region": "VT",
    "freight_score": 77,
    "population": 8198,
    "zip_zone": "Z0"
  },
  {
    "city": "Montpelier",
    "state": "VT",
    "zip": "05602",
    "lat": 44.2659,
    "lon": -72.5717,
    "kma": "Albany Market",
    "kma_name": "Albany Market",
    "region": "VT",
    "freight_score": 77,
    "population": 8038,
    "zip_zone": "Z0"
  },
  {
    "city": "St. Albans",
    "state": "VT",
    "zip": "05478",
    "lat": 44.8119,
    "lon": -73.0849,
    "kma": "Albany Market",
    "kma_name": "Albany Market",
    "region": "VT",
    "freight_score": 77,
    "population": 6910,
    "zip_zone": "Z0"
  },
  {
    "city": "Newport",
    "state": "VT",
    "zip": "05855",
    "lat": 44.9372,
    "lon": -72.209,
    "kma": "Quebec Market",
    "kma_name": "Quebec Market",
    "region": "VT",
    "freight_score": 76,
    "population": 4413,
    "zip_zone": "Z0"
  },
  {
    "city": "Wilder",
    "state": "VT",
    "zip": "05088",
    "lat": 43.6804,
    "lon": -72.3168,
    "kma": "Albany Market",
    "kma_name": "Albany Market",
    "region": "VT",
    "freight_score": 76,
    "population": 3394,
    "zip_zone": "Z0"
  },
  {
    "city": "White River Junction",
    "state": "VT",
    "zip": "05001",
    "lat": 43.6499,
    "lon": -72.329,
    "kma": "Albany Market",
    "kma_name": "Albany Market",
    "region": "VT",
    "freight_score": 76,
    "population": 2878,
    "zip_zone": "Z0"
  },
  {
    "city": "Bellows Falls",
    "state": "VT",
    "zip": "05101",
    "lat": 43.1344,
    "lon": -72.455,
    "kma": "Springfield Market",
    "kma_name": "Springfield Market",
    "region": "VT",
    "freight_score": 76,
    "population": 2851,
    "zip_zone": "Z0"
  },
  {
    "city": "West Brattleboro",
    "state": "VT",
    "zip": "05301",
    "lat": 42.8559,
    "lon": -72.6018,
    "kma": "Springfield Market",
    "kma_name": "Springfield Market",
    "region": "VT",
    "freight_score": 76,
    "population": 2614,
    "zip_zone": "Z0"
  },
  {
    "city": "Vergennes",
    "state": "VT",
    "zip": "05491",
    "lat": 44.1664,
    "lon": -73.2557,
    "kma": "Albany Market",
    "kma_name": "Albany Market",
    "region": "VT",
    "freight_score": 76,
    "population": 2571,
    "zip_zone": "Z0"
  },
  {
    "city": "Morrisville",
    "state": "VT",
    "zip": "05661",
    "lat": 44.5583,
    "lon": -72.5933,
    "kma": "Albany Market",
    "kma_name": "Albany Market",
    "region": "VT",
    "freight_score": 76,
    "population": 2527,
    "zip_zone": "Z0"
  },
  {
    "city": "Manchester Center",
    "state": "VT",
    "zip": "05255",
    "lat": 43.182,
    "lon": -73.0369,
    "kma": "Albany Market",
    "kma_name": "Albany Market",
    "region": "VT",
    "freight_score": 75,
    "population": 1935,
    "zip_zone": "Z0"
  },
  {
    "city": "Enosburg Falls",
    "state": "VT",
    "zip": "05450",
    "lat": 44.9083,
    "lon": -72.8026,
    "kma": "Quebec Market",
    "kma_name": "Quebec Market",
    "region": "VT",
    "freight_score": 75,
    "population": 1595,
    "zip_zone": "Z0"
  },
  {
    "city": "Proctor",
    "state": "VT",
    "zip": "05765",
    "lat": 43.6691,
    "lon": -73.0405,
    "kma": "Albany Market",
    "kma_name": "Albany Market",
    "region": "VT",
    "freight_score": 75,
    "population": 1568,
    "zip_zone": "Z0"
  },
  {
    "city": "North Bennington",
    "state": "VT",
    "zip": "05257",
    "lat": 42.924,
    "lon": -73.2411,
    "kma": "Albany Market",
    "kma_name": "Albany Market",
    "region": "VT",
    "freight_score": 75,
    "population": 1342,
    "zip_zone": "Z0"
  },
  {
    "city": "South Barre",
    "state": "VT",
    "zip": "05641",
    "lat": 44.1646,
    "lon": -72.5038,
    "kma": "Albany Market",
    "kma_name": "Albany Market",
    "region": "VT",
    "freight_score": 75,
    "population": 1259,
    "zip_zone": "Z0"
  },
  {
    "city": "Lyndonville",
    "state": "VT",
    "zip": "05851",
    "lat": 44.5351,
    "lon": -72.0017,
    "kma": "Albany Market",
    "kma_name": "Albany Market",
    "region": "VT",
    "freight_score": 75,
    "population": 1229,
    "zip_zone": "Z0"
  },
  {
    "city": "East Barre",
    "state": "VT",
    "zip": "05649",
    "lat": 44.15,
    "lon": -72.4498,
    "kma": "Albany Market",
    "kma_name": "Albany Market",
    "region": "VT",
    "freight_score": 75,
    "population": 1084,
    "zip_zone": "Z0"
  },
  {
    "city": "Derby Line",
    "state": "VT",
    "zip": "05830",
    "lat": 45.0008,
    "lon": -72.1035,
    "kma": "Quebec Market",
    "kma_name": "Quebec Market",
    "region": "VT",
    "freight_score": 75,
    "population": 860,
    "zip_zone": "Z0"
  },
  {
    "city": "Orleans",
    "state": "VT",
    "zip": "05860",
    "lat": 44.809,
    "lon": -72.2011,
    "kma": "Quebec Market",
    "kma_name": "Quebec Market",
    "region": "VT",
    "freight_score": 75,
    "population": 848,
    "zip_zone": "Z0"
  },
  {
    "city": "Castleton Four Corners",
    "state": "VT",
    "zip": "05735",
    "lat": 43.6105,
    "lon": -73.2104,
    "kma": "Albany Market",
    "kma_name": "Albany Market",
    "region": "VT",
    "freight_score": 75,
    "population": 807,
    "zip_zone": "Z0"
  },
  {
    "city": "Jeffersonville",
    "state": "VT",
    "zip": "05464",
    "lat": 44.6427,
    "lon": -72.8282,
    "kma": "Albany Market",
    "kma_name": "Albany Market",
    "region": "VT",
    "freight_score": 75,
    "population": 729,
    "zip_zone": "Z0"
  },
  {
    "city": "Island Pond",
    "state": "VT",
    "zip": "05846",
    "lat": 44.8125,
    "lon": -71.8862,
    "kma": "Quebec Market",
    "kma_name": "Quebec Market",
    "region": "VT",
    "freight_score": 75,
    "population": 698,
    "zip_zone": "Z0"
  },
  {
    "city": "Derby Center",
    "state": "VT",
    "zip": "05829",
    "lat": 44.9549,
    "lon": -72.1361,
    "kma": "Quebec Market",
    "kma_name": "Quebec Market",
    "region": "VT",
    "freight_score": 75,
    "population": 684,
    "zip_zone": "Z0"
  },
  {
    "city": "Pownal",
    "state": "VT",
    "zip": "05261",
    "lat": 42.7653,
    "lon": -73.2355,
    "kma": "Albany Market",
    "kma_name": "Albany Market",
    "region": "VT",
    "freight_score": 75,
    "population": 587,
    "zip_zone": "Z0"
  },
  {
    "city": "Huntington",
    "state": "VT",
    "zip": "05462",
    "lat": 44.3274,
    "lon": -72.9892,
    "kma": "Albany Market",
    "kma_name": "Albany Market",
    "region": "VT",
    "freight_score": 75,
    "population": 579,
    "zip_zone": "Z0"
  },
  {
    "city": "Killington Village",
    "state": "VT",
    "zip": "05751",
    "lat": 43.6505,
    "lon": -72.7851,
    "kma": "Albany Market",
    "kma_name": "Albany Market",
    "region": "VT",
    "freight_score": 75,
    "population": 578,
    "zip_zone": "Z0"
  },
  {
    "city": "North Troy",
    "state": "VT",
    "zip": "05859",
    "lat": 44.9963,
    "lon": -72.4038,
    "kma": "Quebec Market",
    "kma_name": "Quebec Market",
    "region": "VT",
    "freight_score": 75,
    "population": 550,
    "zip_zone": "Z0"
  },
  {
    "city": "Hartford Village",
    "state": "VT",
    "zip": "05001",
    "lat": 43.6638,
    "lon": -72.3364,
    "kma": "Albany Market",
    "kma_name": "Albany Market",
    "region": "VT",
    "freight_score": 75,
    "population": 548,
    "zip_zone": "Z0"
  },
  {
    "city": "Underhill Flats",
    "state": "VT",
    "zip": "05465",
    "lat": 44.5232,
    "lon": -72.9463,
    "kma": "Albany Market",
    "kma_name": "Albany Market",
    "region": "VT",
    "freight_score": 75,
    "population": 537,
    "zip_zone": "Z0"
  },
  {
    "city": "Stamford",
    "state": "VT",
    "zip": "05352",
    "lat": 42.7595,
    "lon": -73.0562,
    "kma": "Albany Market",
    "kma_name": "Albany Market",
    "region": "VT",
    "freight_score": 75,
    "population": 522,
    "zip_zone": "Z0"
  },
  {
    "city": "Saxtons River",
    "state": "VT",
    "zip": "05101",
    "lat": 43.139,
    "lon": -72.5102,
    "kma": "Albany Market",
    "kma_name": "Albany Market",
    "region": "VT",
    "freight_score": 75,
    "population": 519,
    "zip_zone": "Z0"
  },
  {
    "city": "West Woodstock",
    "state": "VT",
    "zip": "05091",
    "lat": 43.6113,
    "lon": -72.5513,
    "kma": "Albany Market",
    "kma_name": "Albany Market",
    "region": "VT",
    "freight_score": 75,
    "population": 507,
    "zip_zone": "Z0"
  },
  {
    "city": "Pownal Center",
    "state": "VT",
    "zip": "05261",
    "lat": 42.7977,
    "lon": -73.2214,
    "kma": "Albany Market",
    "kma_name": "Albany Market",
    "region": "VT",
    "freight_score": 75,
    "population": 475,
    "zip_zone": "Z0"
  },
  {
    "city": "Saint George",
    "state": "VT",
    "zip": "05495",
    "lat": 44.377,
    "lon": -73.13,
    "kma": "Albany Market",
    "kma_name": "Albany Market",
    "region": "VT",
    "freight_score": 75,
    "population": 466,
    "zip_zone": "Z0"
  },
  {
    "city": "South Shaftsbury",
    "state": "VT",
    "zip": "05262",
    "lat": 42.9411,
    "lon": -73.202,
    "kma": "Albany Market",
    "kma_name": "Albany Market",
    "region": "VT",
    "freight_score": 75,
    "population": 442,
    "zip_zone": "Z0"
  },
  {
    "city": "South Royalton",
    "state": "VT",
    "zip": "05068",
    "lat": 43.8123,
    "lon": -72.5155,
    "kma": "Albany Market",
    "kma_name": "Albany Market",
    "region": "VT",
    "freight_score": 75,
    "population": 435,
    "zip_zone": "Z0"
  },
  {
    "city": "North Springfield",
    "state": "VT",
    "zip": "05150",
    "lat": 43.3304,
    "lon": -72.5277,
    "kma": "Albany Market",
    "kma_name": "Albany Market",
    "region": "VT",
    "freight_score": 75,
    "population": 432,
    "zip_zone": "Z0"
  },
  {
    "city": "Lunenburg",
    "state": "VT",
    "zip": "05906",
    "lat": 44.457,
    "lon": -71.6803,
    "kma": "Boston Market",
    "kma_name": "Boston Market",
    "region": "VT",
    "freight_score": 75,
    "population": 430,
    "zip_zone": "Z0"
  },
  {
    "city": "Websterville",
    "state": "VT",
    "zip": "05641",
    "lat": 44.1619,
    "lon": -72.4733,
    "kma": "Albany Market",
    "kma_name": "Albany Market",
    "region": "VT",
    "freight_score": 75,
    "population": 427,
    "zip_zone": "Z0"
  },
  {
    "city": "Ascutney",
    "state": "VT",
    "zip": "05030",
    "lat": 43.408,
    "lon": -72.407,
    "kma": "Albany Market",
    "kma_name": "Albany Market",
    "region": "VT",
    "freight_score": 75,
    "population": 413,
    "zip_zone": "Z0"
  },
  {
    "city": "Highgate Center",
    "state": "VT",
    "zip": "05459",
    "lat": 44.9375,
    "lon": -73.0421,
    "kma": "Quebec Market",
    "kma_name": "Quebec Market",
    "region": "VT",
    "freight_score": 75,
    "population": 410,
    "zip_zone": "Z0"
  },
  {
    "city": "North Hartland",
    "state": "VT",
    "zip": "05048",
    "lat": 43.5936,
    "lon": -72.3578,
    "kma": "Albany Market",
    "kma_name": "Albany Market",
    "region": "VT",
    "freight_score": 75,
    "population": 406,
    "zip_zone": "Z0"
  },
  {
    "city": "East Middlebury",
    "state": "VT",
    "zip": "05753",
    "lat": 43.9746,
    "lon": -73.1052,
    "kma": "Albany Market",
    "kma_name": "Albany Market",
    "region": "VT",
    "freight_score": 75,
    "population": 390,
    "zip_zone": "Z0"
  },
  {
    "city": "Bakersfield",
    "state": "VT",
    "zip": "05448",
    "lat": 44.7821,
    "lon": -72.8032,
    "kma": "Albany Market",
    "kma_name": "Albany Market",
    "region": "VT",
    "freight_score": 75,
    "population": 377,
    "zip_zone": "Z0"
  },
  {
    "city": "Graniteville",
    "state": "VT",
    "zip": "05654",
    "lat": 44.1463,
    "lon": -72.4818,
    "kma": "Albany Market",
    "kma_name": "Albany Market",
    "region": "VT",
    "freight_score": 75,
    "population": 362,
    "zip_zone": "Z0"
  },
  {
    "city": "North Hyde Park",
    "state": "VT",
    "zip": "05655",
    "lat": 44.6702,
    "lon": -72.5927,
    "kma": "Albany Market",
    "kma_name": "Albany Market",
    "region": "VT",
    "freight_score": 75,
    "population": 346,
    "zip_zone": "Z0"
  },
  {
    "city": "North Pownal",
    "state": "VT",
    "zip": "05260",
    "lat": 42.7984,
    "lon": -73.262,
    "kma": "Albany Market",
    "kma_name": "Albany Market",
    "region": "VT",
    "freight_score": 75,
    "population": 345,
    "zip_zone": "Z0"
  },
  {
    "city": "Wells River",
    "state": "VT",
    "zip": "05081",
    "lat": 44.1538,
    "lon": -72.0615,
    "kma": "Boston Market",
    "kma_name": "Boston Market",
    "region": "VT",
    "freight_score": 75,
    "population": 339,
    "zip_zone": "Z0"
  },
  {
    "city": "Lyndon Center",
    "state": "VT",
    "zip": "05851",
    "lat": 44.5377,
    "lon": -72.0142,
    "kma": "Albany Market",
    "kma_name": "Albany Market",
    "region": "VT",
    "freight_score": 75,
    "population": 337,
    "zip_zone": "Z0"
  },
  {
    "city": "Proctorsville",
    "state": "VT",
    "zip": "05153",
    "lat": 43.381,
    "lon": -72.6373,
    "kma": "Albany Market",
    "kma_name": "Albany Market",
    "region": "VT",
    "freight_score": 75,
    "population": 309,
    "zip_zone": "Z0"
  },
  {
    "city": "Greensboro Bend",
    "state": "VT",
    "zip": "05842",
    "lat": 44.5582,
    "lon": -72.2643,
    "kma": "Albany Market",
    "kma_name": "Albany Market",
    "region": "VT",
    "freight_score": 75,
    "population": 308,
    "zip_zone": "Z0"
  },
  {
    "city": "Pawlet",
    "state": "VT",
    "zip": "05761",
    "lat": 43.3481,
    "lon": -73.1743,
    "kma": "Albany Market",
    "kma_name": "Albany Market",
    "region": "VT",
    "freight_score": 75,
    "population": 306,
    "zip_zone": "Z0"
  },
  {
    "city": "West Pawlet",
    "state": "VT",
    "zip": "05775",
    "lat": 43.3575,
    "lon": -73.247,
    "kma": "Albany Market",
    "kma_name": "Albany Market",
    "region": "VT",
    "freight_score": 75,
    "population": 301,
    "zip_zone": "Z0"
  },
  {
    "city": "Quechee",
    "state": "VT",
    "zip": "05059",
    "lat": 43.6445,
    "lon": -72.4184,
    "kma": "Albany Market",
    "kma_name": "Albany Market",
    "region": "VT",
    "freight_score": 75,
    "population": 297,
    "zip_zone": "Z0"
  },
  {
    "city": "East Dorset",
    "state": "VT",
    "zip": "05253",
    "lat": 43.245,
    "lon": -73.0069,
    "kma": "Albany Market",
    "kma_name": "Albany Market",
    "region": "VT",
    "freight_score": 75,
    "population": 297,
    "zip_zone": "Z0"
  },
  {
    "city": "Lincoln",
    "state": "VT",
    "zip": "05443",
    "lat": 44.1028,
    "lon": -72.9937,
    "kma": "Albany Market",
    "kma_name": "Albany Market",
    "region": "VT",
    "freight_score": 75,
    "population": 290,
    "zip_zone": "Z0"
  },
  {
    "city": "Peacham",
    "state": "VT",
    "zip": "05862",
    "lat": 44.3296,
    "lon": -72.1725,
    "kma": "Albany Market",
    "kma_name": "Albany Market",
    "region": "VT",
    "freight_score": 75,
    "population": 277,
    "zip_zone": "Z0"
  },
  {
    "city": "North Clarendon",
    "state": "VT",
    "zip": "05701",
    "lat": 43.5722,
    "lon": -72.9667,
    "kma": "Albany Market",
    "kma_name": "Albany Market",
    "region": "VT",
    "freight_score": 75,
    "population": 273,
    "zip_zone": "Z0"
  },
  {
    "city": "East Poultney",
    "state": "VT",
    "zip": "05764",
    "lat": 43.5259,
    "lon": -73.2107,
    "kma": "Albany Market",
    "kma_name": "Albany Market",
    "region": "VT",
    "freight_score": 75,
    "population": 257,
    "zip_zone": "Z0"
  },
  {
    "city": "Waterbury Center",
    "state": "VT",
    "zip": "05677",
    "lat": 44.378,
    "lon": -72.7208,
    "kma": "Albany Market",
    "kma_name": "Albany Market",
    "region": "VT",
    "freight_score": 75,
    "population": 228,
    "zip_zone": "Z0"
  },
  {
    "city": "Wolcott",
    "state": "VT",
    "zip": "05680",
    "lat": 44.5476,
    "lon": -72.4617,
    "kma": "Albany Market",
    "kma_name": "Albany Market",
    "region": "VT",
    "freight_score": 75,
    "population": 209,
    "zip_zone": "Z0"
  },
  {
    "city": "Newport Center",
    "state": "VT",
    "zip": "05857",
    "lat": 44.9527,
    "lon": -72.3065,
    "kma": "Quebec Market",
    "kma_name": "Quebec Market",
    "region": "VT",
    "freight_score": 75,
    "population": 207,
    "zip_zone": "Z0"
  },
  {
    "city": "Sheffield",
    "state": "VT",
    "zip": "05866",
    "lat": 44.5996,
    "lon": -72.116,
    "kma": "Albany Market",
    "kma_name": "Albany Market",
    "region": "VT",
    "freight_score": 75,
    "population": 200,
    "zip_zone": "Z0"
  },
  {
    "city": "West Charlotte",
    "state": "VT",
    "zip": "05445",
    "lat": 44.3099,
    "lon": -73.2546,
    "kma": "Albany Market",
    "kma_name": "Albany Market",
    "region": "VT",
    "freight_score": 75,
    "population": 187,
    "zip_zone": "Z0"
  },
  {
    "city": "South Londonderry",
    "state": "VT",
    "zip": "05155",
    "lat": 43.1904,
    "lon": -72.8118,
    "kma": "Albany Market",
    "kma_name": "Albany Market",
    "region": "VT",
    "freight_score": 75,
    "population": 184,
    "zip_zone": "Z0"
  },
  {
    "city": "New Haven",
    "state": "VT",
    "zip": "05472",
    "lat": 44.1266,
    "lon": -73.151,
    "kma": "Albany Market",
    "kma_name": "Albany Market",
    "region": "VT",
    "freight_score": 75,
    "population": 184,
    "zip_zone": "Z0"
  },
  {
    "city": "South Hero",
    "state": "VT",
    "zip": "05486",
    "lat": 44.6479,
    "lon": -73.3017,
    "kma": "Albany Market",
    "kma_name": "Albany Market",
    "region": "VT",
    "freight_score": 75,
    "population": 183,
    "zip_zone": "Z0"
  },
  {
    "city": "Algiers",
    "state": "VT",
    "zip": "05301",
    "lat": 42.8182,
    "lon": -72.5771,
    "kma": "Springfield Market",
    "kma_name": "Springfield Market",
    "region": "VT",
    "freight_score": 75,
    "population": 182,
    "zip_zone": "Z0"
  },
  {
    "city": "Westford",
    "state": "VT",
    "zip": "05494",
    "lat": 44.6079,
    "lon": -73.0113,
    "kma": "Albany Market",
    "kma_name": "Albany Market",
    "region": "VT",
    "freight_score": 75,
    "population": 182,
    "zip_zone": "Z0"
  },
  {
    "city": "Bolton Valley",
    "state": "VT",
    "zip": "05477",
    "lat": 44.4166,
    "lon": -72.8576,
    "kma": "Albany Market",
    "kma_name": "Albany Market",
    "region": "VT",
    "freight_score": 75,
    "population": 177,
    "zip_zone": "Z0"
  },
  {
    "city": "Danby",
    "state": "VT",
    "zip": "05739",
    "lat": 43.3452,
    "lon": -72.9946,
    "kma": "Albany Market",
    "kma_name": "Albany Market",
    "region": "VT",
    "freight_score": 75,
    "population": 166,
    "zip_zone": "Z0"
  },
  {
    "city": "West Burke",
    "state": "VT",
    "zip": "05871",
    "lat": 44.6431,
    "lon": -71.9792,
    "kma": "Quebec Market",
    "kma_name": "Quebec Market",
    "region": "VT",
    "freight_score": 75,
    "population": 165,
    "zip_zone": "Z0"
  },
  {
    "city": "Sutton",
    "state": "VT",
    "zip": "05867",
    "lat": 44.629,
    "lon": -72.0277,
    "kma": "Quebec Market",
    "kma_name": "Quebec Market",
    "region": "VT",
    "freight_score": 75,
    "population": 165,
    "zip_zone": "Z0"
  },
  {
    "city": "Harmonyville",
    "state": "VT",
    "zip": "05353",
    "lat": 43.0372,
    "lon": -72.6657,
    "kma": "Albany Market",
    "kma_name": "Albany Market",
    "region": "VT",
    "freight_score": 75,
    "population": 159,
    "zip_zone": "Z0"
  },
  {
    "city": "South Lincoln",
    "state": "VT",
    "zip": "05443",
    "lat": 44.0651,
    "lon": -72.9748,
    "kma": "Albany Market",
    "kma_name": "Albany Market",
    "region": "VT",
    "freight_score": 75,
    "population": 159,
    "zip_zone": "Z0"
  },
  {
    "city": "Townshend",
    "state": "VT",
    "zip": "05353",
    "lat": 43.047,
    "lon": -72.6692,
    "kma": "Albany Market",
    "kma_name": "Albany Market",
    "region": "VT",
    "freight_score": 75,
    "population": 158,
    "zip_zone": "Z0"
  },
  {
    "city": "Old Bennington",
    "state": "VT",
    "zip": "05201",
    "lat": 42.8848,
    "lon": -73.2143,
    "kma": "Albany Market",
    "kma_name": "Albany Market",
    "region": "VT",
    "freight_score": 75,
    "population": 153,
    "zip_zone": "Z0"
  },
  {
    "city": "Jacksonville",
    "state": "VT",
    "zip": "05342",
    "lat": 42.7976,
    "lon": -72.8192,
    "kma": "Albany Market",
    "kma_name": "Albany Market",
    "region": "VT",
    "freight_score": 75,
    "population": 152,
    "zip_zone": "Z0"
  },
  {
    "city": "North Westminster",
    "state": "VT",
    "zip": "05101",
    "lat": 43.1219,
    "lon": -72.4554,
    "kma": "Springfield Market",
    "kma_name": "Springfield Market",
    "region": "VT",
    "freight_score": 75,
    "population": 152,
    "zip_zone": "Z0"
  },
  {
    "city": "Whitingham",
    "state": "VT",
    "zip": "05361",
    "lat": 42.7892,
    "lon": -72.8834,
    "kma": "Albany Market",
    "kma_name": "Albany Market",
    "region": "VT",
    "freight_score": 75,
    "population": 147,
    "zip_zone": "Z0"
  },
  {
    "city": "Gilman",
    "state": "VT",
    "zip": "05906",
    "lat": 44.4135,
    "lon": -71.7157,
    "kma": "Boston Market",
    "kma_name": "Boston Market",
    "region": "VT",
    "freight_score": 75,
    "population": 146,
    "zip_zone": "Z0"
  },
  {
    "city": "Huntington Center",
    "state": "VT",
    "zip": "05462",
    "lat": 44.2906,
    "lon": -72.9672,
    "kma": "Albany Market",
    "kma_name": "Albany Market",
    "region": "VT",
    "freight_score": 75,
    "population": 143,
    "zip_zone": "Z0"
  },
  {
    "city": "East Burke",
    "state": "VT",
    "zip": "05832",
    "lat": 44.5875,
    "lon": -71.9403,
    "kma": "Quebec Market",
    "kma_name": "Quebec Market",
    "region": "VT",
    "freight_score": 75,
    "population": 141,
    "zip_zone": "Z0"
  },
  {
    "city": "East Charlotte",
    "state": "VT",
    "zip": "05445",
    "lat": 44.3184,
    "lon": -73.1909,
    "kma": "Albany Market",
    "kma_name": "Albany Market",
    "region": "VT",
    "freight_score": 75,
    "population": 135,
    "zip_zone": "Z0"
  },
  {
    "city": "Middletown Springs",
    "state": "VT",
    "zip": "05757",
    "lat": 43.4865,
    "lon": -73.1232,
    "kma": "Albany Market",
    "kma_name": "Albany Market",
    "region": "VT",
    "freight_score": 75,
    "population": 134,
    "zip_zone": "Z0"
  },
  {
    "city": "Chittenden",
    "state": "VT",
    "zip": "05737",
    "lat": 43.7039,
    "lon": -72.9494,
    "kma": "Albany Market",
    "kma_name": "Albany Market",
    "region": "VT",
    "freight_score": 75,
    "population": 123,
    "zip_zone": "Z0"
  },
  {
    "city": "Stratton Mountain",
    "state": "VT",
    "zip": "05155",
    "lat": 43.117,
    "lon": -72.9025,
    "kma": "Albany Market",
    "kma_name": "Albany Market",
    "region": "VT",
    "freight_score": 75,
    "population": 97,
    "zip_zone": "Z0"
  },
  {
    "city": "Lyndon",
    "state": "VT",
    "zip": "05851",
    "lat": 44.5154,
    "lon": -72.0134,
    "kma": "Albany Market",
    "kma_name": "Albany Market",
    "region": "VT",
    "freight_score": 75,
    "population": 95,
    "zip_zone": "Z0"
  },
  {
    "city": "Chimney Hill",
    "state": "VT",
    "zip": "05363",
    "lat": 42.8888,
    "lon": -72.904,
    "kma": "Albany Market",
    "kma_name": "Albany Market",
    "region": "VT",
    "freight_score": 75,
    "population": 87,
    "zip_zone": "Z0"
  },
  {
    "city": "Grafton",
    "state": "VT",
    "zip": "05146",
    "lat": 43.1706,
    "lon": -72.6084,
    "kma": "Albany Market",
    "kma_name": "Albany Market",
    "region": "VT",
    "freight_score": 75,
    "population": 74,
    "zip_zone": "Z0"
  },
  {
    "city": "Beecher Falls",
    "state": "VT",
    "zip": "05902",
    "lat": 45.0091,
    "lon": -71.4936,
    "kma": "Quebec Market",
    "kma_name": "Quebec Market",
    "region": "VT",
    "freight_score": 75,
    "population": 73,
    "zip_zone": "Z0"
  },
  {
    "city": "Londonderry",
    "state": "VT",
    "zip": "05148",
    "lat": 43.2278,
    "lon": -72.8083,
    "kma": "Albany Market",
    "kma_name": "Albany Market",
    "region": "VT",
    "freight_score": 75,
    "population": 69,
    "zip_zone": "Z0"
  },
  {
    "city": "Wardsboro",
    "state": "VT",
    "zip": "05355",
    "lat": 43.0435,
    "lon": -72.7889,
    "kma": "Albany Market",
    "kma_name": "Albany Market",
    "region": "VT",
    "freight_score": 75,
    "population": 67,
    "zip_zone": "Z0"
  },
  {
    "city": "West Dummerston",
    "state": "VT",
    "zip": "05301",
    "lat": 42.9299,
    "lon": -72.6128,
    "kma": "Springfield Market",
    "kma_name": "Springfield Market",
    "region": "VT",
    "freight_score": 75,
    "population": 59,
    "zip_zone": "Z0"
  },
  {
    "city": "Weston",
    "state": "VT",
    "zip": "05161",
    "lat": 43.2904,
    "lon": -72.7922,
    "kma": "Albany Market",
    "kma_name": "Albany Market",
    "region": "VT",
    "freight_score": 75,
    "population": 58,
    "zip_zone": "Z0"
  },
  {
    "city": "Jamaica",
    "state": "VT",
    "zip": "05343",
    "lat": 43.0975,
    "lon": -72.7784,
    "kma": "Albany Market",
    "kma_name": "Albany Market",
    "region": "VT",
    "freight_score": 75,
    "population": 55,
    "zip_zone": "Z0"
  },
  {
    "city": "Hanksville",
    "state": "VT",
    "zip": "05462",
    "lat": 44.2514,
    "lon": -72.9614,
    "kma": "Albany Market",
    "kma_name": "Albany Market",
    "region": "VT",
    "freight_score": 75,
    "population": 50,
    "zip_zone": "Z0"
  },
  {
    "city": "Underhill Center",
    "state": "VT",
    "zip": "05489",
    "lat": 44.508,
    "lon": -72.8989,
    "kma": "Albany Market",
    "kma_name": "Albany Market",
    "region": "VT",
    "freight_score": 75,
    "population": 43,
    "zip_zone": "Z0"
  },
  {
    "city": "South Woodstock",
    "state": "VT",
    "zip": "05071",
    "lat": 43.5608,
    "lon": -72.5321,
    "kma": "Albany Market",
    "kma_name": "Albany Market",
    "region": "VT",
    "freight_score": 75,
    "population": 19,
    "zip_zone": "Z0"
  },
  {
    "city": "Bolton",
    "state": "VT",
    "zip": "05676",
    "lat": 44.3742,
    "lon": -72.8859,
    "kma": "Albany Market",
    "kma_name": "Albany Market",
    "region": "VT",
    "freight_score": 75,
    "population": 19,
    "zip_zone": "Z0"
  },
  {
    "city": "Highgate Springs",
    "state": "VT",
    "zip": "05488",
    "lat": 44.9782,
    "lon": -73.1056,
    "kma": "Quebec Market",
    "kma_name": "Quebec Market",
    "region": "VT",
    "freight_score": 75,
    "population": 2,
    "zip_zone": "Z0"
  }
]